{"queryCost": 1, "latitude": 32.495, "longitude": -94.746, "resolvedAddress": "32.49500,-94.74600", "address": "32.49500,-94.74600", "timezone": "America/Chicago", "tzoffset": -6.0, "days": [{"datetime": "2015-01-22", "datetimeEpoch": 1421906400, "tempmax": 49.6, "tempmin": 39.5, "temp": 43.4, "feelslikemax": 46.1, "feelslikemin": 32.1, "feelslike": 37.5, "dew": 39.2, "humidity": 85.2, "precip": 1.52, "precipprob": 100.0, "precipcover": 87.5, "preciptype": ["rain"], "snow": 0.0, "snowdepth": 0.0, "windgust": 25.7, "windspeed": 14.7, "winddir": 56.5, "pressure": 1022.7, "cloudcover": 100.0, "visibility": 7.2, "solarradiation": 39.3, "solarenergy": 3.5, "uvindex": 2.0, "sunrise": "07:18:54", "sunriseEpoch": 1421932734, "sunset": "17:42:31", "sunsetEpoch": 1421970151, "moonphase": 0.03, "conditions": "Rain, Overcast", "description": "Cloudy skies throughout the day with a chance of rain throughout the day.", "icon": "rain", "stations": ["72247003901", "72211253982", "KJXI", "72057700175", "KRFI", "KGGG"], "source": "obs"}], "stations": {"72247003901": {"distance": 12694.0, "latitude": 32.385, "longitude": -94.712, "useCount": 0, "id": "72247003901", "name": "LONGVIEW E TEXAS REGIONAL AIRPORT, TX US", "quality": 100, "contribution": 0.0}, "72211253982": {"distance": 29619.0, "latitude": 32.699, "longitude": -94.949, "useCount": 0, "id": "72211253982", "name": "GILMER MUNICIPAL AIRPORT, TX US", "quality": 99, "contribution": 0.0}, "KJXI": {"distance": 29779.0, "latitude": 32.7, "longitude": -94.95, "useCount": 0, "id": "KJXI", "name": "KJXI", "quality": 99, "contribution": 0.0}, "72057700175": {"distance": 39632.0, "latitude": 32.15, "longitude": -94.85, "useCount": 0, "id": "72057700175", "name": "RUSK CO AIRPORT, TX US", "quality": 100, "contribution": 0.0}, "KRFI": {"distance": 40712.0, "latitude": 32.14, "longitude": -94.85, "useCount": 0, "id": "KRFI", "name": "KRFI", "quality": 98, "contribution": 0.0}, "KGGG": {"distance": 13033.0, "latitude": 32.38, "longitude": -94.72, "useCount": 0, "id": "KGGG", "name": "KGGG", "quality": 100, "contribution": 0.0}}}