{"queryCost": 1, "latitude": 44.992, "longitude": -93.301, "resolvedAddress": "44.99200,-93.30100", "address": "44.99200,-93.30100", "timezone": "America/Chicago", "tzoffset": -6.0, "days": [{"datetime": "2015-11-15", "datetimeEpoch": 1447567200, "tempmax": 63.2, "tempmin": 36.5, "temp": 49.2, "feelslikemax": 63.2, "feelslikemin": 32.0, "feelslike": 48.0, "dew": 38.6, "humidity": 68.7, "precip": 0.0, "precipprob": 0.0, "precipcover": 0.0, "preciptype": null, "snow": 0.0, "snowdepth": 0.0, "windgust": 23.0, "windspeed": 14.6, "winddir": 154.3, "pressure": 1015.2, "cloudcover": 7.8, "visibility": 9.6, "solarradiation": 111.6, "solarenergy": 9.7, "uvindex": 5.0, "sunrise": "07:10:34", "sunriseEpoch": 1447593034, "sunset": "16:44:27", "sunsetEpoch": 1447627467, "moonphase": 0.07, "conditions": "Clear", "description": "Clear conditions throughout the day.", "icon": "clear-day", "stations": ["KSTP", "72658414927", "72657594960", "72658014922", "KMSP", "KMIC"], "source": "obs"}], "stations": {"KSTP": {"distance": 18783.0, "latitude": 44.95, "longitude": -93.07, "useCount": 0, "id": "KSTP", "name": "KSTP", "quality": 100, "contribution": 0.0}, "72658414927": {"distance": 20429.0, "latitude": 44.932, "longitude": -93.056, "useCount": 0, "id": "72658414927", "name": "ST. PAUL DOWNTOWN AIRPORT, MN US", "quality": 100, "contribution": 0.0}, "72657594960": {"distance": 8749.0, "latitude": 45.062, "longitude": -93.351, "useCount": 0, "id": "72657594960", "name": "MINNEAPOLIS CRYSTAL AIRPORT, MN US", "quality": 100, "contribution": 0.0}, "72658014922": {"distance": 13388.0, "latitude": 44.883, "longitude": -93.229, "useCount": 0, "id": "72658014922", "name": "MINNEAPOLIS ST. PAUL INTERNATIONAL AIRPORT, MN US", "quality": 100, "contribution": 0.0}, "KMSP": {"distance": 14007.0, "latitude": 44.88, "longitude": -93.22, "useCount": 0, "id": "KMSP", "name": "KMSP", "quality": 100, "contribution": 0.0}, "KMIC": {"distance": 9500.0, "latitude": 45.07, "longitude": -93.35, "useCount": 0, "id": "KMIC", "name": "KMIC", "quality": 100, "contribution": 0.0}}}