{"queryCost": 1, "latitude": 33.918, "longitude": -84.742, "resolvedAddress": "33.91800,-84.74200", "address": "33.91800,-84.74200", "timezone": "America/New_York", "tzoffset": -5.0, "days": [{"datetime": "2015-11-20", "datetimeEpoch": 1447995600, "tempmax": 64.3, "tempmin": 43.4, "temp": 52.0, "feelslikemax": 64.3, "feelslikemin": 42.0, "feelslike": 51.3, "dew": 38.8, "humidity": 64.6, "precip": 0.0, "precipprob": 0.0, "precipcover": 0.0, "preciptype": null, "snow": 0.0, "snowdepth": 0.0, "windgust": null, "windspeed": 6.9, "winddir": 259.1, "pressure": 1021.7, "cloudcover": 16.5, "visibility": 9.9, "solarradiation": 170.6, "solarenergy": 14.7, "uvindex": 7.0, "sunrise": "07:15:49", "sunriseEpoch": 1448021749, "sunset": "17:32:59", "sunsetEpoch": 1448058779, "moonphase": 0.32, "conditions": "Clear", "description": "Clear conditions throughout the day.", "icon": "clear-day", "stations": ["KMGE", "KRYY", "74781263813", "72227013864", "KVPC", "72215653873"], "source": "obs"}], "stations": {"KMGE": {"distance": 20509.0, "latitude": 33.92, "longitude": -84.52, "useCount": 0, "id": "KMGE", "name": "KMGE", "quality": 100, "contribution": 0.0}, "KRYY": {"distance": 16636.0, "latitude": 34.01, "longitude": -84.6, "useCount": 0, "id": "KRYY", "name": "MCCOLLUM FLD, GA", "quality": 100, "contribution": 0.0}, "74781263813": {"distance": 16952.0, "latitude": 34.013, "longitude": -84.599, "useCount": 0, "id": "74781263813", "name": "MARIETTA COBB CO MCCOLLUM FIELD AIRPORT, GA US", "quality": 100, "contribution": 0.0}, "72227013864": {"distance": 20813.0, "latitude": 33.917, "longitude": -84.517, "useCount": 0, "id": "72227013864", "name": "MARIETTA DOBBINS AFB, GA US", "quality": 99, "contribution": 0.0}, "KVPC": {"distance": 23582.0, "latitude": 34.11, "longitude": -84.85, "useCount": 0, "id": "KVPC", "name": "KVPC", "quality": 100, "contribution": 0.0}, "72215653873": {"distance": 24860.0, "latitude": 34.123, "longitude": -84.849, "useCount": 0, "id": "72215653873", "name": "CARTERSVILLE AIRPORT, GA US", "quality": 100, "contribution": 0.0}}}