{"queryCost": 1, "latitude": 33.593, "longitude": -112.298, "resolvedAddress": "33.59300,-112.29800", "address": "33.59300,-112.29800", "timezone": "America/Phoenix", "tzoffset": -7.0, "days": [{"datetime": "2015-11-29", "datetimeEpoch": 1448780400, "tempmax": 44.3, "tempmin": 40.7, "temp": 42.4, "feelslikemax": 42.6, "feelslikemin": 39.0, "feelslike": 41.0, "dew": 27.9, "humidity": 56.4, "precip": 0.0, "precipprob": 0.0, "precipcover": 0.0, "preciptype": null, "snow": 0.0, "snowdepth": 0.0, "windgust": null, "windspeed": 4.4, "winddir": 40.5, "pressure": 1017.1, "cloudcover": 2.1, "visibility": 9.9, "solarradiation": 157.5, "solarenergy": 13.8, "uvindex": 6.0, "sunrise": "07:13:39", "sunriseEpoch": 1448806419, "sunset": "17:21:06", "sunsetEpoch": 1448842866, "moonphase": 0.58, "conditions": "Clear", "description": "Clear conditions throughout the day.", "icon": "clear-day", "stations": ["72278403184", "KLUF", "KDVT", "72278023183", "KPHX", "72278523111"], "source": "obs"}], "stations": {"72278403184": {"distance": 22655.0, "latitude": 33.688, "longitude": -112.082, "useCount": 0, "id": "72278403184", "name": "PHOENIX DEER VALLEY MUNICIPAL AIRPORT, AZ US", "quality": 100, "contribution": 0.0}, "KLUF": {"distance": 10346.0, "latitude": 33.53, "longitude": -112.38, "useCount": 0, "id": "KLUF", "name": "KLUF", "quality": 100, "contribution": 0.0}, "KDVT": {"distance": 23245.0, "latitude": 33.68, "longitude": -112.07, "useCount": 0, "id": "KDVT", "name": "KDVT", "quality": 100, "contribution": 0.0}, "72278023183": {"distance": 32913.0, "latitude": 33.428, "longitude": -112.004, "useCount": 0, "id": "72278023183", "name": "PHOENIX AIRPORT, AZ US", "quality": 100, "contribution": 0.0}, "KPHX": {"distance": 31544.0, "latitude": 33.43, "longitude": -112.02, "useCount": 0, "id": "KPHX", "name": "KPHX", "quality": 100, "contribution": 0.0}, "72278523111": {"distance": 7992.0, "latitude": 33.55, "longitude": -112.367, "useCount": 0, "id": "72278523111", "name": "PHOENIX LUKE AFB, AZ US", "quality": 96, "contribution": 0.0}}}