{"queryCost": 1, "latitude": 39.704, "longitude": -104.776, "resolvedAddress": "39.70400,-104.77600", "address": "39.70400,-104.77600", "timezone": "America/Denver", "tzoffset": -7.0, "days": [{"datetime": "2015-11-30", "datetimeEpoch": 1448866800, "tempmax": 29.8, "tempmin": 16.6, "temp": 22.0, "feelslikemax": 21.6, "feelslikemin": 4.4, "feelslike": 14.7, "dew": 14.2, "humidity": 74.6, "precip": 0.02, "precipprob": 100.0, "precipcover": 8.33, "preciptype": ["snow"], "snow": 0.5, "snowdepth": 3.3, "windgust": 25.3, "windspeed": 15.7, "winddir": 214.8, "pressure": 1016.5, "cloudcover": 65.8, "visibility": 7.1, "solarradiation": 125.1, "solarenergy": 10.8, "uvindex": 5.0, "sunrise": "06:59:47", "sunriseEpoch": 1448891987, "sunset": "16:35:28", "sunsetEpoch": 1448926528, "moonphase": 0.62, "conditions": "Snow, Partially cloudy", "description": "Partly cloudy throughout the day with early morning snow.", "icon": "snow", "stations": ["KBKF", "KDEN", "72469523036", "KAPA", "72565003017", "72466693067"], "source": "obs"}], "stations": {"KBKF": {"distance": 2851.0, "latitude": 39.72, "longitude": -104.75, "useCount": 0, "id": "KBKF", "name": "KBKF", "quality": 100, "contribution": 0.0}, "KDEN": {"distance": 19591.0, "latitude": 39.86, "longitude": -104.67, "useCount": 0, "id": "KDEN", "name": "KDEN", "quality": 100, "contribution": 0.0}, "72469523036": {"distance": 2637.0, "latitude": 39.717, "longitude": -104.75, "useCount": 0, "id": "72469523036", "name": "AURORA BUCKLEY FIELD ANGB, CO US", "quality": 100, "contribution": 0.0}, "KAPA": {"distance": 16210.0, "latitude": 39.57, "longitude": -104.85, "useCount": 0, "id": "KAPA", "name": "KAPA", "quality": 100, "contribution": 0.0}, "72565003017": {"distance": 17536.0, "latitude": 39.833, "longitude": -104.658, "useCount": 0, "id": "72565003017", "name": "DENVER INTERNATIONAL AIRPORT, CO US", "quality": 100, "contribution": 0.0}, "72466693067": {"distance": 16146.0, "latitude": 39.57, "longitude": -104.849, "useCount": 0, "id": "72466693067", "name": "DENVER CENTENNIAL AIRPORT, CO US", "quality": 100, "contribution": 0.0}}}