{"queryCost": 1, "latitude": 39.755, "longitude": -105.037, "resolvedAddress": "39.75500,-105.03700", "address": "39.75500,-105.03700", "timezone": "America/Denver", "tzoffset": -7.0, "days": [{"datetime": "2015-12-02", "datetimeEpoch": 1449039600, "tempmax": 46.7, "tempmin": 23.2, "temp": 33.4, "feelslikemax": 46.7, "feelslikemin": 13.2, "feelslike": 27.5, "dew": 14.1, "humidity": 45.8, "precip": 0.0, "precipprob": 0.0, "precipcover": 0.0, "preciptype": null, "snow": 0.5, "snowdepth": 1.8, "windgust": null, "windspeed": 10.1, "winddir": 171.7, "pressure": 1022.1, "cloudcover": 40.2, "visibility": 9.9, "solarradiation": 135.2, "solarenergy": 11.6, "uvindex": 5.0, "sunrise": "07:02:58", "sunriseEpoch": 1449064978, "sunset": "16:35:53", "sunsetEpoch": 1449099353, "moonphase": 0.71, "conditions": "Partially cloudy", "description": "Becoming cloudy in the afternoon.", "icon": "snow", "stations": ["KBKF", "KDEN", "72469523036", "KAPA", "72565003017", "72466693067"], "source": "obs"}], "stations": {"KBKF": {"distance": 24875.0, "latitude": 39.72, "longitude": -104.75, "useCount": 0, "id": "KBKF", "name": "KBKF", "quality": 100, "contribution": 0.0}, "KDEN": {"distance": 33490.0, "latitude": 39.86, "longitude": -104.67, "useCount": 0, "id": "KDEN", "name": "KDEN", "quality": 100, "contribution": 0.0}, "72469523036": {"distance": 24936.0, "latitude": 39.717, "longitude": -104.75, "useCount": 0, "id": "72469523036", "name": "AURORA BUCKLEY FIELD ANGB, CO US", "quality": 100, "contribution": 0.0}, "KAPA": {"distance": 26094.0, "latitude": 39.57, "longitude": -104.85, "useCount": 0, "id": "KAPA", "name": "KAPA", "quality": 100, "contribution": 0.0}, "72565003017": {"distance": 33554.0, "latitude": 39.833, "longitude": -104.658, "useCount": 0, "id": "72565003017", "name": "DENVER INTERNATIONAL AIRPORT, CO US", "quality": 100, "contribution": 0.0}, "72466693067": {"distance": 26121.0, "latitude": 39.57, "longitude": -104.849, "useCount": 0, "id": "72466693067", "name": "DENVER CENTENNIAL AIRPORT, CO US", "quality": 100, "contribution": 0.0}}}