{"queryCost": 1, "latitude": 34.108, "longitude": -117.29, "resolvedAddress": "34.10800,-117.29000", "address": "34.10800,-117.29000", "timezone": "America/Los_Angeles", "tzoffset": -8.0, "days": [{"datetime": "2015-12-02", "datetimeEpoch": 1449043200, "tempmax": 77.2, "tempmin": 41.6, "temp": 57.8, "feelslikemax": 77.2, "feelslikemin": 40.1, "feelslike": 57.4, "dew": 13.6, "humidity": 21.2, "precip": 0.01, "precipprob": 100.0, "precipcover": 4.17, "preciptype": ["rain"], "snow": 0.0, "snowdepth": 0.0, "windgust": null, "windspeed": 7.0, "winddir": 61.5, "pressure": 1019.6, "cloudcover": 14.4, "visibility": 9.9, "solarradiation": 151.7, "solarenergy": 13.1, "uvindex": 6.0, "sunrise": "06:37:28", "sunriseEpoch": 1449067048, "sunset": "16:39:30", "sunsetEpoch": 1449103170, "moonphase": 0.71, "conditions": "Rain", "description": "Clear conditions throughout the day with early morning rain.", "icon": "rain", "stations": ["KRAL", "72286023119", "KRIV", "KONT", "74704003102", "72286903171"], "source": "obs"}], "stations": {"KRAL": {"distance": 22962.0, "latitude": 33.95, "longitude": -117.45, "useCount": 0, "id": "KRAL", "name": "KRAL", "quality": 100, "contribution": 0.0}, "72286023119": {"distance": 23447.0, "latitude": 33.9, "longitude": -117.25, "useCount": 0, "id": "72286023119", "name": "MARCH AFB, CA US", "quality": 97, "contribution": 0.0}, "KRIV": {"distance": 25448.0, "latitude": 33.88, "longitude": -117.27, "useCount": 0, "id": "KRIV", "name": "KRIV", "quality": 100, "contribution": 0.0}, "KONT": {"distance": 29570.0, "latitude": 34.04, "longitude": -117.6, "useCount": 0, "id": "KONT", "name": "KONT", "quality": 100, "contribution": 0.0}, "74704003102": {"distance": 29160.0, "latitude": 34.056, "longitude": -117.6, "useCount": 0, "id": "74704003102", "name": "ONTARIO INTERNATIONAL AIRPORT, CA US", "quality": 100, "contribution": 0.0}, "72286903171": {"distance": 22157.0, "latitude": 33.952, "longitude": -117.439, "useCount": 0, "id": "72286903171", "name": "RIVERSIDE MUNICIPAL AIRPORT, CA US", "quality": 100, "contribution": 0.0}}}