{"queryCost": 1, "latitude": 34.077, "longitude": -117.248, "resolvedAddress": "34.07700,-117.24800", "address": "34.07700,-117.24800", "timezone": "America/Los_Angeles", "tzoffset": -8.0, "days": [{"datetime": "2015-12-02", "datetimeEpoch": 1449043200, "tempmax": 76.8, "tempmin": 40.6, "temp": 57.2, "feelslikemax": 76.8, "feelslikemin": 39.3, "feelslike": 56.9, "dew": 12.6, "humidity": 20.9, "precip": 0.02, "precipprob": 100.0, "precipcover": 4.17, "preciptype": ["rain"], "snow": 0.0, "snowdepth": 0.0, "windgust": null, "windspeed": 7.7, "winddir": 75.9, "pressure": 1019.7, "cloudcover": 12.1, "visibility": 9.9, "solarradiation": 151.7, "solarenergy": 13.1, "uvindex": 6.0, "sunrise": "06:37:13", "sunriseEpoch": 1449067033, "sunset": "16:39:24", "sunsetEpoch": 1449103164, "moonphase": 0.71, "conditions": "Rain", "description": "Clear conditions throughout the day with early morning rain.", "icon": "rain", "stations": ["KRAL", "72286023119", "KRIV", "KONT", "74704003102", "72286903171"], "source": "obs"}], "stations": {"KRAL": {"distance": 23394.0, "latitude": 33.95, "longitude": -117.45, "useCount": 0, "id": "KRAL", "name": "KRAL", "quality": 100, "contribution": 0.0}, "72286023119": {"distance": 19704.0, "latitude": 33.9, "longitude": -117.25, "useCount": 0, "id": "72286023119", "name": "MARCH AFB, CA US", "quality": 97, "contribution": 0.0}, "KRIV": {"distance": 22024.0, "latitude": 33.88, "longitude": -117.27, "useCount": 0, "id": "KRIV", "name": "KRIV", "quality": 100, "contribution": 0.0}, "KONT": {"distance": 32723.0, "latitude": 34.04, "longitude": -117.6, "useCount": 0, "id": "KONT", "name": "KONT", "quality": 100, "contribution": 0.0}, "74704003102": {"distance": 32543.0, "latitude": 34.056, "longitude": -117.6, "useCount": 0, "id": "74704003102", "name": "ONTARIO INTERNATIONAL AIRPORT, CA US", "quality": 100, "contribution": 0.0}, "72286903171": {"distance": 22462.0, "latitude": 33.952, "longitude": -117.439, "useCount": 0, "id": "72286903171", "name": "RIVERSIDE MUNICIPAL AIRPORT, CA US", "quality": 100, "contribution": 0.0}}}