{"queryCost": 1, "latitude": 40.43, "longitude": -80.007, "resolvedAddress": "40.43000,-80.00700", "address": "40.43000,-80.00700", "timezone": "America/New_York", "tzoffset": -5.0, "days": [{"datetime": "2015-12-04", "datetimeEpoch": 1449205200, "tempmax": 46.7, "tempmin": 36.1, "temp": 40.2, "feelslikemax": 42.1, "feelslikemin": 30.1, "feelslike": 35.4, "dew": 29.4, "humidity": 65.5, "precip": 0.0, "precipprob": 0.0, "precipcover": 0.0, "preciptype": null, "snow": 0.0, "snowdepth": 0.0, "windgust": 18.3, "windspeed": 12.3, "winddir": 236.0, "pressure": 1034.0, "cloudcover": 45.8, "visibility": 9.8, "solarradiation": 117.3, "solarenergy": 10.1, "uvindex": 5.0, "sunrise": "07:26:40", "sunriseEpoch": 1449232000, "sunset": "16:53:30", "sunsetEpoch": 1449266010, "moonphase": 0.81, "conditions": "Partially cloudy", "description": "Clearing in the afternoon.", "icon": "partly-cloudy-day", "stations": ["KBTP", "KAGC", "72512464705", "KPIT", "72520514762", "72520094823"], "source": "obs"}], "stations": {"KBTP": {"distance": 39259.0, "latitude": 40.78, "longitude": -79.95, "useCount": 0, "id": "KBTP", "name": "BUTLER CO., PA", "quality": 100, "contribution": 0.0}, "KAGC": {"distance": 11042.0, "latitude": 40.35, "longitude": -79.93, "useCount": 0, "id": "KAGC", "name": "KAGC", "quality": 100, "contribution": 0.0}, "72512464705": {"distance": 38919.0, "latitude": 40.777, "longitude": -79.95, "useCount": 0, "id": "72512464705", "name": "BUTLER CO AIRPORT, PA US", "quality": 99, "contribution": 0.0}, "KPIT": {"distance": 19650.0, "latitude": 40.5, "longitude": -80.22, "useCount": 0, "id": "KPIT", "name": "KPIT", "quality": 100, "contribution": 0.0}, "72520514762": {"distance": 11071.0, "latitude": 40.355, "longitude": -79.922, "useCount": 0, "id": "72520514762", "name": "PITTSBURGH ALLEGHENY CO AIRPORT, PA US", "quality": 100, "contribution": 0.0}, "72520094823": {"distance": 18589.0, "latitude": 40.485, "longitude": -80.214, "useCount": 0, "id": "72520094823", "name": "PITTSBURGH ASOS, PA US", "quality": 100, "contribution": 0.0}}}