{"queryCost": 1, "latitude": 41.541, "longitude": -81.498, "resolvedAddress": "41.54100,-81.49800", "address": "41.54100,-81.49800", "timezone": "America/New_York", "tzoffset": -5.0, "days": [{"datetime": "2015-12-06", "datetimeEpoch": 1449378000, "tempmax": 48.2, "tempmin": 28.3, "temp": 37.5, "feelslikemax": 46.4, "feelslikemin": 21.2, "feelslike": 33.8, "dew": 29.5, "humidity": 74.0, "precip": 0.0, "precipprob": 0.0, "precipcover": 0.0, "preciptype": null, "snow": 0.0, "snowdepth": 0.0, "windgust": null, "windspeed": 13.2, "winddir": 166.4, "pressure": 1029.8, "cloudcover": 13.7, "visibility": 7.7, "solarradiation": 64.8, "solarenergy": 5.6, "uvindex": 3.0, "sunrise": "07:37:53", "sunriseEpoch": 1449405473, "sunset": "16:55:54", "sunsetEpoch": 1449438954, "moonphase": 0.9, "conditions": "Clear", "description": "Clear conditions throughout the day.", "icon": "clear-day", "stations": ["KLNN", "KCLE", "72524014820", "KBKL", "72524504853", "72524499999"], "source": "obs"}], "stations": {"KLNN": {"distance": 18327.0, "latitude": 41.68, "longitude": -81.38, "useCount": 0, "id": "KLNN", "name": "KLNN", "quality": 100, "contribution": 0.0}, "KCLE": {"distance": 33822.0, "latitude": 41.42, "longitude": -81.87, "useCount": 0, "id": "KCLE", "name": "KCLE", "quality": 100, "contribution": 0.0}, "72524014820": {"distance": 33146.0, "latitude": 41.406, "longitude": -81.852, "useCount": 0, "id": "72524014820", "name": "CLEVELAND HOPKINS INTERNATIONAL AIRPORT, OH US", "quality": 100, "contribution": 0.0}, "KBKL": {"distance": 15346.0, "latitude": 41.52, "longitude": -81.68, "useCount": 0, "id": "KBKL", "name": "KBKL", "quality": 100, "contribution": 0.0}, "72524504853": {"distance": 15687.0, "latitude": 41.518, "longitude": -81.684, "useCount": 0, "id": "72524504853", "name": "CLEVELAND BURKE LAKEFRONT AIRPORT, OH US", "quality": 100, "contribution": 0.0}, "72524499999": {"distance": 18293.0, "latitude": 41.684, "longitude": -81.39, "useCount": 0, "id": "72524499999", "name": "WILLOUGHBY LOST NATION MUNICIPAL, OH US", "quality": 100, "contribution": 0.0}}}