{"queryCost": 1, "latitude": 41.322, "longitude": -105.752, "resolvedAddress": "41.32200,-105.75200", "address": "41.32200,-105.75200", "timezone": "America/Denver", "tzoffset": -7.0, "days": [{"datetime": "2015-12-06", "datetimeEpoch": 1449385200, "tempmax": 46.1, "tempmin": 16.2, "temp": 32.6, "feelslikemax": 38.9, "feelslikemin": 4.7, "feelslike": 22.7, "dew": -0.1, "humidity": 29.3, "precip": 0.0, "precipprob": 0.0, "precipcover": 0.0, "preciptype": null, "snow": 0.0, "snowdepth": 0.0, "windgust": 37.8, "windspeed": 25.1, "winddir": 225.5, "pressure": 1027.8, "cloudcover": 0.0, "visibility": 9.9, "solarradiation": 108.0, "solarenergy": 9.3, "uvindex": 4.0, "sunrise": "07:14:17", "sunriseEpoch": 1449411257, "sunset": "16:33:35", "sunsetEpoch": 1449444815, "moonphase": 0.9, "conditions": "Clear", "description": "Clear conditions throughout the day.", "icon": "clear-day", "stations": ["KLAR", "KCYS", "72564524022", "72074799999", "KFEW"], "source": "obs"}], "stations": {"72074799999": {"distance": 75145.0, "latitude": 41.733, "longitude": -106.467, "useCount": 0, "id": "72074799999", "name": "ELK MOUNTAIN, WY US", "quality": 100, "contribution": 0.0}, "KLAR": {"distance": 6859.0, "latitude": 41.32, "longitude": -105.67, "useCount": 0, "id": "KLAR", "name": "KLAR", "quality": 100, "contribution": 0.0}, "KCYS": {"distance": 80335.0, "latitude": 41.15, "longitude": -104.82, "useCount": 0, "id": "KCYS", "name": "KCYS", "quality": 100, "contribution": 0.0}, "72564524022": {"distance": 5799.0, "latitude": 41.317, "longitude": -105.683, "useCount": 0, "id": "72564524022", "name": "LARAMIE AIRPORT, WY US", "quality": 99, "contribution": 0.0}, "KFEW": {"distance": 76276.0, "latitude": 41.15, "longitude": -104.87, "useCount": 0, "id": "KFEW", "name": "KFEW", "quality": 100, "contribution": 0.0}}}