{"queryCost": 1, "latitude": 41.486, "longitude": -81.735, "resolvedAddress": "41.48600,-81.73500", "address": "41.48600,-81.73500", "timezone": "America/New_York", "tzoffset": -5.0, "days": [{"datetime": "2015-12-08", "datetimeEpoch": 1449550800, "tempmax": 50.0, "tempmin": 33.3, "temp": 42.3, "feelslikemax": 45.4, "feelslikemin": 27.0, "feelslike": 36.8, "dew": 35.0, "humidity": 76.3, "precip": 0.0, "precipprob": 0.0, "precipcover": 0.0, "preciptype": null, "snow": 0.0, "snowdepth": 0.0, "windgust": 19.9, "windspeed": 17.3, "winddir": 171.1, "pressure": 1017.7, "cloudcover": 67.8, "visibility": 6.5, "solarradiation": 44.3, "solarenergy": 3.8, "uvindex": 2.0, "sunrise": "07:40:31", "sunriseEpoch": 1449578431, "sunset": "16:56:55", "sunsetEpoch": 1449611815, "moonphase": 0.96, "conditions": "Partially cloudy", "description": "Partly cloudy throughout the day.", "icon": "partly-cloudy-day", "stations": ["KCLE", "KLNN", "72524014820", "72524504853", "KBKL", "72524499999"], "source": "obs"}], "stations": {"KCLE": {"distance": 13448.0, "latitude": 41.42, "longitude": -81.87, "useCount": 0, "id": "KCLE", "name": "KCLE", "quality": 100, "contribution": 0.0}, "KLNN": {"distance": 36608.0, "latitude": 41.68, "longitude": -81.38, "useCount": 0, "id": "KLNN", "name": "KLNN", "quality": 100, "contribution": 0.0}, "72524014820": {"distance": 13237.0, "latitude": 41.406, "longitude": -81.852, "useCount": 0, "id": "72524014820", "name": "CLEVELAND HOPKINS INTERNATIONAL AIRPORT, OH US", "quality": 100, "contribution": 0.0}, "72524504853": {"distance": 5537.0, "latitude": 41.518, "longitude": -81.684, "useCount": 0, "id": "72524504853", "name": "CLEVELAND BURKE LAKEFRONT AIRPORT, OH US", "quality": 100, "contribution": 0.0}, "KBKL": {"distance": 5946.0, "latitude": 41.52, "longitude": -81.68, "useCount": 0, "id": "KBKL", "name": "KBKL", "quality": 100, "contribution": 0.0}, "72524499999": {"distance": 36228.0, "latitude": 41.684, "longitude": -81.39, "useCount": 0, "id": "72524499999", "name": "WILLOUGHBY LOST NATION MUNICIPAL, OH US", "quality": 100, "contribution": 0.0}}}