{"queryCost": 1, "latitude": 32.309, "longitude": -110.875, "resolvedAddress": "32.30900,-110.87500", "address": "32.30900,-110.87500", "timezone": "America/Phoenix", "tzoffset": -7.0, "days": [{"datetime": "2015-12-11", "datetimeEpoch": 1449817200, "tempmax": 72.5, "tempmin": 51.9, "temp": 60.0, "feelslikemax": 72.5, "feelslikemin": 51.9, "feelslike": 60.0, "dew": 29.7, "humidity": 33.6, "precip": 0.04, "precipprob": 100.0, "precipcover": 8.33, "preciptype": ["rain"], "snow": 0.0, "snowdepth": 0.0, "windgust": 25.3, "windspeed": 16.7, "winddir": 192.4, "pressure": 1005.4, "cloudcover": 17.7, "visibility": 9.7, "solarradiation": 104.2, "solarenergy": 9.1, "uvindex": 4.0, "sunrise": "07:14:35", "sunriseEpoch": 1449843275, "sunset": "17:18:49", "sunsetEpoch": 1449879529, "moonphase": 0.0, "conditions": "Rain", "description": "Clear conditions throughout the day with rain.", "icon": "rain", "stations": ["KAVQ", "72274023160", "KTUS", "KDMA", "72274523109", "99999953131"], "source": "obs"}], "stations": {"KAVQ": {"distance": 33091.0, "latitude": 32.4, "longitude": -111.21, "useCount": 0, "id": "KAVQ", "name": "KAVQ", "quality": 99, "contribution": 0.0}, "72274023160": {"distance": 21168.0, "latitude": 32.131, "longitude": -110.955, "useCount": 0, "id": "72274023160", "name": "TUCSON INTERNATIONAL AIRPORT, AZ US", "quality": 100, "contribution": 0.0}, "KTUS": {"distance": 21474.0, "latitude": 32.13, "longitude": -110.96, "useCount": 0, "id": "KTUS", "name": "KTUS", "quality": 100, "contribution": 0.0}, "KDMA": {"distance": 15481.0, "latitude": 32.17, "longitude": -110.88, "useCount": 0, "id": "KDMA", "name": "KDMA", "quality": 100, "contribution": 0.0}, "72274523109": {"distance": 15859.0, "latitude": 32.167, "longitude": -110.883, "useCount": 0, "id": "72274523109", "name": "DAVIS MONTHAN AFB, AZ US", "quality": 97, "contribution": 0.0}, "99999953131": {"distance": 28823.0, "latitude": 32.24, "longitude": -111.17, "useCount": 0, "id": "99999953131", "name": "TUCSON 11 W, AZ US", "quality": 100, "contribution": 0.0}}}