{"queryCost": 1, "latitude": 40.991, "longitude": -75.182, "resolvedAddress": "40.99100,-75.18200", "address": "40.99100,-75.18200", "timezone": "America/New_York", "tzoffset": -5.0, "days": [{"datetime": "2015-12-12", "datetimeEpoch": 1449896400, "tempmax": 60.4, "tempmin": 42.9, "temp": 51.7, "feelslikemax": 60.4, "feelslikemin": 41.2, "feelslike": 51.0, "dew": 45.7, "humidity": 80.6, "precip": 0.0, "precipprob": 0.0, "precipcover": 0.0, "preciptype": null, "snow": 0.0, "snowdepth": 0.0, "windgust": 23.0, "windspeed": 9.0, "winddir": 293.5, "pressure": 1019.9, "cloudcover": 41.5, "visibility": 7.6, "solarradiation": 56.0, "solarenergy": 4.7, "uvindex": 2.0, "sunrise": "07:16:08", "sunriseEpoch": 1449922568, "sunset": "16:32:32", "sunsetEpoch": 1449955952, "moonphase": 0.01, "conditions": "Partially cloudy", "description": "Partly cloudy throughout the day.", "icon": "partly-cloudy-day", "stations": ["K12N", "72543454789", "72517014737", "KMPO", "KABE", "72407754779"], "source": "obs"}], "stations": {"K12N": {"distance": 38108.0, "latitude": 41.02, "longitude": -74.73, "useCount": 0, "id": "K12N", "name": "K12N", "quality": 100, "contribution": 0.0}, "72543454789": {"distance": 23357.0, "latitude": 41.139, "longitude": -75.379, "useCount": 0, "id": "72543454789", "name": "MOUNT POCONO POCONO MOUNTAINS MUNICIPAL AIRPORT, PA US", "quality": 100, "contribution": 0.0}, "72517014737": {"distance": 44087.0, "latitude": 40.65, "longitude": -75.448, "useCount": 0, "id": "72517014737", "name": "ALLENTOWN LEHIGH VALLEY INTERNATIONAL AIRPORT, PA US", "quality": 100, "contribution": 0.0}, "KMPO": {"distance": 23479.0, "latitude": 41.14, "longitude": -75.38, "useCount": 0, "id": "KMPO", "name": "KMPO", "quality": 100, "contribution": 0.0}, "KABE": {"distance": 43329.0, "latitude": 40.65, "longitude": -75.43, "useCount": 0, "id": "KABE", "name": "ALLENTOWN-BETHLE, PA", "quality": 100, "contribution": 0.0}, "72407754779": {"distance": 37500.0, "latitude": 41.009, "longitude": -74.736, "useCount": 0, "id": "72407754779", "name": "AEROFLEX ANDOVER AIRPORT, NJ US", "quality": 100, "contribution": 0.0}}}