{"queryCost": 1, "latitude": 30.038, "longitude": -89.905, "resolvedAddress": "30.03800,-89.90500", "address": "30.03800,-89.90500", "timezone": "America/Chicago", "tzoffset": -6.0, "days": [{"datetime": "2015-12-14", "datetimeEpoch": 1450072800, "tempmax": 69.7, "tempmin": 52.0, "temp": 60.2, "feelslikemax": 69.7, "feelslikemin": 52.0, "feelslike": 60.2, "dew": 51.6, "humidity": 75.3, "precip": 0.29, "precipprob": 100.0, "precipcover": 20.83, "preciptype": ["rain"], "snow": 0.0, "snowdepth": 0.0, "windgust": 18.3, "windspeed": 15.7, "winddir": 223.5, "pressure": 1010.7, "cloudcover": 27.9, "visibility": 9.1, "solarradiation": 168.1, "solarenergy": 14.6, "uvindex": 6.0, "sunrise": "06:47:21", "sunriseEpoch": 1450097241, "sunset": "17:01:05", "sunsetEpoch": 1450134065, "moonphase": 0.05, "conditions": "Rain, Partially cloudy", "description": "Partly cloudy throughout the day with early morning rain.", "icon": "rain", "stations": ["KNEW", "72231553917", "KNBG", "KMSY", "72233053865", "72231612958"], "source": "obs"}], "stations": {"KNEW": {"distance": 12119.0, "latitude": 30.05, "longitude": -90.03, "useCount": 0, "id": "KNEW", "name": "KNEW", "quality": 94, "contribution": 0.0}, "72231553917": {"distance": 11997.0, "latitude": 30.049, "longitude": -90.029, "useCount": 0, "id": "72231553917", "name": "NEW ORLEANS LAKEFRONT AIRPORT, LA US", "quality": 94, "contribution": 0.0}, "KNBG": {"distance": 26106.0, "latitude": 29.83, "longitude": -90.03, "useCount": 0, "id": "KNBG", "name": "KNBG", "quality": 97, "contribution": 0.0}, "KMSY": {"distance": 33878.0, "latitude": 29.98, "longitude": -90.25, "useCount": 0, "id": "KMSY", "name": "KMSY", "quality": 100, "contribution": 0.0}, "72233053865": {"distance": 34907.0, "latitude": 30.343, "longitude": -89.822, "useCount": 0, "id": "72233053865", "name": "SLIDELL AIRPORT, LA US", "quality": 100, "contribution": 0.0}, "72231612958": {"distance": 26889.0, "latitude": 29.817, "longitude": -90.017, "useCount": 0, "id": "72231612958", "name": "NEW ORLEANS ALVIN CALLENDER FIELD, LA US", "quality": 96, "contribution": 0.0}}}