{"queryCost": 1, "latitude": 39.777, "longitude": -105.051, "resolvedAddress": "39.77700,-105.05100", "address": "39.77700,-105.05100", "timezone": "America/Denver", "tzoffset": -7.0, "days": [{"datetime": "2015-12-13", "datetimeEpoch": 1449990000, "tempmax": 42.2, "tempmin": 20.7, "temp": 29.3, "feelslikemax": 39.1, "feelslikemin": 11.9, "feelslike": 23.4, "dew": 20.0, "humidity": 70.7, "precip": 0.0, "precipprob": 0.0, "precipcover": 0.0, "preciptype": null, "snow": 0.9, "snowdepth": 1.9, "windgust": null, "windspeed": 11.1, "winddir": 199.4, "pressure": 1008.2, "cloudcover": 65.4, "visibility": 9.9, "solarradiation": 127.1, "solarenergy": 10.9, "uvindex": 5.0, "sunrise": "07:12:44", "sunriseEpoch": 1450015964, "sunset": "16:35:55", "sunsetEpoch": 1450049755, "moonphase": 0.02, "conditions": "Partially cloudy", "description": "Partly cloudy throughout the day.", "icon": "snow", "stations": ["KBKF", "KDEN", "72469523036", "KAPA", "72565003017", "72466693067"], "source": "obs"}], "stations": {"KBKF": {"distance": 26532.0, "latitude": 39.72, "longitude": -104.75, "useCount": 0, "id": "KBKF", "name": "KBKF", "quality": 100, "contribution": 0.0}, "KDEN": {"distance": 33861.0, "latitude": 39.86, "longitude": -104.67, "useCount": 0, "id": "KDEN", "name": "KDEN", "quality": 100, "contribution": 0.0}, "72469523036": {"distance": 26623.0, "latitude": 39.717, "longitude": -104.75, "useCount": 0, "id": "72469523036", "name": "AURORA BUCKLEY FIELD ANGB, CO US", "quality": 100, "contribution": 0.0}, "KAPA": {"distance": 28768.0, "latitude": 39.57, "longitude": -104.85, "useCount": 0, "id": "KAPA", "name": "KAPA", "quality": 100, "contribution": 0.0}, "72565003017": {"distance": 34178.0, "latitude": 39.833, "longitude": -104.658, "useCount": 0, "id": "72565003017", "name": "DENVER INTERNATIONAL AIRPORT, CO US", "quality": 100, "contribution": 0.0}, "72466693067": {"distance": 28792.0, "latitude": 39.57, "longitude": -104.849, "useCount": 0, "id": "72466693067", "name": "DENVER CENTENNIAL AIRPORT, CO US", "quality": 100, "contribution": 0.0}}}