{"queryCost": 1, "latitude": 39.749, "longitude": -74.929, "resolvedAddress": "39.74900,-74.92900", "address": "39.74900,-74.92900", "timezone": "America/New_York", "tzoffset": -5.0, "days": [{"datetime": "2015-01-25", "datetimeEpoch": 1422162000, "tempmax": 45.3, "tempmin": 34.1, "temp": 38.9, "feelslikemax": 40.7, "feelslikemin": 27.0, "feelslike": 33.1, "dew": 28.1, "humidity": 65.3, "precip": 0.0, "precipprob": 0.0, "precipcover": 0.0, "preciptype": null, "snow": 0.0, "snowdepth": 0.0, "windgust": 22.2, "windspeed": 13.1, "winddir": 235.5, "pressure": 1008.7, "cloudcover": 77.9, "visibility": 9.6, "solarradiation": 123.3, "solarenergy": 10.5, "uvindex": 5.0, "sunrise": "07:13:41", "sunriseEpoch": 1422188021, "sunset": "17:10:46", "sunsetEpoch": 1422223846, "moonphase": 0.16, "conditions": "Partially cloudy", "description": "Partly cloudy throughout the day.", "icon": "partly-cloudy-day", "stations": ["KVAY", "72408013739", "72408594732", "72407493780", "KPHL", "KPNE"], "source": "obs"}], "stations": {"KVAY": {"distance": 22582.0, "latitude": 39.94, "longitude": -74.84, "useCount": 0, "id": "KVAY", "name": "KVAY", "quality": 99, "contribution": 0.0}, "72408013739": {"distance": 28982.0, "latitude": 39.873, "longitude": -75.227, "useCount": 0, "id": "72408013739", "name": "PHILADELPHIA INTERNATIONAL AIRPORT, PA US", "quality": 100, "contribution": 0.0}, "72408594732": {"distance": 37425.0, "latitude": 40.079, "longitude": -75.013, "useCount": 0, "id": "72408594732", "name": "NORTHEAST PHILADELPHIA AIRPORT, PA US", "quality": 100, "contribution": 0.0}, "72407493780": {"distance": 22643.0, "latitude": 39.941, "longitude": -74.841, "useCount": 0, "id": "72407493780", "name": "SOUTH JERSEY REGIONAL AIRPORT, NJ US", "quality": 98, "contribution": 0.0}, "KPHL": {"distance": 31081.0, "latitude": 39.88, "longitude": -75.25, "useCount": 0, "id": "KPHL", "name": "KPHL", "quality": 100, "contribution": 0.0}, "KPNE": {"distance": 37490.0, "latitude": 40.08, "longitude": -75.01, "useCount": 0, "id": "KPNE", "name": "KPNE", "quality": 100, "contribution": 0.0}}}