{"queryCost": 1, "latitude": 41.618, "longitude": -83.462, "resolvedAddress": "41.61800,-83.46200", "address": "41.61800,-83.46200", "timezone": "America/New_York", "tzoffset": -5.0, "days": [{"datetime": "2015-12-18", "datetimeEpoch": 1450414800, "tempmax": 34.0, "tempmin": 26.1, "temp": 30.4, "feelslikemax": 27.5, "feelslikemin": 15.9, "feelslike": 20.3, "dew": 18.8, "humidity": 62.3, "precip": 0.0, "precipprob": 0.0, "precipcover": 0.0, "preciptype": null, "snow": 0.0, "snowdepth": 0.0, "windgust": 30.8, "windspeed": 22.7, "winddir": 244.6, "pressure": 1015.0, "cloudcover": 80.1, "visibility": 9.8, "solarradiation": 52.6, "solarenergy": 4.5, "uvindex": 2.0, "sunrise": "07:55:32", "sunriseEpoch": 1450443332, "sunset": "17:05:15", "sunsetEpoch": 1450476315, "moonphase": 0.24, "conditions": "Partially cloudy", "description": "Partly cloudy throughout the day.", "icon": "partly-cloudy-day", "stations": ["72428704848", "72536094830", "KTOL", "KTTF", "KTDZ", "72541854823"], "source": "obs"}], "stations": {"72428704848": {"distance": 6228.0, "latitude": 41.563, "longitude": -83.476, "useCount": 0, "id": "72428704848", "name": "TOLEDO METCALF FIELD, OH US", "quality": 100, "contribution": 0.0}, "72536094830": {"distance": 28799.0, "latitude": 41.587, "longitude": -83.805, "useCount": 0, "id": "72536094830", "name": "TOLEDO EXPRESS AIRPORT, OH US", "quality": 100, "contribution": 0.0}, "KTOL": {"distance": 28204.0, "latitude": 41.6, "longitude": -83.8, "useCount": 0, "id": "KTOL", "name": "KTOL", "quality": 100, "contribution": 0.0}, "KTTF": {"distance": 35943.0, "latitude": 41.94, "longitude": -83.43, "useCount": 0, "id": "KTTF", "name": "KTTF", "quality": 100, "contribution": 0.0}, "KTDZ": {"distance": 6628.0, "latitude": 41.56, "longitude": -83.48, "useCount": 0, "id": "KTDZ", "name": "KTDZ", "quality": 100, "contribution": 0.0}, "72541854823": {"distance": 35916.0, "latitude": 41.94, "longitude": -83.435, "useCount": 0, "id": "72541854823", "name": "MONROE CUSTER AIRPORT, MI US", "quality": 96, "contribution": 0.0}}}