{"queryCost": 1, "latitude": 39.752, "longitude": -121.624, "resolvedAddress": "39.75200,-121.62400", "address": "39.75200,-121.62400", "timezone": "America/Los_Angeles", "tzoffset": -8.0, "days": [{"datetime": "2015-11-26", "datetimeEpoch": 1448524800, "tempmax": 55.6, "tempmin": 33.7, "temp": 42.8, "feelslikemax": 55.6, "feelslikemin": 26.7, "feelslike": 40.1, "dew": 24.8, "humidity": 51.5, "precip": 0.0, "precipprob": 0.0, "precipcover": 0.0, "preciptype": null, "snow": 0.0, "snowdepth": 0.0, "windgust": 31.1, "windspeed": 18.5, "winddir": 226.7, "pressure": 1020.3, "cloudcover": 4.1, "visibility": 15.6, "solarradiation": 125.2, "solarenergy": 10.8, "uvindex": 5.0, "sunrise": "07:03:11", "sunriseEpoch": 1448550191, "sunset": "16:44:06", "sunsetEpoch": 1448585046, "moonphase": 0.5, "conditions": "Clear", "description": "Clear conditions throughout the day.", "icon": "clear-day", "stations": ["KOVE", "KCIC", "72497393203", "KRBL", "74504893210", "72591024216"], "source": "obs"}], "stations": {"KOVE": {"distance": 29168.0, "latitude": 39.49, "longitude": -121.62, "useCount": 0, "id": "KOVE", "name": "KOVE", "quality": 100, "contribution": 0.0}, "KCIC": {"distance": 19794.0, "latitude": 39.79, "longitude": -121.85, "useCount": 0, "id": "KCIC", "name": "KCIC", "quality": 82, "contribution": 0.0}, "72497393203": {"distance": 20060.0, "latitude": 39.8, "longitude": -121.85, "useCount": 0, "id": "72497393203", "name": "CHICO ARMY FLYING SCHOOL, CA US", "quality": 73, "contribution": 0.0}, "KRBL": {"distance": 69402.0, "latitude": 40.15, "longitude": -122.25, "useCount": 0, "id": "KRBL", "name": "KRBL", "quality": 100, "contribution": 0.0}, "74504893210": {"distance": 29170.0, "latitude": 39.49, "longitude": -121.618, "useCount": 0, "id": "74504893210", "name": "OROVILLE MUNICIPAL AIRPORT, CA US", "quality": 100, "contribution": 0.0}, "72591024216": {"distance": 69800.0, "latitude": 40.152, "longitude": -122.254, "useCount": 0, "id": "72591024216", "name": "RED BLUFF MUNICIPAL AIRPORT, CA US", "quality": 100, "contribution": 0.0}}}