{"queryCost": 1, "latitude": 33.843, "longitude": -118.307, "resolvedAddress": "33.84300,-118.30700", "address": "33.84300,-118.30700", "timezone": "America/Los_Angeles", "tzoffset": -8.0, "days": [{"datetime": "2015-12-19", "datetimeEpoch": 1450512000, "tempmax": 63.1, "tempmin": 47.8, "temp": 55.1, "feelslikemax": 63.1, "feelslikemin": 47.8, "feelslike": 55.1, "dew": 44.3, "humidity": 68.0, "precip": 0.25, "precipprob": 100.0, "precipcover": 16.67, "preciptype": ["rain"], "snow": 0.0, "snowdepth": 0.0, "windgust": 18.3, "windspeed": 10.5, "winddir": 156.8, "pressure": 1014.9, "cloudcover": 31.8, "visibility": 9.2, "solarradiation": 130.3, "solarenergy": 11.2, "uvindex": 6.0, "sunrise": "06:53:16", "sunriseEpoch": 1450536796, "sunset": "16:47:22", "sunsetEpoch": 1450572442, "moonphase": 0.3, "conditions": "Rain, Partially cloudy", "description": "Becoming cloudy in the afternoon with rain.", "icon": "rain", "stations": ["KHHR", "72295023174", "72295603167", "KLAX", "KLGB", "72297023129"], "source": "obs"}], "stations": {"KHHR": {"distance": 8831.0, "latitude": 33.92, "longitude": -118.33, "useCount": 0, "id": "KHHR", "name": "KHHR", "quality": 100, "contribution": 0.0}, "72295023174": {"distance": 13010.0, "latitude": 33.938, "longitude": -118.389, "useCount": 0, "id": "72295023174", "name": "LOS ANGELES INTERNATIONAL AIRPORT, CA US", "quality": 100, "contribution": 0.0}, "72295603167": {"distance": 9227.0, "latitude": 33.923, "longitude": -118.334, "useCount": 0, "id": "72295603167", "name": "HAWTHORNE MUNICIPAL AIRPORT, CA US", "quality": 100, "contribution": 0.0}, "KLAX": {"distance": 12948.0, "latitude": 33.93, "longitude": -118.4, "useCount": 0, "id": "KLAX", "name": "KLAX", "quality": 100, "contribution": 0.0}, "KLGB": {"distance": 14742.0, "latitude": 33.82, "longitude": -118.15, "useCount": 0, "id": "KLGB", "name": "KLGB", "quality": 100, "contribution": 0.0}, "72297023129": {"distance": 15293.0, "latitude": 33.812, "longitude": -118.146, "useCount": 0, "id": "72297023129", "name": "LONG BEACH DAUGHERTY AIRPORT, CA US", "quality": 100, "contribution": 0.0}}}