{"queryCost": 1, "latitude": 41.243, "longitude": -95.99, "resolvedAddress": "41.24300,-95.99000", "address": "41.24300,-95.99000", "timezone": "America/Chicago", "tzoffset": -6.0, "days": [{"datetime": "2015-01-27", "datetimeEpoch": 1422338400, "tempmax": 53.4, "tempmin": 26.0, "temp": 39.1, "feelslikemax": 53.4, "feelslikemin": 26.0, "feelslike": 36.5, "dew": 30.3, "humidity": 73.0, "precip": 0.0, "precipprob": 0.0, "precipcover": 0.0, "preciptype": null, "snow": 0.0, "snowdepth": 0.0, "windgust": 16.1, "windspeed": 12.8, "winddir": 172.8, "pressure": 1019.2, "cloudcover": 5.4, "visibility": 9.8, "solarradiation": 130.7, "solarenergy": 11.3, "uvindex": 5.0, "sunrise": "07:39:52", "sunriseEpoch": 1422365992, "sunset": "17:34:00", "sunsetEpoch": 1422401640, "moonphase": 0.27, "conditions": "Clear", "description": "Clear conditions throughout the day.", "icon": "clear-day", "stations": ["KOFF", "KMLE", "72030804992", "KOMA", "72550014942", "72554014949"], "source": "obs"}], "stations": {"KOFF": {"distance": 14895.0, "latitude": 41.12, "longitude": -95.92, "useCount": 0, "id": "KOFF", "name": "KOFF", "quality": 100, "contribution": 0.0}, "KMLE": {"distance": 11130.0, "latitude": 41.2, "longitude": -96.11, "useCount": 0, "id": "KMLE", "name": "KMLE", "quality": 100, "contribution": 0.0}, "72030804992": {"distance": 11465.0, "latitude": 41.196, "longitude": -96.112, "useCount": 0, "id": "72030804992", "name": "MILLARD AIRPORT OMAHA, NE US", "quality": 96, "contribution": 0.0}, "KOMA": {"distance": 9847.0, "latitude": 41.3, "longitude": -95.9, "useCount": 0, "id": "KOMA", "name": "KOMA", "quality": 100, "contribution": 0.0}, "72550014942": {"distance": 10667.0, "latitude": 41.31, "longitude": -95.899, "useCount": 0, "id": "72550014942", "name": "OMAHA EPPLEY AIRFIELD, NE US", "quality": 100, "contribution": 0.0}, "72554014949": {"distance": 15342.0, "latitude": 41.117, "longitude": -95.917, "useCount": 0, "id": "72554014949", "name": "BELLEVUE OFFUTT AFB, NE US", "quality": 100, "contribution": 0.0}}}