{"queryCost": 1, "latitude": 44.483, "longitude": -73.214, "resolvedAddress": "44.48300,-73.21400", "address": "44.48300,-73.21400", "timezone": "America/New_York", "tzoffset": -5.0, "days": [{"datetime": "2015-12-22", "datetimeEpoch": 1450760400, "tempmax": 49.8, "tempmin": 45.7, "temp": 47.6, "feelslikemax": 46.9, "feelslikemin": 40.8, "feelslike": 44.0, "dew": 39.7, "humidity": 75.2, "precip": 0.65, "precipprob": 100.0, "precipcover": 33.33, "preciptype": ["rain"], "snow": 0.0, "snowdepth": 0.0, "windgust": null, "windspeed": 14.3, "winddir": 185.6, "pressure": 1013.0, "cloudcover": 98.0, "visibility": 7.8, "solarradiation": 17.9, "solarenergy": 1.7, "uvindex": 1.0, "sunrise": "07:26:34", "sunriseEpoch": 1450787194, "sunset": "16:16:12", "sunsetEpoch": 1450818972, "moonphase": 0.45, "conditions": "Rain, Overcast", "description": "Cloudy skies throughout the day with rain.", "icon": "rain", "stations": ["72622564776", "KPBG", "KBTV", "KMVL", "72611454771", "72617014742"], "source": "obs"}], "stations": {"72622564776": {"distance": 27336.0, "latitude": 44.65, "longitude": -73.467, "useCount": 0, "id": "72622564776", "name": "PLATTSBURGH INTERNATIONAL AIRPORT, NY US", "quality": 100, "contribution": 0.0}, "KPBG": {"distance": 27528.0, "latitude": 44.65, "longitude": -73.47, "useCount": 0, "id": "KPBG", "name": "KPBG", "quality": 99, "contribution": 0.0}, "KBTV": {"distance": 5286.0, "latitude": 44.47, "longitude": -73.15, "useCount": 0, "id": "KBTV", "name": "KBTV", "quality": 100, "contribution": 0.0}, "KMVL": {"distance": 48236.0, "latitude": 44.53, "longitude": -72.61, "useCount": 0, "id": "KMVL", "name": "KMVL", "quality": 100, "contribution": 0.0}, "72611454771": {"distance": 47943.0, "latitude": 44.534, "longitude": -72.614, "useCount": 0, "id": "72611454771", "name": "MORRISVILLE STOWE STATE AIRPORT, VT US", "quality": 100, "contribution": 0.0}, "72617014742": {"distance": 5348.0, "latitude": 44.468, "longitude": -73.15, "useCount": 0, "id": "72617014742", "name": "BURLINGTON INTERNATIONAL AIRPORT, VT US", "quality": 100, "contribution": 0.0}}}