{"queryCost": 1, "latitude": 34.29, "longitude": -118.449, "resolvedAddress": "34.29000,-118.44900", "address": "34.29000,-118.44900", "timezone": "America/Los_Angeles", "tzoffset": -8.0, "days": [{"datetime": "2016-01-11", "datetimeEpoch": 1452499200, "tempmax": 64.0, "tempmin": 50.4, "temp": 55.7, "feelslikemax": 64.0, "feelslikemin": 50.4, "feelslike": 55.7, "dew": 33.8, "humidity": 45.8, "precip": 0.0, "precipprob": 0.0, "precipcover": 0.0, "preciptype": null, "snow": 0.0, "snowdepth": 0.0, "windgust": 27.8, "windspeed": 14.6, "winddir": 137.5, "pressure": 1023.5, "cloudcover": 20.0, "visibility": 9.7, "solarradiation": 98.5, "solarenergy": 8.5, "uvindex": 4.0, "sunrise": "07:00:31", "sunriseEpoch": 1452524431, "sunset": "17:02:58", "sunsetEpoch": 1452560578, "moonphase": 0.01, "conditions": "Clear", "description": "Partly cloudy throughout the day.", "icon": "clear-day", "stations": ["KVNY", "72288593197", "KBUR", "KSMO", "72288623130", "72288023152"], "source": "obs"}], "stations": {"KVNY": {"distance": 8298.0, "latitude": 34.22, "longitude": -118.48, "useCount": 0, "id": "KVNY", "name": "KVNY", "quality": 100, "contribution": 0.0}, "72288593197": {"distance": 30524.0, "latitude": 34.016, "longitude": -118.451, "useCount": 0, "id": "72288593197", "name": "SANTA MONICA MUNICIPAL AIRPORT, CA US", "quality": 100, "contribution": 0.0}, "KBUR": {"distance": 13541.0, "latitude": 34.2, "longitude": -118.35, "useCount": 0, "id": "KBUR", "name": "KBUR", "quality": 100, "contribution": 0.0}, "KSMO": {"distance": 30056.0, "latitude": 34.02, "longitude": -118.45, "useCount": 0, "id": "KSMO", "name": "KSMO", "quality": 97, "contribution": 0.0}, "72288623130": {"distance": 9667.0, "latitude": 34.21, "longitude": -118.489, "useCount": 0, "id": "72288623130", "name": "VAN NUYS AIRPORT, CA US", "quality": 100, "contribution": 0.0}, "72288023152": {"distance": 13066.0, "latitude": 34.201, "longitude": -118.357, "useCount": 0, "id": "72288023152", "name": "BURBANK GLENDALE PASADENA AIRPORT, CA US", "quality": 100, "contribution": 0.0}}}