{"queryCost": 1, "latitude": 29.415, "longitude": -98.601, "resolvedAddress": "29.41500,-98.60100", "address": "29.41500,-98.60100", "timezone": "America/Chicago", "tzoffset": -6.0, "days": [{"datetime": "2016-01-16", "datetimeEpoch": 1452924000, "tempmax": 69.2, "tempmin": 41.9, "temp": 52.4, "feelslikemax": 69.2, "feelslikemin": 37.4, "feelslike": 50.5, "dew": 36.0, "humidity": 57.3, "precip": 0.0, "precipprob": 0.0, "precipcover": 0.0, "preciptype": null, "snow": 0.0, "snowdepth": 0.0, "windgust": 34.8, "windspeed": 23.8, "winddir": 225.0, "pressure": 1011.7, "cloudcover": 11.7, "visibility": 9.0, "solarradiation": 141.4, "solarenergy": 12.2, "uvindex": 7.0, "sunrise": "07:29:48", "sunriseEpoch": 1452950988, "sunset": "17:58:33", "sunsetEpoch": 1452988713, "moonphase": 0.22, "conditions": "Clear", "description": "Clear conditions throughout the day.", "icon": "clear-day", "stations": ["KSKF", "KSSF", "KSAT", "72253012921", "72252312970", "72253512909"], "source": "obs"}], "stations": {"KSKF": {"distance": 4396.0, "latitude": 29.38, "longitude": -98.58, "useCount": 0, "id": "KSKF", "name": "KSKF", "quality": 100, "contribution": 0.0}, "KSSF": {"distance": 15844.0, "latitude": 29.33, "longitude": -98.47, "useCount": 0, "id": "KSSF", "name": "KSSF", "quality": 100, "contribution": 0.0}, "KSAT": {"distance": 18030.0, "latitude": 29.53, "longitude": -98.47, "useCount": 0, "id": "KSAT", "name": "KSAT", "quality": 100, "contribution": 0.0}, "72253012921": {"distance": 18329.0, "latitude": 29.544, "longitude": -98.484, "useCount": 0, "id": "72253012921", "name": "SAN ANTONIO INTERNATIONAL AIRPORT, TX US", "quality": 100, "contribution": 0.0}, "72252312970": {"distance": 15111.0, "latitude": 29.339, "longitude": -98.472, "useCount": 0, "id": "72252312970", "name": "SAN ANTONIO STINSON MUNICIPAL AIRPORT, TX US", "quality": 100, "contribution": 0.0}, "72253512909": {"distance": 3924.0, "latitude": 29.383, "longitude": -98.583, "useCount": 0, "id": "72253512909", "name": "SAN ANTONIO KELLY FIELD AFB, TX US", "quality": 98, "contribution": 0.0}}}