{"queryCost": 1, "latitude": 35.837, "longitude": -83.558, "resolvedAddress": "35.83700,-83.55800", "address": "35.83700,-83.55800", "timezone": "America/New_York", "tzoffset": -5.0, "days": [{"datetime": "2016-01-13", "datetimeEpoch": 1452661200, "tempmax": 39.9, "tempmin": 20.8, "temp": 30.0, "feelslikemax": 33.6, "feelslikemin": 15.9, "feelslike": 25.7, "dew": 8.4, "humidity": 41.7, "precip": 0.0, "precipprob": 0.0, "precipcover": 0.0, "preciptype": null, "snow": 0.0, "snowdepth": 0.1, "windgust": 16.1, "windspeed": 10.5, "winddir": 275.4, "pressure": 1023.5, "cloudcover": 8.6, "visibility": 9.9, "solarradiation": 154.1, "solarenergy": 13.4, "uvindex": 6.0, "sunrise": "07:44:22", "sunriseEpoch": 1452689062, "sunset": "17:41:28", "sunsetEpoch": 1452724888, "moonphase": 0.07, "conditions": "Clear", "description": "Clear conditions throughout the day.", "icon": "clear-day", "stations": ["KTYS", "72326013891", "KOQT", "72427053868", "KMOR", "A0000363844"], "source": "obs"}], "stations": {"KTYS": {"distance": 38134.0, "latitude": 35.82, "longitude": -83.98, "useCount": 0, "id": "KTYS", "name": "KTYS", "quality": 100, "contribution": 0.0}, "72326013891": {"distance": 38669.0, "latitude": 35.818, "longitude": -83.986, "useCount": 0, "id": "72326013891", "name": "KNOXVILLE AIRPORT, TN US", "quality": 100, "contribution": 0.0}, "KOQT": {"distance": 63908.0, "latitude": 36.02, "longitude": -84.23, "useCount": 0, "id": "KOQT", "name": "KOQT", "quality": 100, "contribution": 0.0}, "72427053868": {"distance": 64330.0, "latitude": 36.023, "longitude": -84.234, "useCount": 0, "id": "72427053868", "name": "OAK RIDGE ASOS, TN US", "quality": 100, "contribution": 0.0}, "KMOR": {"distance": 42140.0, "latitude": 36.18, "longitude": -83.36, "useCount": 0, "id": "KMOR", "name": "KMOR", "quality": 99, "contribution": 0.0}, "A0000363844": {"distance": 69552.0, "latitude": 35.223, "longitude": -83.419, "useCount": 0, "id": "A0000363844", "name": "MACON CO AIRPORT, NC US", "quality": 98, "contribution": 0.0}}}