{"queryCost": 1, "latitude": 33.836, "longitude": -81.164, "resolvedAddress": "33.83600,-81.16400", "address": "33.83600,-81.16400", "timezone": "America/New_York", "tzoffset": -5.0, "days": [{"datetime": "2016-01-19", "datetimeEpoch": 1453179600, "tempmax": 40.9, "tempmin": 20.4, "temp": 30.4, "feelslikemax": 37.4, "feelslikemin": 14.7, "feelslike": 27.7, "dew": 10.7, "humidity": 47.3, "precip": 0.0, "precipprob": 0.0, "precipcover": 0.0, "preciptype": null, "snow": 0.0, "snowdepth": 0.0, "windgust": 16.1, "windspeed": 7.5, "winddir": 256.4, "pressure": 1028.6, "cloudcover": 0.0, "visibility": 9.9, "solarradiation": 167.8, "solarenergy": 14.4, "uvindex": 6.0, "sunrise": "07:28:34", "sunriseEpoch": 1453206514, "sunset": "17:42:16", "sunsetEpoch": 1453243336, "moonphase": 0.39, "conditions": "Clear", "description": "Clear conditions throughout the day.", "icon": "clear-day", "stations": ["KCUB", "KMMT", "72310013883", "72310453867", "72221699999", "KCAE"], "source": "obs"}], "stations": {"KCUB": {"distance": 22617.0, "latitude": 33.97, "longitude": -80.98, "useCount": 0, "id": "KCUB", "name": "KCUB", "quality": 100, "contribution": 0.0}, "KMMT": {"distance": 34916.0, "latitude": 33.92, "longitude": -80.8, "useCount": 0, "id": "KMMT", "name": "KMMT", "quality": 99, "contribution": 0.0}, "72310013883": {"distance": 12574.0, "latitude": 33.942, "longitude": -81.118, "useCount": 0, "id": "72310013883", "name": "COLUMBIA METROPOLITAN AIRPORT, SC US", "quality": 100, "contribution": 0.0}, "72310453867": {"distance": 21587.0, "latitude": 33.971, "longitude": -80.996, "useCount": 0, "id": "72310453867", "name": "COLUMBIA OWENS DOWNTOWN AIRPORT, SC US", "quality": 100, "contribution": 0.0}, "72221699999": {"distance": 25682.0, "latitude": 33.615, "longitude": -81.084, "useCount": 0, "id": "72221699999", "name": "NORTH AF AUX, SC US", "quality": 93, "contribution": 0.0}, "KCAE": {"distance": 13326.0, "latitude": 33.95, "longitude": -81.12, "useCount": 0, "id": "KCAE", "name": "KCAE", "quality": 100, "contribution": 0.0}}}