{"queryCost": 1, "latitude": 35.816, "longitude": -84.231, "resolvedAddress": "35.81600,-84.23100", "address": "35.81600,-84.23100", "timezone": "America/New_York", "tzoffset": -5.0, "days": [{"datetime": "2016-01-27", "datetimeEpoch": 1453870800, "tempmax": 40.8, "tempmin": 30.0, "temp": 35.8, "feelslikemax": 37.4, "feelslikemin": 26.5, "feelslike": 31.9, "dew": 29.6, "humidity": 78.4, "precip": 0.0, "precipprob": 0.0, "precipcover": 0.0, "preciptype": null, "snow": 0.0, "snowdepth": 0.0, "windgust": null, "windspeed": 9.2, "winddir": 29.5, "pressure": 1023.3, "cloudcover": 70.8, "visibility": 9.0, "solarradiation": 160.7, "solarenergy": 13.8, "uvindex": 6.0, "sunrise": "07:41:06", "sunriseEpoch": 1453898466, "sunset": "17:58:29", "sunsetEpoch": 1453935509, "moonphase": 0.56, "conditions": "Partially cloudy", "description": "Partly cloudy throughout the day.", "icon": "partly-cloudy-day", "stations": ["KTYS", "72326013891", "KOQT", "72427053868", "72090799999", "KMMI"], "source": "obs"}], "stations": {"KTYS": {"distance": 22661.0, "latitude": 35.82, "longitude": -83.98, "useCount": 0, "id": "KTYS", "name": "KTYS", "quality": 100, "contribution": 0.0}, "72326013891": {"distance": 22135.0, "latitude": 35.818, "longitude": -83.986, "useCount": 0, "id": "72326013891", "name": "KNOXVILLE AIRPORT, TN US", "quality": 100, "contribution": 0.0}, "KOQT": {"distance": 22709.0, "latitude": 36.02, "longitude": -84.23, "useCount": 0, "id": "KOQT", "name": "KOQT", "quality": 100, "contribution": 0.0}, "72427053868": {"distance": 23044.0, "latitude": 36.023, "longitude": -84.234, "useCount": 0, "id": "72427053868", "name": "OAK RIDGE ASOS, TN US", "quality": 100, "contribution": 0.0}, "72090799999": {"distance": 58060.0, "latitude": 36.335, "longitude": -84.162, "useCount": 0, "id": "72090799999", "name": "CAMPBELL CO, TN US", "quality": 100, "contribution": 0.0}, "KMMI": {"distance": 55550.0, "latitude": 35.4, "longitude": -84.57, "useCount": 0, "id": "KMMI", "name": "KMMI", "quality": 100, "contribution": 0.0}}}