{"queryCost": 1, "latitude": 47.234, "longitude": -122.454, "resolvedAddress": "47.23400,-122.45400", "address": "47.23400,-122.45400", "timezone": "America/Los_Angeles", "tzoffset": -8.0, "days": [{"datetime": "2016-01-28", "datetimeEpoch": 1453968000, "tempmax": 55.2, "tempmin": 44.1, "temp": 50.9, "feelslikemax": 55.2, "feelslikemin": 40.9, "feelslike": 50.0, "dew": 48.0, "humidity": 90.2, "precip": 0.68, "precipprob": 100.0, "precipcover": 50.0, "preciptype": ["rain"], "snow": 0.0, "snowdepth": 0.0, "windgust": 29.9, "windspeed": 15.9, "winddir": 198.7, "pressure": 1013.9, "cloudcover": 61.8, "visibility": 9.3, "solarradiation": 42.8, "solarenergy": 3.8, "uvindex": 2.0, "sunrise": "07:40:39", "sunriseEpoch": 1453995639, "sunset": "17:05:20", "sunsetEpoch": 1454029520, "moonphase": 0.6, "conditions": "Rain, Partially cloudy", "description": "Partly cloudy throughout the day with rain clearing later.", "icon": "rain", "stations": ["KTCM", "KGRF", "KTIW", "74206024207", "72793894274", "74207124201"], "source": "obs"}], "stations": {"KTCM": {"distance": 11743.0, "latitude": 47.13, "longitude": -122.48, "useCount": 0, "id": "KTCM", "name": "KTCM", "quality": 100, "contribution": 0.0}, "KGRF": {"distance": 19618.0, "latitude": 47.08, "longitude": -122.58, "useCount": 0, "id": "KGRF", "name": "KGRF", "quality": 100, "contribution": 0.0}, "KTIW": {"distance": 10330.0, "latitude": 47.27, "longitude": -122.58, "useCount": 0, "id": "KTIW", "name": "KTIW", "quality": 100, "contribution": 0.0}, "74206024207": {"distance": 9605.0, "latitude": 47.15, "longitude": -122.483, "useCount": 0, "id": "74206024207", "name": "TACOMA MCCHORD AFB, WA US", "quality": 96, "contribution": 0.0}, "72793894274": {"distance": 9944.0, "latitude": 47.268, "longitude": -122.576, "useCount": 0, "id": "72793894274", "name": "TACOMA NARROWS AIRPORT, WA US", "quality": 100, "contribution": 0.0}, "74207124201": {"distance": 19411.0, "latitude": 47.083, "longitude": -122.583, "useCount": 0, "id": "74207124201", "name": "GRAY ARMY AIR FIELD, WA US", "quality": 96, "contribution": 0.0}}}