{"queryCost": 1, "latitude": 38.894, "longitude": -76.925, "resolvedAddress": "38.89400,-76.92500", "address": "38.89400,-76.92500", "timezone": "America/New_York", "tzoffset": -5.0, "days": [{"datetime": "2016-02-01", "datetimeEpoch": 1454302800, "tempmax": 59.8, "tempmin": 43.8, "temp": 50.5, "feelslikemax": 59.8, "feelslikemin": 41.7, "feelslike": 48.2, "dew": 42.4, "humidity": 74.7, "precip": 0.1, "precipprob": 100.0, "precipcover": 12.5, "preciptype": ["rain"], "snow": 0.3, "snowdepth": 1.6, "windgust": null, "windspeed": 16.0, "winddir": 257.0, "pressure": 1012.8, "cloudcover": 68.2, "visibility": 9.7, "solarradiation": 89.2, "solarenergy": 7.6, "uvindex": 4.0, "sunrise": "07:14:22", "sunriseEpoch": 1454328862, "sunset": "17:28:33", "sunsetEpoch": 1454365713, "moonphase": 0.77, "conditions": "Rain, Partially cloudy", "description": "Partly cloudy throughout the day with rain or snow.", "icon": "snow", "stations": ["KDCA", "72405013743", "72403793728", "KADW", "KDAA", "74594013705"], "source": "obs"}], "stations": {"KDCA": {"distance": 10335.0, "latitude": 38.85, "longitude": -77.03, "useCount": 0, "id": "KDCA", "name": "KDCA", "quality": 100, "contribution": 0.0}, "72405013743": {"distance": 10826.0, "latitude": 38.847, "longitude": -77.034, "useCount": 0, "id": "72405013743", "name": "WASHINGTON REAGAN NATIONAL AIRPORT, VA US", "quality": 100, "contribution": 0.0}, "72403793728": {"distance": 29860.0, "latitude": 38.717, "longitude": -77.183, "useCount": 0, "id": "72403793728", "name": "DAVISON ARMY AIR FIELD, VA US", "quality": 100, "contribution": 0.0}, "KADW": {"distance": 9518.0, "latitude": 38.82, "longitude": -76.87, "useCount": 0, "id": "KADW", "name": "KADW", "quality": 100, "contribution": 0.0}, "KDAA": {"distance": 29402.0, "latitude": 38.72, "longitude": -77.18, "useCount": 0, "id": "KDAA", "name": "KDAA", "quality": 100, "contribution": 0.0}, "74594013705": {"distance": 9979.0, "latitude": 38.817, "longitude": -76.867, "useCount": 0, "id": "74594013705", "name": "CAMP SPRINGS ANDREWS AFB, MD US", "quality": 100, "contribution": 0.0}}}