{"queryCost": 1, "latitude": 38.918, "longitude": -94.511, "resolvedAddress": "38.91800,-94.51100", "address": "38.91800,-94.51100", "timezone": "America/Chicago", "tzoffset": -6.0, "days": [{"datetime": "2016-02-04", "datetimeEpoch": 1454565600, "tempmax": 44.2, "tempmin": 19.6, "temp": 30.5, "feelslikemax": 37.5, "feelslikemin": 11.3, "feelslike": 23.8, "dew": 16.9, "humidity": 60.2, "precip": 0.0, "precipprob": 0.0, "precipcover": 0.0, "preciptype": null, "snow": 0.0, "snowdepth": 0.0, "windgust": 23.5, "windspeed": 14.3, "winddir": 257.7, "pressure": 1026.7, "cloudcover": 0.0, "visibility": 9.9, "solarradiation": 164.4, "solarenergy": 14.2, "uvindex": 6.0, "sunrise": "07:21:56", "sunriseEpoch": 1454592116, "sunset": "17:42:24", "sunsetEpoch": 1454629344, "moonphase": 0.91, "conditions": "Clear", "description": "Clear conditions throughout the day.", "icon": "clear-day", "stations": ["72446803967", "72030653879", "KMKC", "KLXT", "KOJC", "72446313988"], "source": "obs"}], "stations": {"72446803967": {"distance": 21174.0, "latitude": 38.85, "longitude": -94.739, "useCount": 0, "id": "72446803967", "name": "OLATHE JOHNSON CO EXECUTIVE AIRPORT, KS US", "quality": 100, "contribution": 0.0}, "72030653879": {"distance": 12948.0, "latitude": 38.96, "longitude": -94.371, "useCount": 0, "id": "72030653879", "name": "LEES SUMMIT MUNICIPAL AIRPORT, MO US", "quality": 100, "contribution": 0.0}, "KMKC": {"distance": 22717.0, "latitude": 39.11, "longitude": -94.6, "useCount": 0, "id": "KMKC", "name": "KMKC", "quality": 100, "contribution": 0.0}, "KLXT": {"distance": 13073.0, "latitude": 38.96, "longitude": -94.37, "useCount": 0, "id": "KLXT", "name": "KLXT", "quality": 100, "contribution": 0.0}, "KOJC": {"distance": 20431.0, "latitude": 38.85, "longitude": -94.73, "useCount": 0, "id": "KOJC", "name": "KOJC", "quality": 100, "contribution": 0.0}, "72446313988": {"distance": 23767.0, "latitude": 39.121, "longitude": -94.597, "useCount": 0, "id": "72446313988", "name": "KANSAS CITY DOWNTOWN AIRPORT, MO US", "quality": 100, "contribution": 0.0}}}