{"queryCost": 1, "latitude": 34.95, "longitude": -91.934, "resolvedAddress": "34.95000,-91.93400", "address": "34.95000,-91.93400", "timezone": "America/Chicago", "tzoffset": -6.0, "days": [{"datetime": "2016-02-07", "datetimeEpoch": 1454824800, "tempmax": 59.8, "tempmin": 25.9, "temp": 43.2, "feelslikemax": 59.8, "feelslikemin": 22.6, "feelslike": 42.4, "dew": 26.9, "humidity": 57.6, "precip": 0.0, "precipprob": 0.0, "precipcover": 0.0, "preciptype": null, "snow": 0.0, "snowdepth": 0.0, "windgust": 22.2, "windspeed": 14.4, "winddir": 250.8, "pressure": 1021.0, "cloudcover": 15.3, "visibility": 9.9, "solarradiation": 178.8, "solarenergy": 15.4, "uvindex": 7.0, "sunrise": "07:01:54", "sunriseEpoch": 1454850114, "sunset": "17:42:14", "sunsetEpoch": 1454888534, "moonphase": 1.0, "conditions": "Clear", "description": "Clear conditions throughout the day.", "icon": "clear-day", "stations": ["72340503930", "72340313963", "KLRF", "KSRC", "72218853985", "KLIT"], "source": "obs"}], "stations": {"72340503930": {"distance": 20058.0, "latitude": 34.917, "longitude": -92.15, "useCount": 0, "id": "72340503930", "name": "LITTLE ROCK AFB, AR US", "quality": 99, "contribution": 0.0}, "72340313963": {"distance": 37291.0, "latitude": 34.727, "longitude": -92.239, "useCount": 0, "id": "72340313963", "name": "LITTLE ROCK AIRPORT ADAMS FIELD, AR US", "quality": 100, "contribution": 0.0}, "KLRF": {"distance": 19993.0, "latitude": 34.92, "longitude": -92.15, "useCount": 0, "id": "KLRF", "name": "KLRF", "quality": 100, "contribution": 0.0}, "KSRC": {"distance": 33912.0, "latitude": 35.21, "longitude": -91.74, "useCount": 0, "id": "KSRC", "name": "SEARCY MUNI ARPT, AR", "quality": 100, "contribution": 0.0}, "72218853985": {"distance": 34240.0, "latitude": 35.212, "longitude": -91.737, "useCount": 0, "id": "72218853985", "name": "SEARCY MUNICIPAL AIRPORT, AR US", "quality": 99, "contribution": 0.0}, "KLIT": {"distance": 37243.0, "latitude": 34.72, "longitude": -92.23, "useCount": 0, "id": "KLIT", "name": "KLIT", "quality": 100, "contribution": 0.0}}}