{"queryCost": 1, "latitude": 19.696, "longitude": -155.066, "resolvedAddress": "19.69600,-155.06600", "address": "19.69600,-155.06600", "timezone": "Pacific/Honolulu", "tzoffset": -10.0, "days": [{"datetime": "2016-02-05", "datetimeEpoch": 1454666400, "tempmax": 77.9, "tempmin": 66.4, "temp": 72.2, "feelslikemax": 77.9, "feelslikemin": 66.4, "feelslike": 72.2, "dew": 66.4, "humidity": 82.2, "precip": 0.15, "precipprob": 100.0, "precipcover": 29.17, "preciptype": ["rain"], "snow": 0.0, "snowdepth": 0.0, "windgust": null, "windspeed": 11.8, "winddir": 198.5, "pressure": 1016.2, "cloudcover": 66.7, "visibility": 8.8, "solarradiation": 230.1, "solarenergy": 19.7, "uvindex": 9.0, "sunrise": "06:54:02", "sunriseEpoch": 1454691242, "sunset": "18:14:42", "sunsetEpoch": 1454732082, "moonphase": 0.95, "conditions": "Rain, Partially cloudy", "description": "Partly cloudy throughout the day with a chance of rain throughout the day.", "icon": "rain", "stations": ["91197721508", "91285021504", "PHTO", "99999921514", "99999921515"], "source": "obs"}], "stations": {"91197721508": {"distance": 51629.0, "latitude": 19.76, "longitude": -155.554, "useCount": 0, "id": "91197721508", "name": "BRADSHAW ARMY AIR FIELD, HI US", "quality": 93, "contribution": 0.0}, "91285021504": {"distance": 2910.0, "latitude": 19.719, "longitude": -155.053, "useCount": 0, "id": "91285021504", "name": "HILO INTERNATIONAL AIRPORT 87, HI US", "quality": 100, "contribution": 0.0}, "99999921514": {"distance": 56387.0, "latitude": 19.535, "longitude": -155.576, "useCount": 0, "id": "99999921514", "name": "MAUNA LOA 5 NNE, HI US", "quality": 100, "contribution": 0.0}, "PHTO": {"distance": 2704.0, "latitude": 19.72, "longitude": -155.07, "useCount": 0, "id": "PHTO", "name": "HILO LYMAN FLD, HI", "quality": 100, "contribution": 0.0}, "99999921515": {"distance": 5950.0, "latitude": 19.645, "longitude": -155.083, "useCount": 0, "id": "99999921515", "name": "HILO 5 S, HI US", "quality": 100, "contribution": 0.0}}}