{"queryCost": 1, "latitude": 39.836, "longitude": -75.402, "resolvedAddress": "39.83600,-75.40200", "address": "39.83600,-75.40200", "timezone": "America/New_York", "tzoffset": -5.0, "days": [{"datetime": "2016-02-08", "datetimeEpoch": 1454907600, "tempmax": 43.1, "tempmin": 31.8, "temp": 38.6, "feelslikemax": 39.1, "feelslikemin": 24.7, "feelslike": 31.9, "dew": 25.2, "humidity": 58.9, "precip": 0.03, "precipprob": 100.0, "precipcover": 8.33, "preciptype": ["rain", "snow"], "snow": 0.6, "snowdepth": 0.4, "windgust": 30.2, "windspeed": 17.6, "winddir": 84.8, "pressure": 1007.8, "cloudcover": 79.8, "visibility": 9.2, "solarradiation": 99.8, "solarenergy": 8.7, "uvindex": 5.0, "sunrise": "07:03:07", "sunriseEpoch": 1454932987, "sunset": "17:28:56", "sunsetEpoch": 1454970536, "moonphase": 1.0, "conditions": "Snow, Rain, Partially cloudy", "description": "Partly cloudy throughout the day with late afternoon rain or snow.", "icon": "snow", "stations": ["72418013781", "72408013739", "99999903761", "72030464752", "KPHL", "KILG"], "source": "obs"}], "stations": {"72418013781": {"distance": 25050.0, "latitude": 39.674, "longitude": -75.606, "useCount": 0, "id": "72418013781", "name": "WILMINGTON NEW CASTLE CO AIRPORT, DE US", "quality": 100, "contribution": 0.0}, "72408013739": {"distance": 15537.0, "latitude": 39.873, "longitude": -75.227, "useCount": 0, "id": "72408013739", "name": "PHILADELPHIA INTERNATIONAL AIRPORT, PA US", "quality": 100, "contribution": 0.0}, "99999903761": {"distance": 32930.0, "latitude": 39.859, "longitude": -75.786, "useCount": 0, "id": "99999903761", "name": "AVONDALE 2 N, PA US", "quality": 100, "contribution": 0.0}, "72030464752": {"distance": 31574.0, "latitude": 40.1, "longitude": -75.267, "useCount": 0, "id": "72030464752", "name": "WINGS FIELD, PA US", "quality": 100, "contribution": 0.0}, "KPHL": {"distance": 13882.0, "latitude": 39.88, "longitude": -75.25, "useCount": 0, "id": "KPHL", "name": "KPHL", "quality": 100, "contribution": 0.0}, "KILG": {"distance": 23673.0, "latitude": 39.68, "longitude": -75.59, "useCount": 0, "id": "KILG", "name": "KILG", "quality": 100, "contribution": 0.0}}}