{"queryCost": 1, "latitude": 32.282, "longitude": -96.182, "resolvedAddress": "32.28200,-96.18200", "address": "32.28200,-96.18200", "timezone": "America/Chicago", "tzoffset": -6.0, "days": [{"datetime": "2016-02-10", "datetimeEpoch": 1455084000, "tempmax": 67.9, "tempmin": 33.2, "temp": 50.6, "feelslikemax": 67.9, "feelslikemin": 33.2, "feelslike": 50.3, "dew": 29.7, "humidity": 47.7, "precip": 0.04, "precipprob": 100.0, "precipcover": 4.17, "preciptype": ["rain"], "snow": 0.0, "snowdepth": 0.0, "windgust": 21.9, "windspeed": 13.0, "winddir": 182.5, "pressure": 1024.8, "cloudcover": 0.0, "visibility": 9.9, "solarradiation": 207.0, "solarenergy": 18.1, "uvindex": 7.0, "sunrise": "07:12:14", "sunriseEpoch": 1455109934, "sunset": "18:06:04", "sunsetEpoch": 1455149164, "moonphase": 0.02, "conditions": "Rain", "description": "Clear conditions throughout the day with afternoon rain.", "icon": "rain", "stations": ["72246953912", "72248953911", "72104399999", "KF44", "KCRS", "99999900447"], "source": "obs"}], "stations": {"72246953912": {"distance": 34611.0, "latitude": 32.031, "longitude": -96.399, "useCount": 0, "id": "72246953912", "name": "CORSICANA CAMPBELL FIELD, TX US", "quality": 100, "contribution": 0.0}, "72248953911": {"distance": 48312.0, "latitude": 32.71, "longitude": -96.267, "useCount": 0, "id": "72248953911", "name": "TERRELL MUNICIPAL AIRPORT, TX US", "quality": 100, "contribution": 0.0}, "72104399999": {"distance": 35805.0, "latitude": 32.164, "longitude": -95.828, "useCount": 0, "id": "72104399999", "name": "ATHENS MUNICIPAL, TX US", "quality": 100, "contribution": 0.0}, "KF44": {"distance": 37125.0, "latitude": 32.15, "longitude": -95.82, "useCount": 0, "id": "KF44", "name": "KF44", "quality": 100, "contribution": 0.0}, "KCRS": {"distance": 34771.0, "latitude": 32.03, "longitude": -96.4, "useCount": 0, "id": "KCRS", "name": "KCRS", "quality": 100, "contribution": 0.0}, "99999900447": {"distance": 35814.0, "latitude": 32.164, "longitude": -95.828, "useCount": 0, "id": "99999900447", "name": "ATHENS MUNICIPAL AIRPORT, TX US", "quality": 100, "contribution": 0.0}}}