{"queryCost": 1, "latitude": 42.308, "longitude": -71.078, "resolvedAddress": "42.30800,-71.07800", "address": "42.30800,-71.07800", "timezone": "America/New_York", "tzoffset": -5.0, "days": [{"datetime": "2016-02-12", "datetimeEpoch": 1455253200, "tempmax": 22.4, "tempmin": 5.6, "temp": 14.7, "feelslikemax": 14.7, "feelslikemin": -11.6, "feelslike": 1.6, "dew": -1.4, "humidity": 48.4, "precip": 0.0, "precipprob": 0.0, "precipcover": 0.0, "preciptype": null, "snow": 0.0, "snowdepth": 6.8, "windgust": 30.4, "windspeed": 18.4, "winddir": 248.0, "pressure": 1018.9, "cloudcover": 42.3, "visibility": 9.9, "solarradiation": 145.1, "solarenergy": 12.4, "uvindex": 6.0, "sunrise": "06:45:25", "sunriseEpoch": 1455277525, "sunset": "17:12:14", "sunsetEpoch": 1455315134, "moonphase": 0.1, "conditions": "Partially cloudy", "description": "Becoming cloudy in the afternoon.", "icon": "partly-cloudy-day", "stations": ["KOWD", "72509854704", "KMQE", "KBOS", "72509014739", "74490714753"], "source": "obs"}], "stations": {"KOWD": {"distance": 16140.0, "latitude": 42.18, "longitude": -71.17, "useCount": 0, "id": "KOWD", "name": "KOWD", "quality": 100, "contribution": 0.0}, "72509854704": {"distance": 15240.0, "latitude": 42.191, "longitude": -71.174, "useCount": 0, "id": "72509854704", "name": "NORWOOD MEMORIAL AIRPORT, MA US", "quality": 100, "contribution": 0.0}, "KMQE": {"distance": 10389.0, "latitude": 42.22, "longitude": -71.12, "useCount": 0, "id": "KMQE", "name": "KMQE", "quality": 93, "contribution": 0.0}, "KBOS": {"distance": 7952.0, "latitude": 42.37, "longitude": -71.03, "useCount": 0, "id": "KBOS", "name": "KBOS", "quality": 100, "contribution": 0.0}, "72509014739": {"distance": 8116.0, "latitude": 42.361, "longitude": -71.01, "useCount": 0, "id": "72509014739", "name": "BOSTON, MA US", "quality": 100, "contribution": 0.0}, "74490714753": {"distance": 11052.0, "latitude": 42.212, "longitude": -71.114, "useCount": 0, "id": "74490714753", "name": "BLUE HILL LCD, MA US", "quality": 91, "contribution": 0.0}}}