{"queryCost": 1, "latitude": 40.064, "longitude": -82.864, "resolvedAddress": "40.06400,-82.86400", "address": "40.06400,-82.86400", "timezone": "America/New_York", "tzoffset": -5.0, "days": [{"datetime": "2016-02-11", "datetimeEpoch": 1455166800, "tempmax": 20.7, "tempmin": 7.0, "temp": 14.7, "feelslikemax": 19.0, "feelslikemin": -4.9, "feelslike": 5.1, "dew": 5.0, "humidity": 65.2, "precip": 0.0, "precipprob": 0.0, "precipcover": 0.0, "preciptype": null, "snow": 0.3, "snowdepth": 3.6, "windgust": 22.8, "windspeed": 15.0, "winddir": 256.4, "pressure": 1024.4, "cloudcover": 77.9, "visibility": 9.6, "solarradiation": 95.2, "solarenergy": 8.2, "uvindex": 3.0, "sunrise": "07:29:54", "sunriseEpoch": 1455193794, "sunset": "18:02:00", "sunsetEpoch": 1455231720, "moonphase": 0.06, "conditions": "Partially cloudy", "description": "Partly cloudy throughout the day.", "icon": "snow", "stations": ["KCMH", "KDLZ", "KOSU", "72092800315", "72428804804", "72428014821"], "source": "obs"}], "stations": {"KCMH": {"distance": 7254.0, "latitude": 40.0, "longitude": -82.88, "useCount": 0, "id": "KCMH", "name": "KCMH", "quality": 100, "contribution": 0.0}, "KDLZ": {"distance": 33272.0, "latitude": 40.29, "longitude": -83.12, "useCount": 0, "id": "KDLZ", "name": "KDLZ", "quality": 100, "contribution": 0.0}, "KOSU": {"distance": 17638.0, "latitude": 40.08, "longitude": -83.07, "useCount": 0, "id": "KOSU", "name": "KOSU", "quality": 100, "contribution": 0.0}, "72092800315": {"distance": 32156.0, "latitude": 40.28, "longitude": -83.115, "useCount": 0, "id": "72092800315", "name": "DELAWARE MUNICIPAL JIM MOORE FIELD AIRPORT, OH US", "quality": 100, "contribution": 0.0}, "72428804804": {"distance": 18306.0, "latitude": 40.078, "longitude": -83.078, "useCount": 0, "id": "72428804804", "name": "COLUMBUS OHIO STATE UNIVERSITY AIRPORT, OH US", "quality": 100, "contribution": 0.0}, "72428014821": {"distance": 8235.0, "latitude": 39.991, "longitude": -82.877, "useCount": 0, "id": "72428014821", "name": "PORT COLUMBUS INTERNATIONAL AIRPORT, OH US", "quality": 100, "contribution": 0.0}}}