{"queryCost": 1, "latitude": 27.457, "longitude": -82.499, "resolvedAddress": "27.45700,-82.49900", "address": "27.45700,-82.49900", "timezone": "America/New_York", "tzoffset": -5.0, "days": [{"datetime": "2016-02-14", "datetimeEpoch": 1455426000, "tempmax": 72.9, "tempmin": 45.3, "temp": 58.6, "feelslikemax": 72.9, "feelslikemin": 40.3, "feelslike": 57.5, "dew": 45.0, "humidity": 63.4, "precip": 0.0, "precipprob": 0.0, "precipcover": 0.0, "preciptype": null, "snow": 0.0, "snowdepth": 0.0, "windgust": 19.7, "windspeed": 14.6, "winddir": 76.8, "pressure": 1022.8, "cloudcover": 0.2, "visibility": 9.9, "solarradiation": 231.9, "solarenergy": 20.0, "uvindex": 8.0, "sunrise": "07:08:06", "sunriseEpoch": 1455451686, "sunset": "18:20:36", "sunsetEpoch": 1455492036, "moonphase": 0.2, "conditions": "Clear", "description": "Clear conditions throughout the day.", "icon": "clear-day", "stations": ["72211800482", "74788012810", "KSRQ", "72210492806", "KSPG", "72211512871"], "source": "obs"}], "stations": {"72211800482": {"distance": 43294.0, "latitude": 27.072, "longitude": -82.44, "useCount": 0, "id": "72211800482", "name": "VENICE MUNICIPAL AIRPORT, FL US", "quality": 100, "contribution": 0.0}, "74788012810": {"distance": 43783.0, "latitude": 27.85, "longitude": -82.517, "useCount": 0, "id": "74788012810", "name": "MACDILL AFB, FL US", "quality": 99, "contribution": 0.0}, "KSRQ": {"distance": 8103.0, "latitude": 27.4, "longitude": -82.55, "useCount": 0, "id": "KSRQ", "name": "KSRQ", "quality": 100, "contribution": 0.0}, "72210492806": {"distance": 36523.0, "latitude": 27.765, "longitude": -82.627, "useCount": 0, "id": "72210492806", "name": "ST PETERSBURG ALBERT WHITTED AIRPORT, FL US", "quality": 100, "contribution": 0.0}, "KSPG": {"distance": 37162.0, "latitude": 27.77, "longitude": -82.63, "useCount": 0, "id": "KSPG", "name": "KSPG", "quality": 100, "contribution": 0.0}, "72211512871": {"distance": 8543.0, "latitude": 27.401, "longitude": -82.559, "useCount": 0, "id": "72211512871", "name": "SARASOTA BRADENTON AIRPORT, FL US", "quality": 100, "contribution": 0.0}}}