{"queryCost": 1, "latitude": 33.872, "longitude": -117.741, "resolvedAddress": "33.87200,-117.74100", "address": "33.87200,-117.74100", "timezone": "America/Los_Angeles", "tzoffset": -8.0, "days": [{"datetime": "2016-02-15", "datetimeEpoch": 1455523200, "tempmax": 90.0, "tempmin": 53.0, "temp": 75.4, "feelslikemax": 86.0, "feelslikemin": 53.0, "feelslike": 74.2, "dew": 37.5, "humidity": 27.6, "precip": 0.0, "precipprob": 0.0, "precipcover": 0.0, "preciptype": null, "snow": 0.0, "snowdepth": 0.0, "windgust": 36.9, "windspeed": 13.0, "winddir": 84.7, "pressure": 1014.7, "cloudcover": 6.1, "visibility": 9.6, "solarradiation": 208.6, "solarenergy": 18.1, "uvindex": 7.0, "sunrise": "06:35:51", "sunriseEpoch": 1455546951, "sunset": "17:34:48", "sunsetEpoch": 1455586488, "moonphase": 0.26, "conditions": "Clear", "description": "Clear conditions throughout the day.", "icon": "clear-day", "stations": ["72033353175", "KFUL", "72289903179", "KAJO", "KCNO", "72297603166"], "source": "obs"}], "stations": {"72033353175": {"distance": 13160.0, "latitude": 33.898, "longitude": -117.602, "useCount": 0, "id": "72033353175", "name": "CORONA MUNICIPAL AIRPORT, CA US", "quality": 99, "contribution": 0.0}, "KFUL": {"distance": 22132.0, "latitude": 33.86, "longitude": -117.98, "useCount": 0, "id": "KFUL", "name": "KFUL", "quality": 100, "contribution": 0.0}, "72289903179": {"distance": 15043.0, "latitude": 33.975, "longitude": -117.636, "useCount": 0, "id": "72289903179", "name": "CHINO AIRPORT, CA US", "quality": 100, "contribution": 0.0}, "KAJO": {"distance": 13398.0, "latitude": 33.9, "longitude": -117.6, "useCount": 0, "id": "KAJO", "name": "CORONA, CA", "quality": 99, "contribution": 0.0}, "KCNO": {"distance": 14972.0, "latitude": 33.97, "longitude": -117.63, "useCount": 0, "id": "KCNO", "name": "KCNO", "quality": 100, "contribution": 0.0}, "72297603166": {"distance": 21998.0, "latitude": 33.872, "longitude": -117.979, "useCount": 0, "id": "72297603166", "name": "FULLERTON MUNICIPAL AIRPORT, CA US", "quality": 100, "contribution": 0.0}}}