{"queryCost": 1, "latitude": 47.691, "longitude": -122.306, "resolvedAddress": "47.69100,-122.30600", "address": "47.69100,-122.30600", "timezone": "America/Los_Angeles", "tzoffset": -8.0, "days": [{"datetime": "2016-02-21", "datetimeEpoch": 1456041600, "tempmax": 50.7, "tempmin": 35.5, "temp": 42.9, "feelslikemax": 50.7, "feelslikemin": 35.5, "feelslike": 40.7, "dew": 36.9, "humidity": 79.3, "precip": 0.05, "precipprob": 100.0, "precipcover": 8.33, "preciptype": ["rain"], "snow": 0.0, "snowdepth": 0.0, "windgust": 39.1, "windspeed": 12.4, "winddir": 113.9, "pressure": 1023.4, "cloudcover": 45.2, "visibility": 9.6, "solarradiation": 67.3, "solarenergy": 5.9, "uvindex": 3.0, "sunrise": "07:05:14", "sunriseEpoch": 1456067114, "sunset": "17:41:13", "sunsetEpoch": 1456105273, "moonphase": 0.49, "conditions": "Rain, Partially cloudy", "description": "Partly cloudy throughout the day with afternoon rain.", "icon": "rain", "stations": ["KBFI", "72793524234", "KPAE", "72793494248", "72793724222", "KRNT"], "source": "obs"}], "stations": {"KBFI": {"distance": 17928.0, "latitude": 47.53, "longitude": -122.3, "useCount": 0, "id": "KBFI", "name": "KBFI", "quality": 100, "contribution": 0.0}, "72793524234": {"distance": 17893.0, "latitude": 47.53, "longitude": -122.301, "useCount": 0, "id": "72793524234", "name": "SEATTLE BOEING FIELD, WA US", "quality": 100, "contribution": 0.0}, "KPAE": {"distance": 25566.0, "latitude": 47.92, "longitude": -122.28, "useCount": 0, "id": "KPAE", "name": "KPAE", "quality": 100, "contribution": 0.0}, "72793494248": {"distance": 23066.0, "latitude": 47.493, "longitude": -122.214, "useCount": 0, "id": "72793494248", "name": "RENTON MUNICIPAL AIRPORT, WA US", "quality": 100, "contribution": 0.0}, "72793724222": {"distance": 24212.0, "latitude": 47.908, "longitude": -122.28, "useCount": 0, "id": "72793724222", "name": "EVERETT SNOHOMISH CO AIRPORT, WA US", "quality": 100, "contribution": 0.0}, "KRNT": {"distance": 22221.0, "latitude": 47.5, "longitude": -122.22, "useCount": 0, "id": "KRNT", "name": "KRNT", "quality": 100, "contribution": 0.0}}}