{"queryCost": 1, "latitude": 35.404, "longitude": -97.515, "resolvedAddress": "35.40400,-97.51500", "address": "35.40400,-97.51500", "timezone": "America/Chicago", "tzoffset": -6.0, "days": [{"datetime": "2015-02-06", "datetimeEpoch": 1423202400, "tempmax": 61.1, "tempmin": 26.8, "temp": 42.8, "feelslikemax": 61.1, "feelslikemin": 17.2, "feelslike": 36.9, "dew": 29.3, "humidity": 61.5, "precip": 0.0, "precipprob": 0.0, "precipcover": 0.0, "preciptype": null, "snow": 0.0, "snowdepth": 0.0, "windgust": 34.7, "windspeed": 25.6, "winddir": 186.0, "pressure": 1022.2, "cloudcover": 26.4, "visibility": 9.8, "solarradiation": 185.6, "solarenergy": 16.1, "uvindex": 7.0, "sunrise": "07:25:38", "sunriseEpoch": 1423229138, "sunset": "18:03:05", "sunsetEpoch": 1423267385, "moonphase": 0.53, "conditions": "Partially cloudy", "description": "Partly cloudy throughout the day.", "icon": "partly-cloudy-day", "stations": ["72354013919", "72353013967", "KTIK", "KPWA", "KOKC", "72354403954"], "source": "obs"}], "stations": {"72354013919": {"distance": 12032.0, "latitude": 35.417, "longitude": -97.383, "useCount": 0, "id": "72354013919", "name": "OKLAHOMA CITY TINKER AFB, OK US", "quality": 99, "contribution": 0.0}, "72353013967": {"distance": 7947.0, "latitude": 35.389, "longitude": -97.601, "useCount": 0, "id": "72353013967", "name": "OKLAHOMA CITY WILL ROGERS WORLD AIRPORT, OK US", "quality": 100, "contribution": 0.0}, "KTIK": {"distance": 12377.0, "latitude": 35.42, "longitude": -97.38, "useCount": 0, "id": "KTIK", "name": "KTIK", "quality": 100, "contribution": 0.0}, "KPWA": {"distance": 18616.0, "latitude": 35.53, "longitude": -97.65, "useCount": 0, "id": "KPWA", "name": "KPWA", "quality": 100, "contribution": 0.0}, "KOKC": {"distance": 7726.0, "latitude": 35.4, "longitude": -97.6, "useCount": 0, "id": "KOKC", "name": "KOKC", "quality": 100, "contribution": 0.0}, "72354403954": {"distance": 18790.0, "latitude": 35.534, "longitude": -97.647, "useCount": 0, "id": "72354403954", "name": "OKLAHOMA CITY WILEY POST AIRPORT, OK US", "quality": 100, "contribution": 0.0}}}