{"queryCost": 1, "latitude": 33.495, "longitude": -112.108, "resolvedAddress": "33.49500,-112.10800", "address": "33.49500,-112.10800", "timezone": "America/Phoenix", "tzoffset": -7.0, "days": [{"datetime": "2016-02-21", "datetimeEpoch": 1456038000, "tempmax": 82.7, "tempmin": 54.8, "temp": 68.6, "feelslikemax": 80.1, "feelslikemin": 54.8, "feelslike": 68.1, "dew": 30.3, "humidity": 26.4, "precip": 0.0, "precipprob": 0.0, "precipcover": 0.0, "preciptype": null, "snow": 0.0, "snowdepth": 0.0, "windgust": null, "windspeed": 11.2, "winddir": 200.4, "pressure": 1013.1, "cloudcover": 8.8, "visibility": 9.9, "solarradiation": 227.7, "solarenergy": 19.7, "uvindex": 8.0, "sunrise": "07:06:30", "sunriseEpoch": 1456063590, "sunset": "18:18:05", "sunsetEpoch": 1456103885, "moonphase": 0.49, "conditions": "Clear", "description": "Clear conditions throughout the day.", "icon": "clear-day", "stations": ["72278403184", "72278903192", "KSDL", "KDVT", "72278023183", "KPHX"], "source": "obs"}], "stations": {"72278403184": {"distance": 21653.0, "latitude": 33.688, "longitude": -112.082, "useCount": 0, "id": "72278403184", "name": "PHOENIX DEER VALLEY MUNICIPAL AIRPORT, AZ US", "quality": 100, "contribution": 0.0}, "72278903192": {"distance": 23159.0, "latitude": 33.623, "longitude": -111.911, "useCount": 0, "id": "72278903192", "name": "SCOTTSDALE MUNICIPAL AIRPORT, AZ US", "quality": 100, "contribution": 0.0}, "KSDL": {"distance": 21635.0, "latitude": 33.61, "longitude": -111.92, "useCount": 0, "id": "KSDL", "name": "KSDL", "quality": 100, "contribution": 0.0}, "KDVT": {"distance": 20893.0, "latitude": 33.68, "longitude": -112.07, "useCount": 0, "id": "KDVT", "name": "KDVT", "quality": 100, "contribution": 0.0}, "72278023183": {"distance": 12223.0, "latitude": 33.428, "longitude": -112.004, "useCount": 0, "id": "72278023183", "name": "PHOENIX AIRPORT, AZ US", "quality": 100, "contribution": 0.0}, "KPHX": {"distance": 10915.0, "latitude": 33.43, "longitude": -112.02, "useCount": 0, "id": "KPHX", "name": "KPHX", "quality": 100, "contribution": 0.0}}}