{"queryCost": 1, "latitude": 33.962, "longitude": -118.362, "resolvedAddress": "33.96200,-118.36200", "address": "33.96200,-118.36200", "timezone": "America/Los_Angeles", "tzoffset": -8.0, "days": [{"datetime": "2016-02-21", "datetimeEpoch": 1456041600, "tempmax": 66.4, "tempmin": 51.6, "temp": 59.2, "feelslikemax": 66.4, "feelslikemin": 51.6, "feelslike": 59.2, "dew": 50.8, "humidity": 74.7, "precip": 0.0, "precipprob": 0.0, "precipcover": 0.0, "preciptype": null, "snow": 0.0, "snowdepth": 0.0, "windgust": null, "windspeed": 11.7, "winddir": 114.8, "pressure": 1018.1, "cloudcover": 9.4, "visibility": 9.6, "solarradiation": 221.3, "solarenergy": 19.1, "uvindex": 8.0, "sunrise": "06:31:59", "sunriseEpoch": 1456065119, "sunset": "17:42:39", "sunsetEpoch": 1456105359, "moonphase": 0.49, "conditions": "Clear", "description": "Clear conditions throughout the day.", "icon": "clear-day", "stations": ["KHHR", "72295023174", "KLAX", "72295603167", "72287493134"], "source": "obs"}], "stations": {"KLAX": {"distance": 5000.0, "latitude": 33.93, "longitude": -118.4, "useCount": 0, "id": "KLAX", "name": "KLAX", "quality": 100, "contribution": 0.0}, "72295603167": {"distance": 5072.0, "latitude": 33.923, "longitude": -118.334, "useCount": 0, "id": "72295603167", "name": "HAWTHORNE MUNICIPAL AIRPORT, CA US", "quality": 100, "contribution": 0.0}, "KHHR": {"distance": 5531.0, "latitude": 33.92, "longitude": -118.33, "useCount": 0, "id": "KHHR", "name": "KHHR", "quality": 100, "contribution": 0.0}, "72287493134": {"distance": 9485.0, "latitude": 34.024, "longitude": -118.291, "useCount": 0, "id": "72287493134", "name": "LOS ANGELES DOWNTOWN USC, CA US", "quality": 100, "contribution": 0.0}, "72295023174": {"distance": 3654.0, "latitude": 33.938, "longitude": -118.389, "useCount": 0, "id": "72295023174", "name": "LOS ANGELES INTERNATIONAL AIRPORT, CA US", "quality": 100, "contribution": 0.0}}}