{"queryCost": 1, "latitude": 34.812, "longitude": -88.19, "resolvedAddress": "34.81200,-88.19000", "address": "34.81200,-88.19000", "timezone": "America/Chicago", "tzoffset": -6.0, "days": [{"datetime": "2016-02-20", "datetimeEpoch": 1455948000, "tempmax": 66.3, "tempmin": 60.3, "temp": 62.8, "feelslikemax": 66.3, "feelslikemin": 60.3, "feelslike": 62.8, "dew": 54.4, "humidity": 74.4, "precip": 0.0, "precipprob": 0.0, "precipcover": 0.0, "preciptype": null, "snow": 0.0, "snowdepth": 0.0, "windgust": 19.7, "windspeed": 12.8, "winddir": 187.2, "pressure": 1020.4, "cloudcover": 67.3, "visibility": 9.9, "solarradiation": 84.6, "solarenergy": 7.3, "uvindex": 4.0, "sunrise": "06:33:26", "sunriseEpoch": 1455971606, "sunset": "17:40:04", "sunsetEpoch": 1456011604, "moonphase": 0.47, "conditions": "Partially cloudy", "description": "Partly cloudy throughout the day.", "icon": "partly-cloudy-day", "stations": ["KSNH", "72323513896", "99999963894", "KMSL", "KCRX", "72092400311"], "source": "obs"}], "stations": {"KSNH": {"distance": 37725.0, "latitude": 35.15, "longitude": -88.22, "useCount": 0, "id": "KSNH", "name": "KSNH", "quality": 95, "contribution": 0.0}, "72323513896": {"distance": 54500.0, "latitude": 34.744, "longitude": -87.6, "useCount": 0, "id": "72323513896", "name": "MUSCLE SHOALS REGIONAL AIRPORT, AL US", "quality": 99, "contribution": 0.0}, "99999963894": {"distance": 50478.0, "latitude": 34.773, "longitude": -87.64, "useCount": 0, "id": "99999963894", "name": "MUSCLE SHOALS 2 N, AL US", "quality": 100, "contribution": 0.0}, "KMSL": {"distance": 52571.0, "latitude": 34.75, "longitude": -87.62, "useCount": 0, "id": "KMSL", "name": "KMSL", "quality": 99, "contribution": 0.0}, "KCRX": {"distance": 39331.0, "latitude": 34.92, "longitude": -88.6, "useCount": 0, "id": "KCRX", "name": "KCRX", "quality": 100, "contribution": 0.0}, "72092400311": {"distance": 39515.0, "latitude": 34.915, "longitude": -88.604, "useCount": 0, "id": "72092400311", "name": "ROSCOE TURNER AIRPORT, MS US", "quality": 100, "contribution": 0.0}}}