{"queryCost": 1, "latitude": 61.585, "longitude": -149.778, "resolvedAddress": "61.58500,-149.77800", "address": "61.58500,-149.77800", "timezone": "America/Anchorage", "tzoffset": -9.0, "days": [{"datetime": "2016-02-21", "datetimeEpoch": 1456045200, "tempmax": 39.6, "tempmin": 32.7, "temp": 35.8, "feelslikemax": 32.6, "feelslikemin": 22.3, "feelslike": 27.3, "dew": 30.1, "humidity": 80.4, "precip": 0.1, "precipprob": 100.0, "precipcover": 25.0, "preciptype": ["rain", "snow"], "snow": 0.0, "snowdepth": 0.0, "windgust": 32.2, "windspeed": 21.5, "winddir": 85.8, "pressure": null, "cloudcover": 78.2, "visibility": 9.2, "solarradiation": 59.5, "solarenergy": 5.1, "uvindex": 3.0, "sunrise": "08:25:56", "sunriseEpoch": 1456075556, "sunset": "18:00:41", "sunsetEpoch": 1456110041, "moonphase": 0.49, "conditions": "Snow, Rain, Partially cloudy", "description": "Partly cloudy throughout the day with rain or snow.", "icon": "rain", "stations": ["PABV", "70232526443", "70270000489", "PAWS", "PAFR"], "source": "obs"}], "stations": {"PABV": {"distance": 23238.0, "latitude": 61.42, "longitude": -149.51, "useCount": 0, "id": "PABV", "name": "BIRCHWOOD/BIRCHWOOD, AK", "quality": 100, "contribution": 0.0}, "PAWS": {"distance": 12720.0, "latitude": 61.57, "longitude": -149.54, "useCount": 0, "id": "PAWS", "name": "WASILLA, AK", "quality": 100, "contribution": 0.0}, "PAFR": {"distance": 35722.0, "latitude": 61.27, "longitude": -149.65, "useCount": 0, "id": "PAFR", "name": "PAFR", "quality": 100, "contribution": 0.0}, "70232526443": {"distance": 12641.0, "latitude": 61.572, "longitude": -149.541, "useCount": 0, "id": "70232526443", "name": "WASILLA AIRPORT, AK US", "quality": 100, "contribution": 0.0}, "70270000489": {"distance": 36151.0, "latitude": 61.266, "longitude": -149.653, "useCount": 0, "id": "70270000489", "name": "BRYANT ARMY AIRFIELD HELIPORT, AK US", "quality": 100, "contribution": 0.0}}}