{"queryCost": 1, "latitude": 32.367, "longitude": -86.3, "resolvedAddress": "32.36700,-86.30000", "address": "32.36700,-86.30000", "timezone": "America/Chicago", "tzoffset": -6.0, "days": [{"datetime": "2016-02-25", "datetimeEpoch": 1456380000, "tempmax": 59.5, "tempmin": 39.3, "temp": 49.0, "feelslikemax": 59.5, "feelslikemin": 34.9, "feelslike": 46.8, "dew": 32.1, "humidity": 54.7, "precip": 0.0, "precipprob": 0.0, "precipcover": 0.0, "preciptype": null, "snow": 0.0, "snowdepth": 0.0, "windgust": 24.9, "windspeed": 16.6, "winddir": 278.8, "pressure": 1019.8, "cloudcover": 22.5, "visibility": 9.9, "solarradiation": 230.0, "solarenergy": 19.9, "uvindex": 8.0, "sunrise": "06:17:49", "sunriseEpoch": 1456402669, "sunset": "17:39:13", "sunsetEpoch": 1456443553, "moonphase": 0.53, "conditions": "Partially cloudy", "description": "Partly cloudy throughout the day.", "icon": "partly-cloudy-day", "stations": ["KTOI", "KMXF", "72226513821", "72226013895", "KMGM", "K1A9"], "source": "obs"}], "stations": {"KTOI": {"distance": 61301.0, "latitude": 31.87, "longitude": -86.02, "useCount": 0, "id": "KTOI", "name": "KTOI", "quality": 99, "contribution": 0.0}, "KMXF": {"distance": 6738.0, "latitude": 32.38, "longitude": -86.37, "useCount": 0, "id": "KMXF", "name": "KMXF", "quality": 100, "contribution": 0.0}, "72226513821": {"distance": 5039.0, "latitude": 32.383, "longitude": -86.35, "useCount": 0, "id": "72226513821", "name": "MAXWELL AFB, AL US", "quality": 100, "contribution": 0.0}, "72226013895": {"distance": 12584.0, "latitude": 32.3, "longitude": -86.407, "useCount": 0, "id": "72226013895", "name": "MONTGOMERY AIRPORT, AL US", "quality": 100, "contribution": 0.0}, "KMGM": {"distance": 12726.0, "latitude": 32.29, "longitude": -86.4, "useCount": 0, "id": "KMGM", "name": "KMGM", "quality": 100, "contribution": 0.0}, "K1A9": {"distance": 20947.0, "latitude": 32.43, "longitude": -86.51, "useCount": 0, "id": "K1A9", "name": "K1A9", "quality": 98, "contribution": 0.0}}}