{"queryCost": 1, "latitude": 44.081, "longitude": -103.231, "resolvedAddress": "44.08100,-103.23100", "address": "44.08100,-103.23100", "timezone": "America/Denver", "tzoffset": -7.0, "days": [{"datetime": "2016-02-28", "datetimeEpoch": 1456642800, "tempmax": 55.5, "tempmin": 35.4, "temp": 44.4, "feelslikemax": 55.5, "feelslikemin": 25.6, "feelslike": 38.5, "dew": 27.8, "humidity": 55.3, "precip": 0.0, "precipprob": 0.0, "precipcover": 0.0, "preciptype": null, "snow": 0.8, "snowdepth": 0.2, "windgust": 51.9, "windspeed": 32.8, "winddir": 287.8, "pressure": 1011.6, "cloudcover": 14.9, "visibility": 9.9, "solarradiation": 182.4, "solarenergy": 15.7, "uvindex": 7.0, "sunrise": "06:32:14", "sunriseEpoch": 1456666334, "sunset": "17:39:26", "sunsetEpoch": 1456706366, "moonphase": 0.64, "conditions": "Clear", "description": "Clear conditions throughout the day.", "icon": "snow", "stations": ["KCUT", "KRAP", "KRCA", "72651494032", "72662524006", "72662024090"], "source": "obs"}], "stations": {"KCUT": {"distance": 50001.0, "latitude": 43.73, "longitude": -103.62, "useCount": 0, "id": "KCUT", "name": "KCUT", "quality": 100, "contribution": 0.0}, "KRAP": {"distance": 14107.0, "latitude": 44.05, "longitude": -103.06, "useCount": 0, "id": "KRAP", "name": "KRAP", "quality": 100, "contribution": 0.0}, "KRCA": {"distance": 12985.0, "latitude": 44.15, "longitude": -103.1, "useCount": 0, "id": "KRCA", "name": "KRCA", "quality": 100, "contribution": 0.0}, "72651494032": {"distance": 49282.0, "latitude": 43.733, "longitude": -103.611, "useCount": 0, "id": "72651494032", "name": "CUSTER CO AIRPORT, SD US", "quality": 100, "contribution": 0.0}, "72662524006": {"distance": 12985.0, "latitude": 44.15, "longitude": -103.1, "useCount": 0, "id": "72662524006", "name": "ELLSWORTH AFB, SD US", "quality": 100, "contribution": 0.0}, "72662024090": {"distance": 14691.0, "latitude": 44.046, "longitude": -103.054, "useCount": 0, "id": "72662024090", "name": "RAPID CITY REGIONAL AIRPORT, SD US", "quality": 100, "contribution": 0.0}}}