{"queryCost": 1, "latitude": 44.067, "longitude": -103.156, "resolvedAddress": "44.06700,-103.15600", "address": "44.06700,-103.15600", "timezone": "America/Denver", "tzoffset": -7.0, "days": [{"datetime": "2016-02-26", "datetimeEpoch": 1456470000, "tempmax": 61.3, "tempmin": 26.2, "temp": 42.9, "feelslikemax": 61.3, "feelslikemin": 18.6, "feelslike": 40.1, "dew": 18.4, "humidity": 40.9, "precip": 0.0, "precipprob": 0.0, "precipcover": 0.0, "preciptype": null, "snow": 0.0, "snowdepth": 0.0, "windgust": 27.7, "windspeed": 13.4, "winddir": 263.3, "pressure": 1020.1, "cloudcover": 0.4, "visibility": 9.3, "solarradiation": 188.9, "solarenergy": 16.3, "uvindex": 7.0, "sunrise": "06:35:15", "sunriseEpoch": 1456493715, "sunset": "17:36:30", "sunsetEpoch": 1456533390, "moonphase": 0.56, "conditions": "Clear", "description": "Clear conditions throughout the day.", "icon": "clear-day", "stations": ["KCUT", "KRAP", "KRCA", "72651494032", "72662524006", "72662024090"], "source": "obs"}], "stations": {"KCUT": {"distance": 52845.0, "latitude": 43.73, "longitude": -103.62, "useCount": 0, "id": "KCUT", "name": "KCUT", "quality": 100, "contribution": 0.0}, "KRAP": {"distance": 7909.0, "latitude": 44.05, "longitude": -103.06, "useCount": 0, "id": "KRAP", "name": "KRAP", "quality": 100, "contribution": 0.0}, "KRCA": {"distance": 10267.0, "latitude": 44.15, "longitude": -103.1, "useCount": 0, "id": "KRCA", "name": "KRCA", "quality": 100, "contribution": 0.0}, "72651494032": {"distance": 52092.0, "latitude": 43.733, "longitude": -103.611, "useCount": 0, "id": "72651494032", "name": "CUSTER CO AIRPORT, SD US", "quality": 100, "contribution": 0.0}, "72662524006": {"distance": 10267.0, "latitude": 44.15, "longitude": -103.1, "useCount": 0, "id": "72662524006", "name": "ELLSWORTH AFB, SD US", "quality": 100, "contribution": 0.0}, "72662024090": {"distance": 8494.0, "latitude": 44.046, "longitude": -103.054, "useCount": 0, "id": "72662024090", "name": "RAPID CITY REGIONAL AIRPORT, SD US", "quality": 100, "contribution": 0.0}}}