{"queryCost": 1, "latitude": 32.831, "longitude": -97.091, "resolvedAddress": "32.83100,-97.09100", "address": "32.83100,-97.09100", "timezone": "America/Chicago", "tzoffset": -6.0, "days": [{"datetime": "2016-03-01", "datetimeEpoch": 1456812000, "tempmax": 70.3, "tempmin": 52.3, "temp": 64.5, "feelslikemax": 70.3, "feelslikemin": 52.3, "feelslike": 64.5, "dew": 44.4, "humidity": 53.5, "precip": 0.0, "precipprob": 0.0, "precipcover": 0.0, "preciptype": null, "snow": 0.0, "snowdepth": 0.0, "windgust": 37.9, "windspeed": 24.9, "winddir": 138.1, "pressure": 1016.0, "cloudcover": 41.6, "visibility": 9.9, "solarradiation": 239.4, "solarenergy": 20.6, "uvindex": 8.0, "sunrise": "06:55:29", "sunriseEpoch": 1456836929, "sunset": "18:26:04", "sunsetEpoch": 1456878364, "moonphase": 0.73, "conditions": "Partially cloudy", "description": "Clearing in the afternoon.", "icon": "partly-cloudy-day", "stations": ["72247953907", "72259003927", "KDFW", "KGKY", "KGPM", "72258013960"], "source": "obs"}], "stations": {"72247953907": {"distance": 18637.0, "latitude": 32.664, "longitude": -97.094, "useCount": 0, "id": "72247953907", "name": "ARLINGTON MUNICIPAL AIRPORT, TX US", "quality": 100, "contribution": 0.0}, "72259003927": {"distance": 10037.0, "latitude": 32.898, "longitude": -97.019, "useCount": 0, "id": "72259003927", "name": "DAL FTW WSCMO AIRPORT, TX US", "quality": 100, "contribution": 0.0}, "KDFW": {"distance": 9567.0, "latitude": 32.9, "longitude": -97.03, "useCount": 0, "id": "KDFW", "name": "KDFW", "quality": 100, "contribution": 0.0}, "KGKY": {"distance": 20149.0, "latitude": 32.65, "longitude": -97.09, "useCount": 0, "id": "KGKY", "name": "KGKY", "quality": 100, "contribution": 0.0}, "KGPM": {"distance": 15079.0, "latitude": 32.7, "longitude": -97.05, "useCount": 0, "id": "KGPM", "name": "KGPM", "quality": 98, "contribution": 0.0}, "72258013960": {"distance": 22148.0, "latitude": 32.852, "longitude": -96.855, "useCount": 0, "id": "72258013960", "name": "DALLAS FAA AIRPORT, TX US", "quality": 100, "contribution": 0.0}}}