{"queryCost": 1, "latitude": 37.19, "longitude": -84.108, "resolvedAddress": "37.19000,-84.10800", "address": "37.19000,-84.10800", "timezone": "America/New_York", "tzoffset": -5.0, "days": [{"datetime": "2016-03-04", "datetimeEpoch": 1457067600, "tempmax": 40.0, "tempmin": 31.0, "temp": 36.2, "feelslikemax": 38.9, "feelslikemin": 28.1, "feelslike": 34.0, "dew": 33.2, "humidity": 88.7, "precip": 0.0, "precipprob": 0.0, "precipcover": 0.0, "preciptype": null, "snow": 0.0, "snowdepth": 0.0, "windgust": null, "windspeed": 8.7, "winddir": 215.1, "pressure": 1020.1, "cloudcover": 88.5, "visibility": 8.4, "solarradiation": 166.6, "solarenergy": 14.4, "uvindex": 6.0, "sunrise": "07:02:32", "sunriseEpoch": 1457092952, "sunset": "18:33:58", "sunsetEpoch": 1457134438, "moonphase": 0.88, "conditions": "Partially cloudy", "description": "Partly cloudy throughout the day.", "icon": "partly-cloudy-day", "stations": ["72046599999", "72424303849", "72435463815", "KSME", "K1A6", "KLOZ"], "source": "obs"}], "stations": {"72046599999": {"distance": 44178.0, "latitude": 36.8, "longitude": -84.2, "useCount": 0, "id": "72046599999", "name": "WILLIAMSBURG WHITLEY CO ARPT, KY US", "quality": 99, "contribution": 0.0}, "72424303849": {"distance": 11772.0, "latitude": 37.087, "longitude": -84.077, "useCount": 0, "id": "72424303849", "name": "LONDON CORBIN AIRPORT, KY US", "quality": 100, "contribution": 0.0}, "72435463815": {"distance": 47448.0, "latitude": 37.054, "longitude": -84.615, "useCount": 0, "id": "72435463815", "name": "SOMERSET PULASKI CO JT WILSON AIRPORT, KY US", "quality": 100, "contribution": 0.0}, "KSME": {"distance": 47588.0, "latitude": 37.04, "longitude": -84.61, "useCount": 0, "id": "KSME", "name": "KSME", "quality": 100, "contribution": 0.0}, "K1A6": {"distance": 72401.0, "latitude": 36.61, "longitude": -83.74, "useCount": 0, "id": "K1A6", "name": "K1A6", "quality": 99, "contribution": 0.0}, "KLOZ": {"distance": 12495.0, "latitude": 37.08, "longitude": -84.08, "useCount": 0, "id": "KLOZ", "name": "KLOZ", "quality": 100, "contribution": 0.0}}}