{"queryCost": 1, "latitude": 37.815, "longitude": -96.62, "resolvedAddress": "37.81500,-96.62000", "address": "37.81500,-96.62000", "timezone": "America/Chicago", "tzoffset": -6.0, "days": [{"datetime": "2016-03-11", "datetimeEpoch": 1457676000, "tempmax": 70.7, "tempmin": 40.0, "temp": 55.0, "feelslikemax": 70.7, "feelslikemin": 35.6, "feelslike": 53.9, "dew": 35.3, "humidity": 52.5, "precip": 0.0, "precipprob": 0.0, "precipcover": 0.0, "preciptype": null, "snow": 0.0, "snowdepth": 0.0, "windgust": 22.7, "windspeed": 16.3, "winddir": 111.6, "pressure": 1021.6, "cloudcover": 8.5, "visibility": 9.8, "solarradiation": 226.1, "solarenergy": 19.5, "uvindex": 8.0, "sunrise": "06:42:40", "sunriseEpoch": 1457700160, "sunset": "18:30:28", "sunsetEpoch": 1457742628, "moonphase": 0.04, "conditions": "Clear", "description": "Clear conditions throughout the day.", "icon": "clear-day", "stations": ["72450403974", "72450503923", "KAAO", "KIAB", "KEWK", "72450953939"], "source": "obs"}], "stations": {"72450403974": {"distance": 53440.0, "latitude": 37.746, "longitude": -97.221, "useCount": 0, "id": "72450403974", "name": "WICHITA COLONEL JAMES JABARA AIRPORT, KS US", "quality": 100, "contribution": 0.0}, "72450503923": {"distance": 61077.0, "latitude": 37.617, "longitude": -97.267, "useCount": 0, "id": "72450503923", "name": "WICHITA MCCONNELL AFB, KS US", "quality": 100, "contribution": 0.0}, "KAAO": {"distance": 53282.0, "latitude": 37.75, "longitude": -97.22, "useCount": 0, "id": "KAAO", "name": "KAAO", "quality": 98, "contribution": 0.0}, "KIAB": {"distance": 61623.0, "latitude": 37.61, "longitude": -97.27, "useCount": 0, "id": "KIAB", "name": "KIAB", "quality": 100, "contribution": 0.0}, "KEWK": {"distance": 63580.0, "latitude": 38.05, "longitude": -97.28, "useCount": 0, "id": "KEWK", "name": "NEWTON (AWOS), KS", "quality": 100, "contribution": 0.0}, "72450953939": {"distance": 63996.0, "latitude": 38.068, "longitude": -97.275, "useCount": 0, "id": "72450953939", "name": "NEWTON CITY CO AIRPORT, KS US", "quality": 100, "contribution": 0.0}}}