{"queryCost": 1, "latitude": 37.993, "longitude": -87.51, "resolvedAddress": "37.99300,-87.51000", "address": "37.99300,-87.51000", "timezone": "America/Chicago", "tzoffset": -5.0, "days": [{"datetime": "2016-03-15", "datetimeEpoch": 1458018000, "tempmax": 81.0, "tempmin": 50.1, "temp": 64.9, "feelslikemax": 80.9, "feelslikemin": 50.1, "feelslike": 64.8, "dew": 54.0, "humidity": 71.8, "precip": 0.0, "precipprob": 0.0, "precipcover": 0.0, "preciptype": null, "snow": 0.0, "snowdepth": 0.0, "windgust": 24.2, "windspeed": 18.3, "winddir": 116.4, "pressure": 1004.7, "cloudcover": 17.2, "visibility": 7.3, "solarradiation": 234.3, "solarenergy": 20.3, "uvindex": 8.0, "sunrise": "07:00:17", "sunriseEpoch": 1458043217, "sunset": "18:57:47", "sunsetEpoch": 1458086267, "moonphase": 0.24, "conditions": "Clear", "description": "Clear conditions throughout the day.", "icon": "clear-day", "stations": ["72423853886", "72432093817", "KEHR", "72423753803", "KEVV", "KOWB"], "source": "obs"}], "stations": {"72423853886": {"distance": 26331.0, "latitude": 37.8, "longitude": -87.683, "useCount": 0, "id": "72423853886", "name": "HENDERSON CITY CO AIRPORT, KY US", "quality": 100, "contribution": 0.0}, "72432093817": {"distance": 5762.0, "latitude": 38.044, "longitude": -87.52, "useCount": 0, "id": "72432093817", "name": "EVANSVILLE REGIONAL AIRPORT, IN US", "quality": 100, "contribution": 0.0}, "KEHR": {"distance": 24369.0, "latitude": 37.82, "longitude": -87.68, "useCount": 0, "id": "KEHR", "name": "HENDERSON CITY, KY", "quality": 100, "contribution": 0.0}, "72423753803": {"distance": 40519.0, "latitude": 37.75, "longitude": -87.167, "useCount": 0, "id": "72423753803", "name": "OWENSBORO DAVIESS CO REGIONAL AIRPORT, KY US", "quality": 100, "contribution": 0.0}, "KEVV": {"distance": 5518.0, "latitude": 38.04, "longitude": -87.53, "useCount": 0, "id": "KEVV", "name": "KEVV", "quality": 100, "contribution": 0.0}, "KOWB": {"distance": 41833.0, "latitude": 37.73, "longitude": -87.17, "useCount": 0, "id": "KOWB", "name": "OWENSBORO, KY", "quality": 100, "contribution": 0.0}}}