{"queryCost": 1, "latitude": 32.73, "longitude": -97.388, "resolvedAddress": "32.73000,-97.38800", "address": "32.73000,-97.38800", "timezone": "America/Chicago", "tzoffset": -5.0, "days": [{"datetime": "2016-03-15", "datetimeEpoch": 1458018000, "tempmax": 80.3, "tempmin": 61.7, "temp": 70.6, "feelslikemax": 79.8, "feelslikemin": 61.7, "feelslike": 70.5, "dew": 42.6, "humidity": 37.4, "precip": 0.0, "precipprob": 0.0, "precipcover": 0.0, "preciptype": null, "snow": 0.0, "snowdepth": 0.0, "windgust": 39.0, "windspeed": 18.5, "winddir": 248.5, "pressure": 1006.1, "cloudcover": 6.5, "visibility": 9.8, "solarradiation": 266.8, "solarenergy": 23.0, "uvindex": 9.0, "sunrise": "07:39:01", "sunriseEpoch": 1458045541, "sunset": "19:37:58", "sunsetEpoch": 1458088678, "moonphase": 0.24, "conditions": "Clear", "description": "Clear conditions throughout the day.", "icon": "clear-day", "stations": ["74739013961", "72259453909", "KAFW", "KNFW", "72259513911", "KFTW"], "source": "obs"}], "stations": {"74739013961": {"distance": 10237.0, "latitude": 32.819, "longitude": -97.361, "useCount": 0, "id": "74739013961", "name": "FORT WORTH MEACHAM FIELD, TX US", "quality": 100, "contribution": 0.0}, "72259453909": {"distance": 27862.0, "latitude": 32.973, "longitude": -97.318, "useCount": 0, "id": "72259453909", "name": "FORT WORTH ALLIANCE AIRPORT, TX US", "quality": 100, "contribution": 0.0}, "KAFW": {"distance": 27463.0, "latitude": 32.97, "longitude": -97.32, "useCount": 0, "id": "KAFW", "name": "KAFW", "quality": 100, "contribution": 0.0}, "KNFW": {"distance": 7316.0, "latitude": 32.77, "longitude": -97.45, "useCount": 0, "id": "KNFW", "name": "KNFW", "quality": 100, "contribution": 0.0}, "72259513911": {"distance": 7098.0, "latitude": 32.767, "longitude": -97.45, "useCount": 0, "id": "72259513911", "name": "FORT WORTH NAS, TX US", "quality": 100, "contribution": 0.0}, "KFTW": {"distance": 10159.0, "latitude": 32.82, "longitude": -97.37, "useCount": 0, "id": "KFTW", "name": "FT WORTH/MEACHAM, TX", "quality": 100, "contribution": 0.0}}}