{"queryCost": 1, "latitude": 40.145, "longitude": -88.956, "resolvedAddress": "40.14500,-88.95600", "address": "40.14500,-88.95600", "timezone": "America/Chicago", "tzoffset": -6.0, "days": [{"datetime": "2016-03-11", "datetimeEpoch": 1457676000, "tempmax": 60.9, "tempmin": 35.5, "temp": 46.5, "feelslikemax": 60.9, "feelslikemin": 30.8, "feelslike": 44.6, "dew": 39.7, "humidity": 79.4, "precip": 0.0, "precipprob": 0.0, "precipcover": 0.0, "preciptype": null, "snow": 0.0, "snowdepth": 0.0, "windgust": null, "windspeed": 13.5, "winddir": 69.4, "pressure": 1026.5, "cloudcover": 0.0, "visibility": 8.3, "solarradiation": 205.3, "solarenergy": 17.7, "uvindex": 8.0, "sunrise": "06:12:50", "sunriseEpoch": 1457698370, "sunset": "17:59:04", "sunsetEpoch": 1457740744, "moonphase": 0.04, "conditions": "Clear", "description": "Clear conditions throughout the day.", "icon": "clear-day", "stations": ["KBMI", "72439754831", "72531603887", "KDEC", "KAAA", "74467204862"], "source": "obs"}], "stations": {"KBMI": {"distance": 37417.0, "latitude": 40.48, "longitude": -88.92, "useCount": 0, "id": "KBMI", "name": "BLOOMINGTON/NRML, IL", "quality": 100, "contribution": 0.0}, "72439754831": {"distance": 37663.0, "latitude": 40.483, "longitude": -88.95, "useCount": 0, "id": "72439754831", "name": "BLOOMINGTON NORMAL AIRPORT, IL US", "quality": 100, "contribution": 0.0}, "72531603887": {"distance": 35425.0, "latitude": 39.834, "longitude": -88.866, "useCount": 0, "id": "72531603887", "name": "DECATUR AIRPORT, IL US", "quality": 100, "contribution": 0.0}, "KDEC": {"distance": 35825.0, "latitude": 39.83, "longitude": -88.87, "useCount": 0, "id": "KDEC", "name": "KDEC", "quality": 100, "contribution": 0.0}, "KAAA": {"distance": 31829.0, "latitude": 40.15, "longitude": -89.33, "useCount": 0, "id": "KAAA", "name": "KAAA", "quality": 100, "contribution": 0.0}, "74467204862": {"distance": 32256.0, "latitude": 40.158, "longitude": -89.335, "useCount": 0, "id": "74467204862", "name": "LINCOLN LOGAN CO AIRPORT, IL US", "quality": 100, "contribution": 0.0}}}