{"queryCost": 1, "latitude": 29.99, "longitude": -95.424, "resolvedAddress": "29.99000,-95.42400", "address": "29.99000,-95.42400", "timezone": "America/Chicago", "tzoffset": -5.0, "days": [{"datetime": "2016-03-17", "datetimeEpoch": 1458190800, "tempmax": 80.0, "tempmin": 64.3, "temp": 71.8, "feelslikemax": 82.4, "feelslikemin": 64.3, "feelslike": 71.9, "dew": 66.7, "humidity": 85.3, "precip": 0.0, "precipprob": 0.0, "precipcover": 0.0, "preciptype": null, "snow": 0.0, "snowdepth": 0.0, "windgust": null, "windspeed": 10.8, "winddir": 123.6, "pressure": 1011.5, "cloudcover": 92.0, "visibility": 6.9, "solarradiation": 156.1, "solarenergy": 13.6, "uvindex": 5.0, "sunrise": "07:28:23", "sunriseEpoch": 1458217703, "sunset": "19:31:41", "sunsetEpoch": 1458261101, "moonphase": 0.34, "conditions": "Overcast", "description": "Cloudy skies throughout the day.", "icon": "cloudy", "stations": ["72059400188", "72242953910", "KIAH", "KDWH", "KCXO", "72243012960"], "source": "obs"}], "stations": {"72059400188": {"distance": 30647.0, "latitude": 29.717, "longitude": -95.383, "useCount": 0, "id": "72059400188", "name": "HOUSTON DUNN HELISTOP, TX US", "quality": 100, "contribution": 0.0}, "72242953910": {"distance": 15379.0, "latitude": 30.068, "longitude": -95.556, "useCount": 0, "id": "72242953910", "name": "HOUSTON HOOKS MEMORIAL AIRPORT, TX US", "quality": 100, "contribution": 0.0}, "KIAH": {"distance": 7475.0, "latitude": 29.97, "longitude": -95.35, "useCount": 0, "id": "KIAH", "name": "KIAH", "quality": 100, "contribution": 0.0}, "KDWH": {"distance": 15059.0, "latitude": 30.07, "longitude": -95.55, "useCount": 0, "id": "KDWH", "name": "KDWH", "quality": 100, "contribution": 0.0}, "KCXO": {"distance": 40098.0, "latitude": 30.35, "longitude": -95.41, "useCount": 0, "id": "KCXO", "name": "KCXO", "quality": 100, "contribution": 0.0}, "72243012960": {"distance": 6270.0, "latitude": 29.98, "longitude": -95.36, "useCount": 0, "id": "72243012960", "name": "HOUSTON INTERCONTINENTAL AIRPORT, TX US", "quality": 100, "contribution": 0.0}}}