{"queryCost": 1, "latitude": 38.918, "longitude": -76.875, "resolvedAddress": "38.91800,-76.87500", "address": "38.91800,-76.87500", "timezone": "America/New_York", "tzoffset": -5.0, "days": [{"datetime": "2016-03-13", "datetimeEpoch": 1457845200, "tempmax": 59.1, "tempmin": 48.7, "temp": 53.4, "feelslikemax": 59.1, "feelslikemin": 43.9, "feelslike": 52.8, "dew": 47.3, "humidity": 80.1, "precip": 0.12, "precipprob": 100.0, "precipcover": 25.0, "preciptype": ["rain"], "snow": 0.0, "snowdepth": 0.0, "windgust": null, "windspeed": 15.0, "winddir": 66.2, "pressure": 1016.4, "cloudcover": 95.8, "visibility": 9.5, "solarradiation": 59.3, "solarenergy": 5.0, "uvindex": 2.0, "sunrise": "07:21:03", "sunriseEpoch": 1457868063, "sunset": "19:13:06", "sunsetEpoch": 1457910786, "moonphase": 0.13, "conditions": "Rain, Overcast", "description": "Cloudy skies throughout the day with rain.", "icon": "rain", "stations": ["KDCA", "72405013743", "72406093721", "KADW", "KBWI", "74594013705"], "source": "obs"}], "stations": {"KDCA": {"distance": 15417.0, "latitude": 38.85, "longitude": -77.03, "useCount": 0, "id": "KDCA", "name": "KDCA", "quality": 100, "contribution": 0.0}, "72405013743": {"distance": 15911.0, "latitude": 38.847, "longitude": -77.034, "useCount": 0, "id": "72405013743", "name": "WASHINGTON REAGAN NATIONAL AIRPORT, VA US", "quality": 100, "contribution": 0.0}, "72406093721": {"distance": 32869.0, "latitude": 39.173, "longitude": -76.684, "useCount": 0, "id": "72406093721", "name": "BALTIMORE WASHINGTON INTERNATIONAL AIRPORT, MD US", "quality": 100, "contribution": 0.0}, "KADW": {"distance": 10918.0, "latitude": 38.82, "longitude": -76.87, "useCount": 0, "id": "KADW", "name": "KADW", "quality": 100, "contribution": 0.0}, "KBWI": {"distance": 34128.0, "latitude": 39.18, "longitude": -76.67, "useCount": 0, "id": "KBWI", "name": "KBWI", "quality": 100, "contribution": 0.0}, "74594013705": {"distance": 11300.0, "latitude": 38.817, "longitude": -76.867, "useCount": 0, "id": "74594013705", "name": "CAMP SPRINGS ANDREWS AFB, MD US", "quality": 100, "contribution": 0.0}}}