{"queryCost": 1, "latitude": 37.291, "longitude": -77.289, "resolvedAddress": "37.29100,-77.28900", "address": "37.29100,-77.28900", "timezone": "America/New_York", "tzoffset": -4.0, "days": [{"datetime": "2016-03-20", "datetimeEpoch": 1458446400, "tempmax": 43.3, "tempmin": 38.0, "temp": 40.3, "feelslikemax": 38.1, "feelslikemin": 32.1, "feelslike": 34.8, "dew": 35.6, "humidity": 83.5, "precip": 0.01, "precipprob": 100.0, "precipcover": 4.17, "preciptype": ["rain"], "snow": 0.0, "snowdepth": 0.0, "windgust": 26.4, "windspeed": 10.2, "winddir": 70.7, "pressure": 1016.1, "cloudcover": 100.0, "visibility": 9.2, "solarradiation": 92.4, "solarenergy": 8.1, "uvindex": 3.0, "sunrise": "07:11:52", "sunriseEpoch": 1458472312, "sunset": "19:21:32", "sunsetEpoch": 1458516092, "moonphase": 0.46, "conditions": "Rain, Overcast", "description": "Cloudy skies throughout the day with late afternoon rain.", "icon": "rain", "stations": ["KPTB", "KRIC", "KFCI", "72401493714", "72401013740", "KW96"], "source": "obs"}], "stations": {"KPTB": {"distance": 23913.0, "latitude": 37.18, "longitude": -77.52, "useCount": 0, "id": "KPTB", "name": "KPTB", "quality": 99, "contribution": 0.0}, "KRIC": {"distance": 23547.0, "latitude": 37.5, "longitude": -77.33, "useCount": 0, "id": "KRIC", "name": "RICHMOND/BYRD FI, VA", "quality": 100, "contribution": 0.0}, "KFCI": {"distance": 24359.0, "latitude": 37.41, "longitude": -77.52, "useCount": 0, "id": "KFCI", "name": "RICHMOND, VA", "quality": 92, "contribution": 0.0}, "72401493714": {"distance": 22213.0, "latitude": 37.183, "longitude": -77.5, "useCount": 0, "id": "72401493714", "name": "PETERSBURG DINWIDDIE CO AIRPORT, VA US", "quality": 100, "contribution": 0.0}, "72401013740": {"distance": 24734.0, "latitude": 37.512, "longitude": -77.323, "useCount": 0, "id": "72401013740", "name": "RICHMOND INTERNATIONAL AIRPORT, VA US", "quality": 100, "contribution": 0.0}, "KW96": {"distance": 28141.0, "latitude": 37.5, "longitude": -77.11, "useCount": 0, "id": "KW96", "name": "KW96", "quality": 99, "contribution": 0.0}}}