{"queryCost": 1, "latitude": 36.927, "longitude": -76.191, "resolvedAddress": "36.92700,-76.19100", "address": "36.92700,-76.19100", "timezone": "America/New_York", "tzoffset": -4.0, "days": [{"datetime": "2016-03-19", "datetimeEpoch": 1458360000, "tempmax": 55.2, "tempmin": 43.2, "temp": 49.0, "feelslikemax": 55.2, "feelslikemin": 34.3, "feelslike": 45.1, "dew": 39.0, "humidity": 68.9, "precip": 0.06, "precipprob": 100.0, "precipcover": 20.83, "preciptype": ["rain"], "snow": 0.0, "snowdepth": 0.0, "windgust": 32.6, "windspeed": 21.7, "winddir": 86.9, "pressure": 1015.6, "cloudcover": 60.8, "visibility": 9.5, "solarradiation": 150.5, "solarenergy": 13.0, "uvindex": 6.0, "sunrise": "07:09:00", "sunriseEpoch": 1458385740, "sunset": "19:16:13", "sunsetEpoch": 1458429373, "moonphase": 0.43, "conditions": "Rain, Partially cloudy", "description": "Partly cloudy throughout the day with rain.", "icon": "rain", "stations": ["KNGU", "72307513769", "72308513750", "KNTU", "KORF", "72308013737"], "source": "obs"}], "stations": {"KNGU": {"distance": 7927.0, "latitude": 36.93, "longitude": -76.28, "useCount": 0, "id": "KNGU", "name": "KNGU", "quality": 100, "contribution": 0.0}, "72307513769": {"distance": 18654.0, "latitude": 36.817, "longitude": -76.033, "useCount": 0, "id": "72307513769", "name": "OCEANA NAS, VA US", "quality": 100, "contribution": 0.0}, "72308513750": {"distance": 8825.0, "latitude": 36.938, "longitude": -76.289, "useCount": 0, "id": "72308513750", "name": "NORFOLK NAS, VA US", "quality": 100, "contribution": 0.0}, "KNTU": {"distance": 18640.0, "latitude": 36.82, "longitude": -76.03, "useCount": 0, "id": "KNTU", "name": "KNTU", "quality": 100, "contribution": 0.0}, "KORF": {"distance": 3111.0, "latitude": 36.9, "longitude": -76.2, "useCount": 0, "id": "KORF", "name": "KORF", "quality": 100, "contribution": 0.0}, "72308013737": {"distance": 2640.0, "latitude": 36.903, "longitude": -76.192, "useCount": 0, "id": "72308013737", "name": "NORFOLK INTERNATIONAL AIRPORT, VA US", "quality": 100, "contribution": 0.0}}}