{"queryCost": 1, "latitude": 25.597, "longitude": -80.422, "resolvedAddress": "25.59700,-80.42200", "address": "25.59700,-80.42200", "timezone": "America/New_York", "tzoffset": -4.0, "days": [{"datetime": "2016-03-22", "datetimeEpoch": 1458619200, "tempmax": 73.9, "tempmin": 54.5, "temp": 64.9, "feelslikemax": 73.9, "feelslikemin": 54.5, "feelslike": 64.9, "dew": 48.0, "humidity": 54.8, "precip": 0.0, "precipprob": 0.0, "precipcover": 0.0, "preciptype": null, "snow": 0.0, "snowdepth": 0.0, "windgust": 27.9, "windspeed": 20.3, "winddir": 143.2, "pressure": 1024.7, "cloudcover": 40.8, "visibility": 9.9, "solarradiation": 269.4, "solarenergy": 23.2, "uvindex": 10.0, "sunrise": "07:22:54", "sunriseEpoch": 1458645774, "sunset": "19:34:08", "sunsetEpoch": 1458689648, "moonphase": 0.5, "conditions": "Partially cloudy", "description": "Becoming cloudy in the afternoon.", "icon": "partly-cloudy-day", "stations": ["72202912888", "72202612826", "KMIA", "72202012839", "KTMB", "KHST"], "source": "obs"}], "stations": {"72202912888": {"distance": 5731.0, "latitude": 25.648, "longitude": -80.433, "useCount": 0, "id": "72202912888", "name": "MIAMI KENDALL TAMIAMI EXEC AIRPORT, FL US", "quality": 98, "contribution": 0.0}, "72202612826": {"distance": 13240.0, "latitude": 25.483, "longitude": -80.383, "useCount": 0, "id": "72202612826", "name": "HOMESTEAD AFB, FL US", "quality": 100, "contribution": 0.0}, "KMIA": {"distance": 25237.0, "latitude": 25.79, "longitude": -80.29, "useCount": 0, "id": "KMIA", "name": "KMIA", "quality": 100, "contribution": 0.0}, "72202012839": {"distance": 23742.0, "latitude": 25.788, "longitude": -80.317, "useCount": 0, "id": "72202012839", "name": "MIAMI INTERNATIONAL AIRPORT, FL US", "quality": 100, "contribution": 0.0}, "KTMB": {"distance": 5954.0, "latitude": 25.65, "longitude": -80.43, "useCount": 0, "id": "KTMB", "name": "KTMB", "quality": 99, "contribution": 0.0}, "KHST": {"distance": 13691.0, "latitude": 25.48, "longitude": -80.38, "useCount": 0, "id": "KHST", "name": "KHST", "quality": 100, "contribution": 0.0}}}