{"queryCost": 1, "latitude": 36.77, "longitude": -119.791, "resolvedAddress": "36.77000,-119.79100", "address": "36.77000,-119.79100", "timezone": "America/Los_Angeles", "tzoffset": -7.0, "days": [{"datetime": "2016-03-23", "datetimeEpoch": 1458716400, "tempmax": 66.0, "tempmin": 42.9, "temp": 54.7, "feelslikemax": 66.0, "feelslikemin": 41.8, "feelslike": 54.0, "dew": 41.7, "humidity": 63.5, "precip": 0.0, "precipprob": 0.0, "precipcover": 0.0, "preciptype": null, "snow": 0.0, "snowdepth": 0.0, "windgust": 17.2, "windspeed": 11.3, "winddir": 204.2, "pressure": 1024.4, "cloudcover": 51.5, "visibility": 9.9, "solarradiation": 272.8, "solarenergy": 23.6, "uvindex": 9.0, "sunrise": "06:57:18", "sunriseEpoch": 1458741438, "sunset": "19:14:15", "sunsetEpoch": 1458785655, "moonphase": 0.5, "conditions": "Partially cloudy", "description": "Partly cloudy throughout the day.", "icon": "partly-cloudy-day", "stations": ["KMAE", "74504693242", "74702023110", "KNLC", "KFAT", "72389093193"], "source": "obs"}], "stations": {"KMAE": {"distance": 37505.0, "latitude": 36.99, "longitude": -120.11, "useCount": 0, "id": "KMAE", "name": "KMAE", "quality": 100, "contribution": 0.0}, "74504693242": {"distance": 37413.0, "latitude": 36.988, "longitude": -120.111, "useCount": 0, "id": "74504693242", "name": "MADERA MUNICIPAL AIRPORT, CA US", "quality": 100, "contribution": 0.0}, "74702023110": {"distance": 50650.0, "latitude": 36.333, "longitude": -119.95, "useCount": 0, "id": "74702023110", "name": "LEMOORE REEVES NAS, CA US", "quality": 99, "contribution": 0.0}, "KNLC": {"distance": 51003.0, "latitude": 36.33, "longitude": -119.95, "useCount": 0, "id": "KNLC", "name": "KNLC", "quality": 99, "contribution": 0.0}, "KFAT": {"distance": 6331.0, "latitude": 36.77, "longitude": -119.72, "useCount": 0, "id": "KFAT", "name": "KFAT", "quality": 100, "contribution": 0.0}, "72389093193": {"distance": 6516.0, "latitude": 36.78, "longitude": -119.719, "useCount": 0, "id": "72389093193", "name": "FRESNO YOSEMITE INTERNATIONAL, CA US", "quality": 100, "contribution": 0.0}}}