{"queryCost": 1, "latitude": 37.316, "longitude": -121.876, "resolvedAddress": "37.31600,-121.87600", "address": "37.31600,-121.87600", "timezone": "America/Los_Angeles", "tzoffset": -8.0, "days": [{"datetime": "2015-02-11", "datetimeEpoch": 1423641600, "tempmax": 68.1, "tempmin": 41.1, "temp": 54.9, "feelslikemax": 68.1, "feelslikemin": 39.2, "feelslike": 54.7, "dew": 45.2, "humidity": 71.4, "precip": 0.0, "precipprob": 0.0, "precipcover": 0.0, "preciptype": null, "snow": 0.0, "snowdepth": 0.0, "windgust": null, "windspeed": 6.9, "winddir": 146.7, "pressure": 1020.5, "cloudcover": 60.4, "visibility": 9.7, "solarradiation": 178.0, "solarenergy": 15.3, "uvindex": 7.0, "sunrise": "07:01:09", "sunriseEpoch": 1423666869, "sunset": "17:42:50", "sunsetEpoch": 1423705370, "moonphase": 0.72, "conditions": "Partially cloudy", "description": "Partly cloudy throughout the day.", "icon": "partly-cloudy-day", "stations": ["KSJC", "74505823277", "KLVK", "72492723285", "72494523293", "KWVI"], "source": "obs"}], "stations": {"KSJC": {"distance": 6258.0, "latitude": 37.36, "longitude": -121.92, "useCount": 0, "id": "KSJC", "name": "KSJC", "quality": 100, "contribution": 0.0}, "74505823277": {"distance": 43022.0, "latitude": 36.936, "longitude": -121.789, "useCount": 0, "id": "74505823277", "name": "WATSONVILLE MUNICIPAL AIRPORT, CA US", "quality": 99, "contribution": 0.0}, "KLVK": {"distance": 43032.0, "latitude": 37.7, "longitude": -121.82, "useCount": 0, "id": "KLVK", "name": "LIVERMORE, CA", "quality": 100, "contribution": 0.0}, "72492723285": {"distance": 42290.0, "latitude": 37.693, "longitude": -121.814, "useCount": 0, "id": "72492723285", "name": "LIVERMORE MUNICIPAL AIRPORT, CA US", "quality": 100, "contribution": 0.0}, "72494523293": {"distance": 6408.0, "latitude": 37.359, "longitude": -121.924, "useCount": 0, "id": "72494523293", "name": "SAN JOSE, CA US", "quality": 100, "contribution": 0.0}, "KWVI": {"distance": 42546.0, "latitude": 36.94, "longitude": -121.79, "useCount": 0, "id": "KWVI", "name": "KWVI", "quality": 100, "contribution": 0.0}}}