{"queryCost": 1, "latitude": 32.864, "longitude": -85.724, "resolvedAddress": "32.86400,-85.72400", "address": "32.86400,-85.72400", "timezone": "America/Chicago", "tzoffset": -6.0, "days": [{"datetime": "2015-02-11", "datetimeEpoch": 1423634400, "tempmax": 65.2, "tempmin": 29.5, "temp": 44.7, "feelslikemax": 65.2, "feelslikemin": 29.5, "feelslike": 44.6, "dew": 29.0, "humidity": 60.0, "precip": 0.0, "precipprob": 0.0, "precipcover": 0.0, "preciptype": null, "snow": 0.0, "snowdepth": 0.0, "windgust": null, "windspeed": 7.0, "winddir": 240.8, "pressure": null, "cloudcover": 0.1, "visibility": 9.0, "solarradiation": 197.9, "solarenergy": 17.1, "uvindex": 7.0, "sunrise": "06:30:09", "sunriseEpoch": 1423657809, "sunset": "17:24:33", "sunsetEpoch": 1423697073, "moonphase": 0.72, "conditions": "Clear", "description": "Clear conditions throughout the day.", "icon": "clear-day", "stations": ["KALX", "72026563833", "KAUO", "72050899999", "72228403892"], "source": "obs"}], "stations": {"KALX": {"distance": 22423.0, "latitude": 32.9, "longitude": -85.96, "useCount": 0, "id": "KALX", "name": "KALX", "quality": 100, "contribution": 0.0}, "72026563833": {"distance": 23025.0, "latitude": 32.915, "longitude": -85.963, "useCount": 0, "id": "72026563833", "name": "ALEXANDER CITY THOMAS C RUSSELL FIELD AIRPORT, AL US", "quality": 100, "contribution": 0.0}, "KAUO": {"distance": 38672.0, "latitude": 32.62, "longitude": -85.43, "useCount": 0, "id": "KAUO", "name": "AUBURN-OPELIKA A, AL", "quality": 100, "contribution": 0.0}, "72050899999": {"distance": 64188.0, "latitude": 33.172, "longitude": -86.305, "useCount": 0, "id": "72050899999", "name": "MERKEL FIELD SYLACAUGA MUNICIPAL, AL US", "quality": 97, "contribution": 0.0}, "72228403892": {"distance": 38761.0, "latitude": 32.616, "longitude": -85.433, "useCount": 0, "id": "72228403892", "name": "AUBURN OPELIKA AIRPORT, AL US", "quality": 99, "contribution": 0.0}}}