{"queryCost": 1, "latitude": 39.309, "longitude": -76.61, "resolvedAddress": "39.30900,-76.61000", "address": "39.30900,-76.61000", "timezone": "America/New_York", "tzoffset": -4.0, "days": [{"datetime": "2016-03-31", "datetimeEpoch": 1459396800, "tempmax": 74.7, "tempmin": 51.2, "temp": 63.7, "feelslikemax": 74.7, "feelslikemin": 51.2, "feelslike": 63.7, "dew": 46.1, "humidity": 53.9, "precip": 0.0, "precipprob": 0.0, "precipcover": 0.0, "preciptype": null, "snow": 0.0, "snowdepth": 0.0, "windgust": 34.4, "windspeed": 18.3, "winddir": 182.1, "pressure": 1014.1, "cloudcover": 7.2, "visibility": 9.9, "solarradiation": 202.8, "solarenergy": 17.5, "uvindex": 7.0, "sunrise": "06:51:33", "sunriseEpoch": 1459421493, "sunset": "19:29:53", "sunsetEpoch": 1459466993, "moonphase": 0.75, "conditions": "Clear", "description": "Clear conditions throughout the day.", "icon": "clear-day", "stations": ["99999913752", "72406093721", "KDMH", "KBWI", "74594493784", "KMTN"], "source": "obs"}], "stations": {"99999913752": {"distance": 36874.0, "latitude": 38.991, "longitude": -76.489, "useCount": 0, "id": "99999913752", "name": "ANNAPOLIS UNITED STATES NAVAL ACADEMY ASOS, MD US", "quality": 100, "contribution": 0.0}, "72406093721": {"distance": 16398.0, "latitude": 39.173, "longitude": -76.684, "useCount": 0, "id": "72406093721", "name": "BALTIMORE WASHINGTON INTERNATIONAL AIRPORT, MD US", "quality": 100, "contribution": 0.0}, "KDMH": {"distance": 3341.0, "latitude": 39.28, "longitude": -76.62, "useCount": 0, "id": "KDMH", "name": "KDMH", "quality": 71, "contribution": 0.0}, "KBWI": {"distance": 15263.0, "latitude": 39.18, "longitude": -76.67, "useCount": 0, "id": "KBWI", "name": "KBWI", "quality": 100, "contribution": 0.0}, "74594493784": {"distance": 3074.0, "latitude": 39.281, "longitude": -76.611, "useCount": 0, "id": "74594493784", "name": "MARYLAND SCIENCE CENTER, MD US", "quality": 71, "contribution": 0.0}, "KMTN": {"distance": 16529.0, "latitude": 39.33, "longitude": -76.42, "useCount": 0, "id": "KMTN", "name": "KMTN", "quality": 88, "contribution": 0.0}}}