{"queryCost": 1, "latitude": 44.824, "longitude": -91.546, "resolvedAddress": "44.82400,-91.54600", "address": "44.82400,-91.54600", "timezone": "America/Chicago", "tzoffset": -5.0, "days": [{"datetime": "2016-04-03", "datetimeEpoch": 1459659600, "tempmax": 55.5, "tempmin": 29.1, "temp": 39.3, "feelslikemax": 55.5, "feelslikemin": 21.3, "feelslike": 34.2, "dew": 20.9, "humidity": 47.8, "precip": 0.0, "precipprob": 0.0, "precipcover": 0.0, "preciptype": null, "snow": 0.0, "snowdepth": 0.1, "windgust": 26.2, "windspeed": 15.1, "winddir": 114.6, "pressure": 1006.9, "cloudcover": 52.5, "visibility": 9.9, "solarradiation": 232.2, "solarenergy": 19.9, "uvindex": 8.0, "sunrise": "06:42:12", "sunriseEpoch": 1459683732, "sunset": "19:37:06", "sunsetEpoch": 1459730226, "moonphase": 0.9, "conditions": "Partially cloudy", "description": "Partly cloudy throughout the day.", "icon": "partly-cloudy-day", "stations": ["72643514991", "72032704995", "KLUM", "KY23", "72646754909", "KEAU"], "source": "obs"}], "stations": {"72643514991": {"distance": 6589.0, "latitude": 44.867, "longitude": -91.488, "useCount": 0, "id": "72643514991", "name": "CHIPPEWA VALLEY REGIONAL AIRPORT, WI US", "quality": 100, "contribution": 0.0}, "72032704995": {"distance": 26504.0, "latitude": 44.892, "longitude": -91.868, "useCount": 0, "id": "72032704995", "name": "MENOMONIE MUNICIPAL AIRPORT SCORE FIELD, WI US", "quality": 100, "contribution": 0.0}, "KLUM": {"distance": 26602.0, "latitude": 44.89, "longitude": -91.87, "useCount": 0, "id": "KLUM", "name": "KLUM", "quality": 99, "contribution": 0.0}, "KY23": {"distance": 53398.0, "latitude": 45.3, "longitude": -91.63, "useCount": 0, "id": "KY23", "name": "KY23", "quality": 99, "contribution": 0.0}, "72646754909": {"distance": 68556.0, "latitude": 45.419, "longitude": -91.773, "useCount": 0, "id": "72646754909", "name": "RICE LAKE REGIONAL AIRPORT CARLS FIELD, WI US", "quality": 100, "contribution": 0.0}, "KEAU": {"distance": 7304.0, "latitude": 44.87, "longitude": -91.48, "useCount": 0, "id": "KEAU", "name": "KEAU", "quality": 100, "contribution": 0.0}}}