{"queryCost": 1, "latitude": 34.308, "longitude": -118.453, "resolvedAddress": "34.30800,-118.45300", "address": "34.30800,-118.45300", "timezone": "America/Los_Angeles", "tzoffset": -7.0, "days": [{"datetime": "2016-04-06", "datetimeEpoch": 1459926000, "tempmax": 91.4, "tempmin": 58.1, "temp": 70.7, "feelslikemax": 87.1, "feelslikemin": 58.1, "feelslike": 69.8, "dew": 45.3, "humidity": 45.5, "precip": 0.0, "precipprob": 0.0, "precipcover": 0.0, "preciptype": null, "snow": 0.0, "snowdepth": 0.0, "windgust": 23.0, "windspeed": 14.6, "winddir": 117.7, "pressure": 1016.9, "cloudcover": 3.8, "visibility": 9.8, "solarradiation": 233.4, "solarenergy": 20.2, "uvindex": 8.0, "sunrise": "06:33:23", "sunriseEpoch": 1459949603, "sunset": "19:19:08", "sunsetEpoch": 1459995548, "moonphase": 1.0, "conditions": "Clear", "description": "Clear conditions throughout the day.", "icon": "clear-day", "stations": ["KVNY", "72288593197", "KBUR", "KSMO", "72288623130", "72288023152"], "source": "obs"}], "stations": {"KVNY": {"distance": 10106.0, "latitude": 34.22, "longitude": -118.48, "useCount": 0, "id": "KVNY", "name": "KVNY", "quality": 100, "contribution": 0.0}, "72288593197": {"distance": 32528.0, "latitude": 34.016, "longitude": -118.451, "useCount": 0, "id": "72288593197", "name": "SANTA MONICA MUNICIPAL AIRPORT, CA US", "quality": 100, "contribution": 0.0}, "KBUR": {"distance": 15309.0, "latitude": 34.2, "longitude": -118.35, "useCount": 0, "id": "KBUR", "name": "KBUR", "quality": 100, "contribution": 0.0}, "KSMO": {"distance": 32061.0, "latitude": 34.02, "longitude": -118.45, "useCount": 0, "id": "KSMO", "name": "KSMO", "quality": 97, "contribution": 0.0}, "72288623130": {"distance": 11433.0, "latitude": 34.21, "longitude": -118.489, "useCount": 0, "id": "72288623130", "name": "VAN NUYS AIRPORT, CA US", "quality": 100, "contribution": 0.0}, "72288023152": {"distance": 14865.0, "latitude": 34.201, "longitude": -118.357, "useCount": 0, "id": "72288023152", "name": "BURBANK GLENDALE PASADENA AIRPORT, CA US", "quality": 100, "contribution": 0.0}}}