{"queryCost": 1, "latitude": 42.776, "longitude": -73.936, "resolvedAddress": "42.77600,-73.93600", "address": "42.77600,-73.93600", "timezone": "America/New_York", "tzoffset": -4.0, "days": [{"datetime": "2016-04-10", "datetimeEpoch": 1460260800, "tempmax": 46.0, "tempmin": 24.2, "temp": 35.8, "feelslikemax": 44.8, "feelslikemin": 15.6, "feelslike": 30.0, "dew": 13.4, "humidity": 41.3, "precip": 0.0, "precipprob": 0.0, "precipcover": 0.0, "preciptype": null, "snow": 0.0, "snowdepth": 0.0, "windgust": 21.9, "windspeed": 17.7, "winddir": 250.0, "pressure": 1023.5, "cloudcover": 56.9, "visibility": 9.9, "solarradiation": 239.4, "solarenergy": 20.7, "uvindex": 8.0, "sunrise": "06:21:38", "sunriseEpoch": 1460283698, "sunset": "19:32:52", "sunsetEpoch": 1460331172, "moonphase": 0.07, "conditions": "Partially cloudy", "description": "Becoming cloudy in the afternoon.", "icon": "partly-cloudy-day", "stations": ["72616654781", "72518014735", "KDDH", "72507554768", "KALB", "KAQW"], "source": "obs"}], "stations": {"72616654781": {"distance": 57602.0, "latitude": 42.894, "longitude": -73.249, "useCount": 0, "id": "72616654781", "name": "BENNINGTON MORSE STATE AIRPORT, VT US", "quality": 100, "contribution": 0.0}, "72518014735": {"distance": 11639.0, "latitude": 42.747, "longitude": -73.799, "useCount": 0, "id": "72518014735", "name": "ALBANY INTERNATIONAL AIRPORT, NY US", "quality": 100, "contribution": 0.0}, "KDDH": {"distance": 57421.0, "latitude": 42.89, "longitude": -73.25, "useCount": 0, "id": "KDDH", "name": "KDDH", "quality": 100, "contribution": 0.0}, "72507554768": {"distance": 63264.0, "latitude": 42.697, "longitude": -73.17, "useCount": 0, "id": "72507554768", "name": "NORTH ADAMS HARRIMAN AIRPORT, MA US", "quality": 100, "contribution": 0.0}, "KALB": {"distance": 11486.0, "latitude": 42.75, "longitude": -73.8, "useCount": 0, "id": "KALB", "name": "KALB", "quality": 100, "contribution": 0.0}, "KAQW": {"distance": 63197.0, "latitude": 42.7, "longitude": -73.17, "useCount": 0, "id": "KAQW", "name": "KAQW", "quality": 100, "contribution": 0.0}}}