{"queryCost": 1, "latitude": 39.071, "longitude": -94.64, "resolvedAddress": "39.07100,-94.64000", "address": "39.07100,-94.64000", "timezone": "America/Chicago", "tzoffset": -6.0, "days": [{"datetime": "2015-02-13", "datetimeEpoch": 1423807200, "tempmax": 46.8, "tempmin": 22.7, "temp": 33.7, "feelslikemax": 42.7, "feelslikemin": 15.1, "feelslike": 28.9, "dew": 15.5, "humidity": 48.3, "precip": 0.0, "precipprob": 0.0, "precipcover": 0.0, "preciptype": null, "snow": 0.0, "snowdepth": 0.0, "windgust": null, "windspeed": 10.3, "winddir": 231.2, "pressure": 1023.8, "cloudcover": 22.5, "visibility": 9.9, "solarradiation": 128.8, "solarenergy": 11.2, "uvindex": 5.0, "sunrise": "07:12:43", "sunriseEpoch": 1423833163, "sunset": "17:53:21", "sunsetEpoch": 1423871601, "moonphase": 0.82, "conditions": "Partially cloudy", "description": "Partly cloudy throughout the day.", "icon": "partly-cloudy-day", "stations": ["72446803967", "72030653879", "72446003947", "KMKC", "KOJC", "72446313988"], "source": "obs"}], "stations": {"72446803967": {"distance": 26057.0, "latitude": 38.85, "longitude": -94.739, "useCount": 0, "id": "72446803967", "name": "OLATHE JOHNSON CO EXECUTIVE AIRPORT, KS US", "quality": 100, "contribution": 0.0}, "72030653879": {"distance": 26329.0, "latitude": 38.96, "longitude": -94.371, "useCount": 0, "id": "72030653879", "name": "LEES SUMMIT MUNICIPAL AIRPORT, MO US", "quality": 100, "contribution": 0.0}, "72446003947": {"distance": 26366.0, "latitude": 39.297, "longitude": -94.731, "useCount": 0, "id": "72446003947", "name": "KANSAS CITY INTERNATIONAL AIRPORT, MO US", "quality": 100, "contribution": 0.0}, "KMKC": {"distance": 5549.0, "latitude": 39.11, "longitude": -94.6, "useCount": 0, "id": "KMKC", "name": "KMKC", "quality": 100, "contribution": 0.0}, "KOJC": {"distance": 25806.0, "latitude": 38.85, "longitude": -94.73, "useCount": 0, "id": "KOJC", "name": "KOJC", "quality": 100, "contribution": 0.0}, "72446313988": {"distance": 6678.0, "latitude": 39.121, "longitude": -94.597, "useCount": 0, "id": "72446313988", "name": "KANSAS CITY DOWNTOWN AIRPORT, MO US", "quality": 100, "contribution": 0.0}}}