{"queryCost": 1, "latitude": 38.377, "longitude": -97.574, "resolvedAddress": "38.37700,-97.57400", "address": "38.37700,-97.57400", "timezone": "America/Chicago", "tzoffset": -5.0, "days": [{"datetime": "2016-04-14", "datetimeEpoch": 1460610000, "tempmax": 73.4, "tempmin": 42.3, "temp": 57.9, "feelslikemax": 73.4, "feelslikemin": 38.8, "feelslike": 56.7, "dew": 45.7, "humidity": 67.6, "precip": 0.0, "precipprob": 0.0, "precipcover": 0.0, "preciptype": null, "snow": 0.0, "snowdepth": 0.0, "windgust": 25.9, "windspeed": 16.8, "winddir": 160.0, "pressure": 1015.3, "cloudcover": 12.1, "visibility": 8.0, "solarradiation": 291.6, "solarenergy": 25.1, "uvindex": 9.0, "sunrise": "06:55:02", "sunriseEpoch": 1460634902, "sunset": "20:06:24", "sunsetEpoch": 1460682384, "moonphase": 0.27, "conditions": "Clear", "description": "Clear conditions throughout the day.", "icon": "clear-day", "stations": ["72450613986", "KSLN", "72458603919", "KEWK", "72450953939", "KHUT"], "source": "obs"}], "stations": {"72450613986": {"distance": 42804.0, "latitude": 38.065, "longitude": -97.861, "useCount": 0, "id": "72450613986", "name": "HUTCHINSON MUNICIPAL AIRPORT, KS US", "quality": 100, "contribution": 0.0}, "KSLN": {"distance": 47550.0, "latitude": 38.8, "longitude": -97.65, "useCount": 0, "id": "KSLN", "name": "SALINA, KS", "quality": 100, "contribution": 0.0}, "72458603919": {"distance": 47550.0, "latitude": 38.8, "longitude": -97.65, "useCount": 0, "id": "72458603919", "name": "SALINA MUNICIPAL AIRPORT, KS US", "quality": 100, "contribution": 0.0}, "KEWK": {"distance": 44568.0, "latitude": 38.05, "longitude": -97.28, "useCount": 0, "id": "KEWK", "name": "NEWTON (AWOS), KS", "quality": 100, "contribution": 0.0}, "72450953939": {"distance": 43242.0, "latitude": 38.068, "longitude": -97.275, "useCount": 0, "id": "72450953939", "name": "NEWTON CITY CO AIRPORT, KS US", "quality": 100, "contribution": 0.0}, "KHUT": {"distance": 42872.0, "latitude": 38.07, "longitude": -97.87, "useCount": 0, "id": "KHUT", "name": "KHUT", "quality": 100, "contribution": 0.0}}}