{"queryCost": 1, "latitude": 34.604, "longitude": -98.603, "resolvedAddress": "34.60400,-98.60300", "address": "34.60400,-98.60300", "timezone": "America/Chicago", "tzoffset": -5.0, "days": [{"datetime": "2016-04-15", "datetimeEpoch": 1460696400, "tempmax": 74.1, "tempmin": 48.9, "temp": 61.5, "feelslikemax": 74.1, "feelslikemin": 48.9, "feelslike": 61.5, "dew": 54.8, "humidity": 80.6, "precip": 0.0, "precipprob": 0.0, "precipcover": 0.0, "preciptype": null, "snow": 0.0, "snowdepth": 0.0, "windgust": 30.0, "windspeed": 21.5, "winddir": 134.0, "pressure": 1010.7, "cloudcover": 30.6, "visibility": 8.4, "solarradiation": 292.5, "solarenergy": 25.3, "uvindex": 10.0, "sunrise": "07:02:06", "sunriseEpoch": 1460721726, "sunset": "20:06:59", "sunsetEpoch": 1460768819, "moonphase": 0.32, "conditions": "Partially cloudy", "description": "Partly cloudy throughout the day.", "icon": "partly-cloudy-day", "stations": ["KFSI", "72352803981", "KLAW", "72357503950", "72355013945", "KFDR"], "source": "obs"}], "stations": {"KFSI": {"distance": 19287.0, "latitude": 34.65, "longitude": -98.4, "useCount": 0, "id": "KFSI", "name": "KFSI", "quality": 100, "contribution": 0.0}, "72352803981": {"distance": 45297.0, "latitude": 34.344, "longitude": -98.983, "useCount": 0, "id": "72352803981", "name": "FREDERICK MUNICIPAL AIRPORT, OK US", "quality": 99, "contribution": 0.0}, "KLAW": {"distance": 17193.0, "latitude": 34.57, "longitude": -98.42, "useCount": 0, "id": "KLAW", "name": "KLAW", "quality": 100, "contribution": 0.0}, "72357503950": {"distance": 17769.0, "latitude": 34.558, "longitude": -98.417, "useCount": 0, "id": "72357503950", "name": "LAWTON MUNICIPAL AIRPORT, OK US", "quality": 100, "contribution": 0.0}, "72355013945": {"distance": 19287.0, "latitude": 34.65, "longitude": -98.4, "useCount": 0, "id": "72355013945", "name": "FORT SILL POST FIELD AF, OK US", "quality": 97, "contribution": 0.0}, "KFDR": {"distance": 44681.0, "latitude": 34.35, "longitude": -98.98, "useCount": 0, "id": "KFDR", "name": "KFDR", "quality": 99, "contribution": 0.0}}}