{"queryCost": 1, "latitude": 40.329, "longitude": -75.908, "resolvedAddress": "40.32900,-75.90800", "address": "40.32900,-75.90800", "timezone": "America/New_York", "tzoffset": -5.0, "days": [{"datetime": "2015-02-13", "datetimeEpoch": 1423803600, "tempmax": 20.1, "tempmin": 6.2, "temp": 13.3, "feelslikemax": 17.9, "feelslikemin": -11.8, "feelslike": 0.4, "dew": -3.6, "humidity": 46.5, "precip": 0.0, "precipprob": 0.0, "precipcover": 0.0, "preciptype": null, "snow": 0.0, "snowdepth": 2.4, "windgust": 33.0, "windspeed": 24.0, "winddir": 288.3, "pressure": 1022.5, "cloudcover": 4.6, "visibility": 9.9, "solarradiation": 178.3, "solarenergy": 15.5, "uvindex": 7.0, "sunrise": "06:59:49", "sunriseEpoch": 1423828789, "sunset": "17:36:25", "sunsetEpoch": 1423866985, "moonphase": 0.82, "conditions": "Clear", "description": "Clear conditions throughout the day.", "icon": "clear-day", "stations": ["72510954782", "72510314712", "KRDG", "72511654737", "KPTW", "72040800136"], "source": "obs"}], "stations": {"72510954782": {"distance": 31650.0, "latitude": 40.238, "longitude": -75.555, "useCount": 0, "id": "72510954782", "name": "HERITAGE FIELD AIRPORT, PA US", "quality": 100, "contribution": 0.0}, "72510314712": {"distance": 6580.0, "latitude": 40.373, "longitude": -75.959, "useCount": 0, "id": "72510314712", "name": "READING REGIONAL AIRPORT, PA US", "quality": 99, "contribution": 0.0}, "KRDG": {"distance": 7739.0, "latitude": 40.38, "longitude": -75.97, "useCount": 0, "id": "KRDG", "name": "KRDG", "quality": 99, "contribution": 0.0}, "72511654737": {"distance": 40228.0, "latitude": 40.12, "longitude": -76.294, "useCount": 0, "id": "72511654737", "name": "LANCASTER AIRPORT, PA US", "quality": 100, "contribution": 0.0}, "KPTW": {"distance": 31168.0, "latitude": 40.24, "longitude": -75.56, "useCount": 0, "id": "KPTW", "name": "KPTW", "quality": 100, "contribution": 0.0}, "72040800136": {"distance": 38674.0, "latitude": 39.983, "longitude": -75.867, "useCount": 0, "id": "72040800136", "name": "CHESTER CO GO CARLSON AIRPORT, PA US", "quality": 100, "contribution": 0.0}}}