{"queryCost": 1, "latitude": 39.724, "longitude": -105.082, "resolvedAddress": "39.72400,-105.08200", "address": "39.72400,-105.08200", "timezone": "America/Denver", "tzoffset": -6.0, "days": [{"datetime": "2016-04-26", "datetimeEpoch": 1461650400, "tempmax": 51.5, "tempmin": 35.0, "temp": 43.2, "feelslikemax": 51.5, "feelslikemin": 27.0, "feelslike": 37.7, "dew": 33.2, "humidity": 68.1, "precip": 0.01, "precipprob": 100.0, "precipcover": 4.17, "preciptype": ["rain"], "snow": 0.0, "snowdepth": 0.0, "windgust": 33.3, "windspeed": 15.6, "winddir": 164.2, "pressure": 1002.4, "cloudcover": 64.6, "visibility": 9.9, "solarradiation": 213.3, "solarenergy": 18.3, "uvindex": 8.0, "sunrise": "06:06:32", "sunriseEpoch": 1461672392, "sunset": "19:50:09", "sunsetEpoch": 1461721809, "moonphase": 0.58, "conditions": "Rain, Partially cloudy", "description": "Partly cloudy throughout the day with afternoon rain.", "icon": "rain", "stations": ["KBKF", "KDEN", "KAPA", "72469523036", "72565003017", "72466693067"], "source": "obs"}], "stations": {"KBKF": {"distance": 28430.0, "latitude": 39.72, "longitude": -104.75, "useCount": 0, "id": "KBKF", "name": "KBKF", "quality": 100, "contribution": 0.0}, "KDEN": {"distance": 38355.0, "latitude": 39.86, "longitude": -104.67, "useCount": 0, "id": "KDEN", "name": "KDEN", "quality": 100, "contribution": 0.0}, "KAPA": {"distance": 26255.0, "latitude": 39.57, "longitude": -104.85, "useCount": 0, "id": "KAPA", "name": "KAPA", "quality": 100, "contribution": 0.0}, "72469523036": {"distance": 28439.0, "latitude": 39.717, "longitude": -104.75, "useCount": 0, "id": "72469523036", "name": "AURORA BUCKLEY FIELD ANGB, CO US", "quality": 100, "contribution": 0.0}, "72565003017": {"distance": 38242.0, "latitude": 39.833, "longitude": -104.658, "useCount": 0, "id": "72565003017", "name": "DENVER INTERNATIONAL AIRPORT, CO US", "quality": 100, "contribution": 0.0}, "72466693067": {"distance": 26298.0, "latitude": 39.57, "longitude": -104.849, "useCount": 0, "id": "72466693067", "name": "DENVER CENTENNIAL AIRPORT, CO US", "quality": 100, "contribution": 0.0}}}