{"queryCost": 1, "latitude": 36.817, "longitude": -76.233, "resolvedAddress": "36.81700,-76.23300", "address": "36.81700,-76.23300", "timezone": "America/New_York", "tzoffset": -4.0, "days": [{"datetime": "2016-04-26", "datetimeEpoch": 1461643200, "tempmax": 85.9, "tempmin": 62.5, "temp": 74.2, "feelslikemax": 84.5, "feelslikemin": 62.5, "feelslike": 73.8, "dew": 54.4, "humidity": 51.9, "precip": 0.0, "precipprob": 0.0, "precipcover": 0.0, "preciptype": null, "snow": 0.0, "snowdepth": 0.0, "windgust": 28.6, "windspeed": 17.0, "winddir": 222.9, "pressure": 1010.7, "cloudcover": 8.8, "visibility": 9.9, "solarradiation": 313.1, "solarenergy": 27.2, "uvindex": 9.0, "sunrise": "06:16:08", "sunriseEpoch": 1461665768, "sunset": "19:49:42", "sunsetEpoch": 1461714582, "moonphase": 0.58, "conditions": "Clear", "description": "Clear conditions throughout the day.", "icon": "clear-day", "stations": ["KNFE", "KNGU", "72308513750", "KORF", "72308013737", "72517213762"], "source": "obs"}], "stations": {"KNFE": {"distance": 15938.0, "latitude": 36.7, "longitude": -76.13, "useCount": 0, "id": "KNFE", "name": "KNFE", "quality": 100, "contribution": 0.0}, "KNGU": {"distance": 13257.0, "latitude": 36.93, "longitude": -76.28, "useCount": 0, "id": "KNGU", "name": "KNGU", "quality": 100, "contribution": 0.0}, "72308513750": {"distance": 14320.0, "latitude": 36.938, "longitude": -76.289, "useCount": 0, "id": "72308513750", "name": "NORFOLK NAS, VA US", "quality": 100, "contribution": 0.0}, "KORF": {"distance": 9696.0, "latitude": 36.9, "longitude": -76.2, "useCount": 0, "id": "KORF", "name": "KORF", "quality": 100, "contribution": 0.0}, "72308013737": {"distance": 10271.0, "latitude": 36.903, "longitude": -76.192, "useCount": 0, "id": "72308013737", "name": "NORFOLK INTERNATIONAL AIRPORT, VA US", "quality": 100, "contribution": 0.0}, "72517213762": {"distance": 16122.0, "latitude": 36.695, "longitude": -76.136, "useCount": 0, "id": "72517213762", "name": "FENTRESS NAVAL AUXILIARY FIELD, VA US", "quality": 100, "contribution": 0.0}}}