{"queryCost": 1, "latitude": 29.843, "longitude": -95.186, "resolvedAddress": "29.84300,-95.18600", "address": "29.84300,-95.18600", "timezone": "America/Chicago", "tzoffset": -5.0, "days": [{"datetime": "2016-04-28", "datetimeEpoch": 1461819600, "tempmax": 83.6, "tempmin": 69.0, "temp": 76.2, "feelslikemax": 89.3, "feelslikemin": 69.0, "feelslike": 77.6, "dew": 71.7, "humidity": 86.6, "precip": 0.0, "precipprob": 0.0, "precipcover": 0.0, "preciptype": null, "snow": 0.0, "snowdepth": 0.0, "windgust": 20.8, "windspeed": 14.3, "winddir": 91.9, "pressure": 1009.6, "cloudcover": 68.2, "visibility": 7.2, "solarradiation": 287.1, "solarenergy": 24.8, "uvindex": 9.0, "sunrise": "06:40:18", "sunriseEpoch": 1461843618, "sunset": "19:56:23", "sunsetEpoch": 1461891383, "moonphase": 0.67, "conditions": "Partially cloudy", "description": "Partly cloudy throughout the day.", "icon": "partly-cloudy-day", "stations": ["KHOU", "72059400188", "KIAH", "KLVJ", "72244012918", "72243012960"], "source": "obs"}], "stations": {"KHOU": {"distance": 25392.0, "latitude": 29.63, "longitude": -95.28, "useCount": 0, "id": "KHOU", "name": "KHOU", "quality": 100, "contribution": 0.0}, "72059400188": {"distance": 23644.0, "latitude": 29.717, "longitude": -95.383, "useCount": 0, "id": "72059400188", "name": "HOUSTON DUNN HELISTOP, TX US", "quality": 100, "contribution": 0.0}, "KIAH": {"distance": 21221.0, "latitude": 29.97, "longitude": -95.35, "useCount": 0, "id": "KIAH", "name": "KIAH", "quality": 100, "contribution": 0.0}, "KLVJ": {"distance": 36333.0, "latitude": 29.52, "longitude": -95.24, "useCount": 0, "id": "KLVJ", "name": "KLVJ", "quality": 100, "contribution": 0.0}, "72244012918": {"distance": 24621.0, "latitude": 29.638, "longitude": -95.282, "useCount": 0, "id": "72244012918", "name": "HOUSTON WILLIAM P HOBBY AIRPORT, TX US", "quality": 100, "contribution": 0.0}, "72243012960": {"distance": 22682.0, "latitude": 29.98, "longitude": -95.36, "useCount": 0, "id": "72243012960", "name": "HOUSTON INTERCONTINENTAL AIRPORT, TX US", "quality": 100, "contribution": 0.0}}}