{"queryCost": 1, "latitude": 40.115, "longitude": -111.655, "resolvedAddress": "40.11500,-111.65500", "address": "40.11500,-111.65500", "timezone": "America/Denver", "tzoffset": -6.0, "days": [{"datetime": "2016-04-30", "datetimeEpoch": 1461996000, "tempmax": 56.9, "tempmin": 37.2, "temp": 46.6, "feelslikemax": 56.9, "feelslikemin": 34.2, "feelslike": 45.7, "dew": 32.5, "humidity": 60.2, "precip": 0.0, "precipprob": 0.0, "precipcover": 0.0, "preciptype": null, "snow": 0.0, "snowdepth": 6.7, "windgust": 24.1, "windspeed": 11.8, "winddir": 158.1, "pressure": 1010.6, "cloudcover": 48.5, "visibility": 9.9, "solarradiation": 262.6, "solarenergy": 22.6, "uvindex": 8.0, "sunrise": "06:26:55", "sunriseEpoch": 1462019215, "sunset": "20:21:13", "sunsetEpoch": 1462069273, "moonphase": 0.77, "conditions": "Partially cloudy", "description": "Partly cloudy throughout the day.", "icon": "partly-cloudy-day", "stations": ["99999904133", "K36U", "72572024127", "KPVU", "KSLC", "72572424174"], "source": "obs"}], "stations": {"99999904133": {"distance": 45126.0, "latitude": 40.482, "longitude": -111.429, "useCount": 0, "id": "99999904133", "name": "HEBER CITY MUNICIPAL AIRPORT, UT US", "quality": 0, "contribution": 0.0}, "K36U": {"distance": 44898.0, "latitude": 40.48, "longitude": -111.43, "useCount": 0, "id": "K36U", "name": "K36U", "quality": 0, "contribution": 0.0}, "72572024127": {"distance": 78462.0, "latitude": 40.778, "longitude": -111.969, "useCount": 0, "id": "72572024127", "name": "SALT LAKE CITY INTERNATIONAL AIRPORT, UT US", "quality": 100, "contribution": 0.0}, "KPVU": {"distance": 12930.0, "latitude": 40.22, "longitude": -111.72, "useCount": 0, "id": "KPVU", "name": "PROVO, UT", "quality": 100, "contribution": 0.0}, "KSLC": {"distance": 78690.0, "latitude": 40.78, "longitude": -111.97, "useCount": 0, "id": "KSLC", "name": "KSLC", "quality": 100, "contribution": 0.0}, "72572424174": {"distance": 12932.0, "latitude": 40.219, "longitude": -111.723, "useCount": 0, "id": "72572424174", "name": "PROVO AIRPORT, UT US", "quality": 100, "contribution": 0.0}}}