{"queryCost": 1, "latitude": 42.928, "longitude": -78.876, "resolvedAddress": "42.92800,-78.87600", "address": "42.92800,-78.87600", "timezone": "America/New_York", "tzoffset": -4.0, "days": [{"datetime": "2016-05-04", "datetimeEpoch": 1462334400, "tempmax": 61.6, "tempmin": 42.8, "temp": 52.8, "feelslikemax": 61.6, "feelslikemin": 41.2, "feelslike": 52.1, "dew": 40.3, "humidity": 64.3, "precip": 0.0, "precipprob": 0.0, "precipcover": 0.0, "preciptype": null, "snow": 0.0, "snowdepth": 0.0, "windgust": 17.2, "windspeed": 13.3, "winddir": 95.8, "pressure": 1006.5, "cloudcover": 72.8, "visibility": 21.8, "solarradiation": 289.9, "solarenergy": 25.0, "uvindex": 9.0, "sunrise": "06:04:47", "sunriseEpoch": 1462356287, "sunset": "20:20:23", "sunsetEpoch": 1462407623, "moonphase": 0.97, "conditions": "Partially cloudy", "description": "Partly cloudy throughout the day.", "icon": "partly-cloudy-day", "stations": ["71752099999", "71432099999", "72528014733", "KIAG", "72528704724", "KBUF"], "source": "obs"}], "stations": {"71752099999": {"distance": 37287.0, "latitude": 42.97, "longitude": -79.33, "useCount": 0, "id": "71752099999", "name": "WELLAND PELHAM, CA", "quality": 98, "contribution": 0.0}, "71432099999": {"distance": 45299.0, "latitude": 43.25, "longitude": -79.217, "useCount": 0, "id": "71432099999", "name": "PORT WELLER AUT ONT, CA", "quality": 100, "contribution": 0.0}, "72528014733": {"distance": 11515.0, "latitude": 42.941, "longitude": -78.736, "useCount": 0, "id": "72528014733", "name": "BUFFALO NIAGARA INTERNATIONAL, NY US", "quality": 100, "contribution": 0.0}, "KIAG": {"distance": 20072.0, "latitude": 43.1, "longitude": -78.95, "useCount": 0, "id": "KIAG", "name": "KIAG", "quality": 100, "contribution": 0.0}, "72528704724": {"distance": 20698.0, "latitude": 43.108, "longitude": -78.938, "useCount": 0, "id": "72528704724", "name": "NIAGARA FALLS INTERNATIONAL AIRPORT, NY US", "quality": 99, "contribution": 0.0}, "KBUF": {"distance": 11902.0, "latitude": 42.93, "longitude": -78.73, "useCount": 0, "id": "KBUF", "name": "KBUF", "quality": 100, "contribution": 0.0}}}