{"queryCost": 1, "latitude": 43.134, "longitude": -88.006, "resolvedAddress": "43.13400,-88.00600", "address": "43.13400,-88.00600", "timezone": "America/Chicago", "tzoffset": -5.0, "days": [{"datetime": "2016-05-05", "datetimeEpoch": 1462424400, "tempmax": 56.5, "tempmin": 35.7, "temp": 46.8, "feelslikemax": 56.5, "feelslikemin": 29.9, "feelslike": 44.0, "dew": 34.8, "humidity": 64.0, "precip": 0.0, "precipprob": 0.0, "precipcover": 0.0, "preciptype": null, "snow": 0.0, "snowdepth": 0.0, "windgust": 32.2, "windspeed": 12.7, "winddir": 161.0, "pressure": 1015.5, "cloudcover": 34.9, "visibility": 9.9, "solarradiation": 329.7, "solarenergy": 28.4, "uvindex": 9.0, "sunrise": "05:39:30", "sunriseEpoch": 1462444770, "sunset": "19:58:33", "sunsetEpoch": 1462496313, "moonphase": 0.99, "conditions": "Partially cloudy", "description": "Clearing in the afternoon.", "icon": "partly-cloudy-day", "stations": ["72640014839", "KETB", "72641304875", "KMWC", "KMKE", "72642494818"], "source": "obs"}], "stations": {"72640014839": {"distance": 21573.0, "latitude": 42.955, "longitude": -87.904, "useCount": 0, "id": "72640014839", "name": "MILWAUKEE MITCHELL INTERNATIONAL AIRPORT, WI US", "quality": 100, "contribution": 0.0}, "KETB": {"distance": 33386.0, "latitude": 43.42, "longitude": -88.13, "useCount": 0, "id": "KETB", "name": "KETB", "quality": 98, "contribution": 0.0}, "72641304875": {"distance": 33118.0, "latitude": 43.417, "longitude": -88.133, "useCount": 0, "id": "72641304875", "name": "WEST BEND MUNICIPAL AIRPORT, WI US", "quality": 100, "contribution": 0.0}, "KMWC": {"distance": 2496.0, "latitude": 43.12, "longitude": -88.03, "useCount": 0, "id": "KMWC", "name": "KMWC", "quality": 73, "contribution": 0.0}, "KMKE": {"distance": 22224.0, "latitude": 42.95, "longitude": -87.9, "useCount": 0, "id": "KMKE", "name": "KMKE", "quality": 100, "contribution": 0.0}, "72642494818": {"distance": 44373.0, "latitude": 42.761, "longitude": -87.814, "useCount": 0, "id": "72642494818", "name": "RACINE BATTEN AIRPORT, WI US", "quality": 100, "contribution": 0.0}}}