{"queryCost": 1, "latitude": 45.175, "longitude": -122.437, "resolvedAddress": "45.17500,-122.43700", "address": "45.17500,-122.43700", "timezone": "America/Los_Angeles", "tzoffset": -8.0, "days": [{"datetime": "2015-02-15", "datetimeEpoch": 1423987200, "tempmax": 62.5, "tempmin": 40.9, "temp": 50.0, "feelslikemax": 62.5, "feelslikemin": 37.5, "feelslike": 48.9, "dew": 40.0, "humidity": 71.3, "precip": 0.0, "precipprob": 0.0, "precipcover": 0.0, "preciptype": null, "snow": 0.0, "snowdepth": 0.0, "windgust": 33.3, "windspeed": 16.7, "winddir": 72.4, "pressure": 1025.6, "cloudcover": 15.5, "visibility": 8.9, "solarradiation": 139.3, "solarenergy": 12.0, "uvindex": 6.0, "sunrise": "07:11:05", "sunriseEpoch": 1424013065, "sunset": "17:37:19", "sunsetEpoch": 1424050639, "moonphase": 0.92, "conditions": "Clear", "description": "Clear conditions throughout the day.", "icon": "clear-day", "stations": ["72698524242", "72695994281", "KTTD", "72698024229", "KPDX", "KUAO"], "source": "obs"}], "stations": {"72698524242": {"distance": 41924.0, "latitude": 45.551, "longitude": -122.409, "useCount": 0, "id": "72698524242", "name": "PORTLAND TROUTDALE AIRPORT, OR US", "quality": 100, "contribution": 0.0}, "72695994281": {"distance": 27295.0, "latitude": 45.249, "longitude": -122.769, "useCount": 0, "id": "72695994281", "name": "AURORA STATE AIRPORT, OR US", "quality": 100, "contribution": 0.0}, "KTTD": {"distance": 41766.0, "latitude": 45.55, "longitude": -122.42, "useCount": 0, "id": "KTTD", "name": "KTTD", "quality": 100, "contribution": 0.0}, "72698024229": {"distance": 48735.0, "latitude": 45.596, "longitude": -122.609, "useCount": 0, "id": "72698024229", "name": "PORTLAND INTERNATIONAL AIRPORT, OR US", "quality": 100, "contribution": 0.0}, "KPDX": {"distance": 48997.0, "latitude": 45.6, "longitude": -122.6, "useCount": 0, "id": "KPDX", "name": "KPDX", "quality": 100, "contribution": 0.0}, "KUAO": {"distance": 27417.0, "latitude": 45.25, "longitude": -122.77, "useCount": 0, "id": "KUAO", "name": "KUAO", "quality": 100, "contribution": 0.0}}}