{"queryCost": 1, "latitude": 40.385, "longitude": -104.691, "resolvedAddress": "40.38500,-104.69100", "address": "40.38500,-104.69100", "timezone": "America/Denver", "tzoffset": -6.0, "days": [{"datetime": "2016-05-11", "datetimeEpoch": 1462946400, "tempmax": 63.2, "tempmin": 42.7, "temp": 52.1, "feelslikemax": 63.2, "feelslikemin": 39.6, "feelslike": 51.0, "dew": 34.9, "humidity": 56.3, "precip": 0.0, "precipprob": 0.0, "precipcover": 0.0, "preciptype": null, "snow": 0.0, "snowdepth": 0.0, "windgust": 18.3, "windspeed": 12.7, "winddir": 126.4, "pressure": null, "cloudcover": 54.0, "visibility": 9.9, "solarradiation": 329.8, "solarenergy": 28.6, "uvindex": 9.0, "sunrise": "05:45:54", "sunriseEpoch": 1462967154, "sunset": "20:04:56", "sunsetEpoch": 1463018696, "moonphase": 0.14, "conditions": "Partially cloudy", "description": "Clearing in the afternoon.", "icon": "partly-cloudy-day", "stations": ["72476824051", "72476994035", "KFNL", "99999994074", "KGXY", "72053800164"], "source": "obs"}], "stations": {"72476824051": {"distance": 7532.0, "latitude": 40.436, "longitude": -104.632, "useCount": 0, "id": "72476824051", "name": "GREELEY WELD CO AIRPORT, CO US", "quality": 99, "contribution": 0.0}, "72476994035": {"distance": 28561.0, "latitude": 40.45, "longitude": -105.017, "useCount": 0, "id": "72476994035", "name": "FORT COLLINS LOVELAND AIRPORT, CO US", "quality": 100, "contribution": 0.0}, "KFNL": {"distance": 28807.0, "latitude": 40.45, "longitude": -105.02, "useCount": 0, "id": "KFNL", "name": "LOVELAND/FT CLNS, CO", "quality": 100, "contribution": 0.0}, "99999994074": {"distance": 47243.0, "latitude": 40.807, "longitude": -104.755, "useCount": 0, "id": "99999994074", "name": "NUNN 7 NNE, CO US", "quality": 100, "contribution": 0.0}, "KGXY": {"distance": 7199.0, "latitude": 40.43, "longitude": -104.63, "useCount": 0, "id": "KGXY", "name": "GREELEY, CO", "quality": 100, "contribution": 0.0}, "72053800164": {"distance": 47151.0, "latitude": 40.167, "longitude": -105.167, "useCount": 0, "id": "72053800164", "name": "VANCE BRAND AIRPORT, CO US", "quality": 96, "contribution": 0.0}}}