{"queryCost": 1, "latitude": 36.199, "longitude": -115.124, "resolvedAddress": "36.19900,-115.12400", "address": "36.19900,-115.12400", "timezone": "America/Los_Angeles", "tzoffset": -7.0, "days": [{"datetime": "2016-05-19", "datetimeEpoch": 1463641200, "tempmax": 93.2, "tempmin": 66.6, "temp": 81.3, "feelslikemax": 88.7, "feelslikemin": 66.6, "feelslike": 79.2, "dew": 36.6, "humidity": 22.5, "precip": 0.0, "precipprob": 0.0, "precipcover": 0.0, "preciptype": null, "snow": 0.0, "snowdepth": 0.0, "windgust": 35.9, "windspeed": 25.2, "winddir": 182.3, "pressure": 1005.1, "cloudcover": 6.6, "visibility": 9.9, "solarradiation": 362.1, "solarenergy": 31.3, "uvindex": 10.0, "sunrise": "05:30:55", "sunriseEpoch": 1463661055, "sunset": "19:43:33", "sunsetEpoch": 1463712213, "moonphase": 0.47, "conditions": "Clear", "description": "Clear conditions throughout the day.", "icon": "clear-day", "stations": ["KLAS", "74614023112", "KLSV", "72386023169", "KVGT", "72484653123"], "source": "obs"}], "stations": {"KLAS": {"distance": 13877.0, "latitude": 36.08, "longitude": -115.17, "useCount": 0, "id": "KLAS", "name": "KLAS", "quality": 100, "contribution": 0.0}, "74614023112": {"distance": 9951.0, "latitude": 36.25, "longitude": -115.033, "useCount": 0, "id": "74614023112", "name": "LAS VEGAS NELLIS AFB, NV US", "quality": 96, "contribution": 0.0}, "KLSV": {"distance": 8761.0, "latitude": 36.22, "longitude": -115.03, "useCount": 0, "id": "KLSV", "name": "KLSV", "quality": 99, "contribution": 0.0}, "72386023169": {"distance": 14577.0, "latitude": 36.072, "longitude": -115.163, "useCount": 0, "id": "72386023169", "name": "MCCARRAN INTERNATIONAL AIRPORT, NV US", "quality": 100, "contribution": 0.0}, "KVGT": {"distance": 6936.0, "latitude": 36.21, "longitude": -115.2, "useCount": 0, "id": "KVGT", "name": "KVGT", "quality": 100, "contribution": 0.0}, "72484653123": {"distance": 6620.0, "latitude": 36.212, "longitude": -115.196, "useCount": 0, "id": "72484653123", "name": "LAS VEGAS AIR TERMINAL, NV US", "quality": 100, "contribution": 0.0}}}