{"queryCost": 1, "latitude": 30.234, "longitude": -81.853, "resolvedAddress": "30.23400,-81.85300", "address": "30.23400,-81.85300", "timezone": "America/New_York", "tzoffset": -4.0, "days": [{"datetime": "2016-05-22", "datetimeEpoch": 1463889600, "tempmax": 84.9, "tempmin": 70.7, "temp": 77.4, "feelslikemax": 83.5, "feelslikemin": 70.7, "feelslike": 77.1, "dew": 61.1, "humidity": 60.6, "precip": 0.0, "precipprob": 0.0, "precipcover": 0.0, "preciptype": null, "snow": 0.0, "snowdepth": 0.0, "windgust": 24.4, "windspeed": 14.4, "winddir": 295.9, "pressure": 1013.7, "cloudcover": 41.2, "visibility": 9.9, "solarradiation": 346.6, "solarenergy": 30.1, "uvindex": 10.0, "sunrise": "06:29:32", "sunriseEpoch": 1463912972, "sunset": "20:19:02", "sunsetEpoch": 1463962742, "moonphase": 0.5, "conditions": "Partially cloudy", "description": "Becoming cloudy in the afternoon.", "icon": "partly-cloudy-day", "stations": ["72206013889", "A0002363890", "KJAX", "72206593837", "KNIP", "KCRG"], "source": "obs"}], "stations": {"72206013889": {"distance": 32841.0, "latitude": 30.495, "longitude": -81.694, "useCount": 0, "id": "72206013889", "name": "JACKSONVILLE INTERNATIONAL AIRPORT, FL US", "quality": 100, "contribution": 0.0}, "A0002363890": {"distance": 13266.0, "latitude": 30.35, "longitude": -81.883, "useCount": 0, "id": "A0002363890", "name": "JACKSONVILLE WHITEHOUSE NAVAL OUTLYING FIELD, FL US", "quality": 89, "contribution": 0.0}, "KJAX": {"distance": 33057.0, "latitude": 30.5, "longitude": -81.7, "useCount": 0, "id": "KJAX", "name": "KJAX", "quality": 100, "contribution": 0.0}, "72206593837": {"distance": 17918.0, "latitude": 30.233, "longitude": -81.667, "useCount": 0, "id": "72206593837", "name": "JACKSONVILLE NAS, FL US", "quality": 100, "contribution": 0.0}, "KNIP": {"distance": 16645.0, "latitude": 30.23, "longitude": -81.68, "useCount": 0, "id": "KNIP", "name": "KNIP", "quality": 100, "contribution": 0.0}, "KCRG": {"distance": 33748.0, "latitude": 30.33, "longitude": -81.52, "useCount": 0, "id": "KCRG", "name": "KCRG", "quality": 100, "contribution": 0.0}}}