{"queryCost": 1, "latitude": 44.963, "longitude": -93.012, "resolvedAddress": "44.96300,-93.01200", "address": "44.96300,-93.01200", "timezone": "America/Chicago", "tzoffset": -5.0, "days": [{"datetime": "2016-05-26", "datetimeEpoch": 1464238800, "tempmax": 79.9, "tempmin": 61.0, "temp": 70.3, "feelslikemax": 79.9, "feelslikemin": 61.0, "feelslike": 70.3, "dew": 56.2, "humidity": 64.5, "precip": 0.29, "precipprob": 100.0, "precipcover": 12.5, "preciptype": ["rain"], "snow": 0.0, "snowdepth": 0.0, "windgust": 32.2, "windspeed": 19.4, "winddir": 211.7, "pressure": 1008.5, "cloudcover": 18.0, "visibility": 9.8, "solarradiation": 343.8, "solarenergy": 29.9, "uvindex": 10.0, "sunrise": "05:32:19", "sunriseEpoch": 1464258739, "sunset": "20:46:34", "sunsetEpoch": 1464313594, "moonphase": 0.6, "conditions": "Rain", "description": "Clear conditions throughout the day with early morning rain.", "icon": "rain", "stations": ["KSTP", "KSGS", "72658414927", "KMSP", "72658014922", "72660304974"], "source": "obs"}], "stations": {"KSTP": {"distance": 4793.0, "latitude": 44.95, "longitude": -93.07, "useCount": 0, "id": "KSTP", "name": "KSTP", "quality": 100, "contribution": 0.0}, "KSGS": {"distance": 10449.0, "latitude": 44.87, "longitude": -93.03, "useCount": 0, "id": "KSGS", "name": "KSGS", "quality": 100, "contribution": 0.0}, "72658414927": {"distance": 4865.0, "latitude": 44.932, "longitude": -93.056, "useCount": 0, "id": "72658414927", "name": "ST. PAUL DOWNTOWN AIRPORT, MN US", "quality": 100, "contribution": 0.0}, "KMSP": {"distance": 18819.0, "latitude": 44.88, "longitude": -93.22, "useCount": 0, "id": "KMSP", "name": "KMSP", "quality": 100, "contribution": 0.0}, "72658014922": {"distance": 19271.0, "latitude": 44.883, "longitude": -93.229, "useCount": 0, "id": "72658014922", "name": "MINNEAPOLIS ST. PAUL INTERNATIONAL AIRPORT, MN US", "quality": 100, "contribution": 0.0}, "72660304974": {"distance": 11924.0, "latitude": 44.857, "longitude": -93.033, "useCount": 0, "id": "72660304974", "name": "SOUTH ST PAUL MUNICIPAL RICHARD E FLEMING FIELD AIRPORT, MN US", "quality": 99, "contribution": 0.0}}}