{"queryCost": 1, "latitude": 38.632, "longitude": -90.097, "resolvedAddress": "38.63200,-90.09700", "address": "38.63200,-90.09700", "timezone": "America/Chicago", "tzoffset": -5.0, "days": [{"datetime": "2016-05-26", "datetimeEpoch": 1464238800, "tempmax": 79.0, "tempmin": 66.3, "temp": 72.2, "feelslikemax": 79.0, "feelslikemin": 66.3, "feelslike": 72.2, "dew": 65.7, "humidity": 80.3, "precip": 0.48, "precipprob": 100.0, "precipcover": 12.5, "preciptype": ["rain"], "snow": 0.0, "snowdepth": 0.0, "windgust": 32.4, "windspeed": 13.0, "winddir": 154.8, "pressure": 1013.4, "cloudcover": 32.7, "visibility": 9.5, "solarradiation": 96.6, "solarenergy": 8.4, "uvindex": 3.0, "sunrise": "05:40:18", "sunriseEpoch": 1464259218, "sunset": "20:15:07", "sunsetEpoch": 1464311707, "moonphase": 0.6, "conditions": "Rain, Partially cloudy", "description": "Clearing in the afternoon with morning rain.", "icon": "rain", "stations": ["KBLV", "KSTL", "KCPS", "72434013994", "72433813802", "72531403960"], "source": "obs"}], "stations": {"KBLV": {"distance": 23808.0, "latitude": 38.54, "longitude": -89.85, "useCount": 0, "id": "KBLV", "name": "KBLV", "quality": 100, "contribution": 0.0}, "KSTL": {"distance": 27115.0, "latitude": 38.75, "longitude": -90.37, "useCount": 0, "id": "KSTL", "name": "KSTL", "quality": 100, "contribution": 0.0}, "KCPS": {"distance": 8300.0, "latitude": 38.57, "longitude": -90.15, "useCount": 0, "id": "KCPS", "name": "KCPS", "quality": 100, "contribution": 0.0}, "72434013994": {"distance": 27523.0, "latitude": 38.753, "longitude": -90.374, "useCount": 0, "id": "72434013994", "name": "ST LOUIS LAMBERT INTERNATIONAL AIRPORT, MO US", "quality": 100, "contribution": 0.0}, "72433813802": {"distance": 23350.0, "latitude": 38.55, "longitude": -89.85, "useCount": 0, "id": "72433813802", "name": "BELLEVILLE SCOTT AFB, IL US", "quality": 99, "contribution": 0.0}, "72531403960": {"distance": 8540.0, "latitude": 38.571, "longitude": -90.157, "useCount": 0, "id": "72531403960", "name": "CAHOKIA ST LOUIS DOWNTOWN AIRPORT, IL US", "quality": 100, "contribution": 0.0}}}