{"queryCost": 1, "latitude": 26.556, "longitude": -81.991, "resolvedAddress": "26.55600,-81.99100", "address": "26.55600,-81.99100", "timezone": "America/New_York", "tzoffset": -4.0, "days": [{"datetime": "2016-06-05", "datetimeEpoch": 1465099200, "tempmax": 89.8, "tempmin": 74.9, "temp": 80.2, "feelslikemax": 101.0, "feelslikemin": 74.9, "feelslike": 83.7, "dew": 73.6, "humidity": 80.9, "precip": 0.08, "precipprob": 100.0, "precipcover": 12.5, "preciptype": ["rain"], "snow": 0.0, "snowdepth": 0.0, "windgust": 28.0, "windspeed": 16.0, "winddir": 107.1, "pressure": 1012.7, "cloudcover": 31.0, "visibility": 9.7, "solarradiation": 172.1, "solarenergy": 14.8, "uvindex": 6.0, "sunrise": "06:34:23", "sunriseEpoch": 1465122863, "sunset": "20:18:56", "sunsetEpoch": 1465172336, "moonphase": 0.0, "conditions": "Rain, Partially cloudy", "description": "Becoming cloudy in the afternoon with rain.", "icon": "rain", "stations": ["KPGD", "KFMY", "72210612835", "72210812894", "KRSW", "72203412812"], "source": "obs"}], "stations": {"KPGD": {"distance": 40530.0, "latitude": 26.92, "longitude": -82.0, "useCount": 0, "id": "KPGD", "name": "KPGD", "quality": 100, "contribution": 0.0}, "KFMY": {"distance": 12340.0, "latitude": 26.58, "longitude": -81.87, "useCount": 0, "id": "KFMY", "name": "KFMY", "quality": 100, "contribution": 0.0}, "72210612835": {"distance": 13301.0, "latitude": 26.585, "longitude": -81.861, "useCount": 0, "id": "72210612835", "name": "FORT MYERS PAGE FIELD AIRPORT, FL US", "quality": 100, "contribution": 0.0}, "72210812894": {"distance": 23606.0, "latitude": 26.536, "longitude": -81.755, "useCount": 0, "id": "72210812894", "name": "FORT MYERS SW FLORIDA REGIONAL AIRPORT, FL US", "quality": 100, "contribution": 0.0}, "KRSW": {"distance": 24174.0, "latitude": 26.53, "longitude": -81.75, "useCount": 0, "id": "KRSW", "name": "KRSW", "quality": 100, "contribution": 0.0}, "72203412812": {"distance": 40209.0, "latitude": 26.917, "longitude": -81.991, "useCount": 0, "id": "72203412812", "name": "PUNTA GORDA CHARLOTTE CO AIRPORT, FL US", "quality": 100, "contribution": 0.0}}}