{"queryCost": 1, "latitude": 33.593, "longitude": -84.19, "resolvedAddress": "33.59300,-84.19000", "address": "33.59300,-84.19000", "timezone": "America/New_York", "tzoffset": -4.0, "days": [{"datetime": "2016-06-07", "datetimeEpoch": 1465272000, "tempmax": 89.2, "tempmin": 68.6, "temp": 78.9, "feelslikemax": 88.0, "feelslikemin": 68.6, "feelslike": 78.7, "dew": 62.8, "humidity": 62.4, "precip": 0.11, "precipprob": 100.0, "precipcover": 8.33, "preciptype": ["rain"], "snow": 0.0, "snowdepth": 0.0, "windgust": 31.1, "windspeed": 16.3, "winddir": 290.0, "pressure": 1007.8, "cloudcover": 30.7, "visibility": 8.9, "solarradiation": 354.8, "solarenergy": 30.7, "uvindex": 10.0, "sunrise": "06:26:20", "sunriseEpoch": 1465295180, "sunset": "20:45:21", "sunsetEpoch": 1465346721, "moonphase": 0.04, "conditions": "Rain, Partially cloudy", "description": "Partly cloudy throughout the day with early morning rain.", "icon": "rain", "stations": ["KFTY", "72219013874", "KATL", "72219653863", "72219503888", "KPDK"], "source": "obs"}], "stations": {"KFTY": {"distance": 36982.0, "latitude": 33.78, "longitude": -84.52, "useCount": 0, "id": "KFTY", "name": "KFTY", "quality": 100, "contribution": 0.0}, "72219013874": {"distance": 23706.0, "latitude": 33.63, "longitude": -84.442, "useCount": 0, "id": "72219013874", "name": "ATLANTA HARTSFIELD INTERNATIONAL AIRPORT, GA US", "quality": 100, "contribution": 0.0}, "KATL": {"distance": 22245.0, "latitude": 33.65, "longitude": -84.42, "useCount": 0, "id": "KATL", "name": "KATL", "quality": 100, "contribution": 0.0}, "72219653863": {"distance": 33066.0, "latitude": 33.875, "longitude": -84.302, "useCount": 0, "id": "72219653863", "name": "ATLANTA DEKALB PEACHTREE AIRPORT, GA US", "quality": 100, "contribution": 0.0}, "72219503888": {"distance": 37040.0, "latitude": 33.779, "longitude": -84.521, "useCount": 0, "id": "72219503888", "name": "ATLANTA FULTON CO AIRPORT, GA US", "quality": 100, "contribution": 0.0}, "KPDK": {"distance": 33532.0, "latitude": 33.88, "longitude": -84.3, "useCount": 0, "id": "KPDK", "name": "KPDK", "quality": 100, "contribution": 0.0}}}