{"queryCost": 1, "latitude": 42.802, "longitude": -73.954, "resolvedAddress": "42.80200,-73.95400", "address": "42.80200,-73.95400", "timezone": "America/New_York", "tzoffset": -4.0, "days": [{"datetime": "2016-06-13", "datetimeEpoch": 1465790400, "tempmax": 64.5, "tempmin": 52.9, "temp": 58.3, "feelslikemax": 64.5, "feelslikemin": 52.9, "feelslike": 58.3, "dew": 46.4, "humidity": 64.8, "precip": 0.0, "precipprob": 0.0, "precipcover": 0.0, "preciptype": null, "snow": 0.0, "snowdepth": 0.0, "windgust": 32.3, "windspeed": 21.7, "winddir": 298.7, "pressure": 1010.0, "cloudcover": 82.6, "visibility": 9.9, "solarradiation": 300.6, "solarenergy": 26.1, "uvindex": 9.0, "sunrise": "05:16:53", "sunriseEpoch": 1465809413, "sunset": "20:35:19", "sunsetEpoch": 1465864519, "moonphase": 0.31, "conditions": "Partially cloudy", "description": "Partly cloudy throughout the day.", "icon": "partly-cloudy-day", "stations": ["KGFL", "72616654781", "72518014735", "KDDH", "KALB", "KAQW"], "source": "obs"}], "stations": {"KGFL": {"distance": 64750.0, "latitude": 43.33, "longitude": -73.62, "useCount": 0, "id": "KGFL", "name": "KGFL", "quality": 100, "contribution": 0.0}, "72616654781": {"distance": 58449.0, "latitude": 42.894, "longitude": -73.249, "useCount": 0, "id": "72616654781", "name": "BENNINGTON MORSE STATE AIRPORT, VT US", "quality": 100, "contribution": 0.0}, "72518014735": {"distance": 14051.0, "latitude": 42.747, "longitude": -73.799, "useCount": 0, "id": "72518014735", "name": "ALBANY INTERNATIONAL AIRPORT, NY US", "quality": 100, "contribution": 0.0}, "KDDH": {"distance": 58288.0, "latitude": 42.89, "longitude": -73.25, "useCount": 0, "id": "KDDH", "name": "KDDH", "quality": 100, "contribution": 0.0}, "KALB": {"distance": 13851.0, "latitude": 42.75, "longitude": -73.8, "useCount": 0, "id": "KALB", "name": "KALB", "quality": 100, "contribution": 0.0}, "KAQW": {"distance": 65084.0, "latitude": 42.7, "longitude": -73.17, "useCount": 0, "id": "KAQW", "name": "KAQW", "quality": 100, "contribution": 0.0}}}