{"queryCost": 1, "latitude": 41.656, "longitude": -71.199, "resolvedAddress": "41.65600,-71.19900", "address": "41.65600,-71.19900", "timezone": "America/New_York", "tzoffset": -4.0, "days": [{"datetime": "2016-06-13", "datetimeEpoch": 1465790400, "tempmax": 71.3, "tempmin": 53.3, "temp": 62.9, "feelslikemax": 71.3, "feelslikemin": 53.3, "feelslike": 62.9, "dew": 47.0, "humidity": 56.8, "precip": 0.0, "precipprob": 0.0, "precipcover": 0.0, "preciptype": null, "snow": 0.0, "snowdepth": 0.0, "windgust": 26.4, "windspeed": 16.0, "winddir": 312.5, "pressure": 1005.3, "cloudcover": 36.5, "visibility": 9.9, "solarradiation": 330.7, "solarenergy": 28.7, "uvindex": 10.0, "sunrise": "05:09:54", "sunriseEpoch": 1465808994, "sunset": "20:20:15", "sunsetEpoch": 1465863615, "moonphase": 0.31, "conditions": "Partially cloudy", "description": "Partly cloudy throughout the day.", "icon": "partly-cloudy-day", "stations": ["KPVD", "72506594726", "KEWB", "72507914787", "KUUU", "72507014765"], "source": "obs"}], "stations": {"KPVD": {"distance": 20894.0, "latitude": 41.73, "longitude": -71.43, "useCount": 0, "id": "KPVD", "name": "KPVD", "quality": 100, "contribution": 0.0}, "72506594726": {"distance": 20145.0, "latitude": 41.676, "longitude": -70.958, "useCount": 0, "id": "72506594726", "name": "NEW BEDFORD MUNICIPAL AIRPORT, MA US", "quality": 100, "contribution": 0.0}, "KEWB": {"distance": 19229.0, "latitude": 41.68, "longitude": -70.97, "useCount": 0, "id": "KEWB", "name": "KEWB", "quality": 100, "contribution": 0.0}, "72507914787": {"distance": 15356.0, "latitude": 41.533, "longitude": -71.283, "useCount": 0, "id": "72507914787", "name": "NEWPORT STATE AIRPORT, RI US", "quality": 100, "contribution": 0.0}, "KUUU": {"distance": 15563.0, "latitude": 41.53, "longitude": -71.28, "useCount": 0, "id": "KUUU", "name": "KUUU", "quality": 100, "contribution": 0.0}, "72507014765": {"distance": 20774.0, "latitude": 41.723, "longitude": -71.432, "useCount": 0, "id": "72507014765", "name": "PROVIDENCE, RI US", "quality": 100, "contribution": 0.0}}}