{"queryCost": 1, "latitude": 33.534, "longitude": -86.721, "resolvedAddress": "33.53400,-86.72100", "address": "33.53400,-86.72100", "timezone": "America/Chicago", "tzoffset": -5.0, "days": [{"datetime": "2016-06-22", "datetimeEpoch": 1466571600, "tempmax": 91.1, "tempmin": 76.9, "temp": 83.6, "feelslikemax": 96.1, "feelslikemin": 76.9, "feelslike": 85.7, "dew": 65.7, "humidity": 55.4, "precip": 0.0, "precipprob": 0.0, "precipcover": 0.0, "preciptype": null, "snow": 0.0, "snowdepth": 0.0, "windgust": null, "windspeed": 11.3, "winddir": 213.2, "pressure": 1018.9, "cloudcover": 44.8, "visibility": 9.9, "solarradiation": 334.1, "solarenergy": 29.0, "uvindex": 10.0, "sunrise": "05:37:43", "sunriseEpoch": 1466591863, "sunset": "20:00:20", "sunsetEpoch": 1466643620, "moonphase": 0.53, "conditions": "Partially cloudy", "description": "Partly cloudy throughout the day.", "icon": "partly-cloudy-day", "stations": ["72228013876", "72230053864", "72050899999", "KEET", "KBHM"], "source": "obs"}], "stations": {"72228013876": {"distance": 4163.0, "latitude": 33.566, "longitude": -86.745, "useCount": 0, "id": "72228013876", "name": "BIRMINGHAM AIRPORT, AL US", "quality": 100, "contribution": 0.0}, "KEET": {"distance": 39787.0, "latitude": 33.18, "longitude": -86.78, "useCount": 0, "id": "KEET", "name": "KEET", "quality": 100, "contribution": 0.0}, "72230053864": {"distance": 39997.0, "latitude": 33.178, "longitude": -86.782, "useCount": 0, "id": "72230053864", "name": "ALABASTER SHELBY CO AIRPORT, AL US", "quality": 100, "contribution": 0.0}, "72050899999": {"distance": 55842.0, "latitude": 33.172, "longitude": -86.305, "useCount": 0, "id": "72050899999", "name": "MERKEL FIELD SYLACAUGA MUNICIPAL, AL US", "quality": 97, "contribution": 0.0}, "KBHM": {"distance": 4827.0, "latitude": 33.57, "longitude": -86.75, "useCount": 0, "id": "KBHM", "name": "KBHM", "quality": 100, "contribution": 0.0}}}