{"queryCost": 1, "latitude": 36.041, "longitude": -94.235, "resolvedAddress": "36.04100,-94.23500", "address": "36.04100,-94.23500", "timezone": "America/Chicago", "tzoffset": -5.0, "days": [{"datetime": "2016-06-24", "datetimeEpoch": 1466744400, "tempmax": 90.2, "tempmin": 70.2, "temp": 80.0, "feelslikemax": 98.2, "feelslikemin": 70.2, "feelslike": 83.6, "dew": 72.0, "humidity": 77.9, "precip": 0.0, "precipprob": 0.0, "precipcover": 0.0, "preciptype": null, "snow": 0.0, "snowdepth": 0.0, "windgust": null, "windspeed": 11.2, "winddir": 164.1, "pressure": 1016.1, "cloudcover": 44.0, "visibility": 9.9, "solarradiation": 165.5, "solarenergy": 14.2, "uvindex": 5.0, "sunrise": "06:01:24", "sunriseEpoch": 1466766084, "sunset": "20:37:36", "sunsetEpoch": 1466818656, "moonphase": 0.59, "conditions": "Partially cloudy", "description": "Partly cloudy throughout the day.", "icon": "partly-cloudy-day", "stations": ["KSLG", "KXNA", "72344593993", "72344353955", "KFYV", "72343653922"], "source": "obs"}], "stations": {"KSLG": {"distance": 28260.0, "latitude": 36.2, "longitude": -94.48, "useCount": 0, "id": "KSLG", "name": "SILOAM SPRINGS, AR", "quality": 100, "contribution": 0.0}, "KXNA": {"distance": 27446.0, "latitude": 36.28, "longitude": -94.31, "useCount": 0, "id": "KXNA", "name": "KXNA", "quality": 100, "contribution": 0.0}, "72344593993": {"distance": 6857.0, "latitude": 36.01, "longitude": -94.169, "useCount": 0, "id": "72344593993", "name": "FAYETTEVILLE DRAKE FIELD, AR US", "quality": 100, "contribution": 0.0}, "72344353955": {"distance": 28399.0, "latitude": 36.191, "longitude": -94.491, "useCount": 0, "id": "72344353955", "name": "SILOAM SPRINGS SMITH FIELD AIRPORT, AR US", "quality": 100, "contribution": 0.0}, "KFYV": {"distance": 7422.0, "latitude": 36.0, "longitude": -94.17, "useCount": 0, "id": "KFYV", "name": "KFYV", "quality": 100, "contribution": 0.0}, "72343653922": {"distance": 27598.0, "latitude": 36.283, "longitude": -94.3, "useCount": 0, "id": "72343653922", "name": "FAYETTEVILLE SPRINGDALE NW AR REGL AIRPORT, AR US", "quality": 100, "contribution": 0.0}}}