{"queryCost": 1, "latitude": 33.542, "longitude": -117.783, "resolvedAddress": "33.54200,-117.78300", "address": "33.54200,-117.78300", "timezone": "America/Los_Angeles", "tzoffset": -7.0, "days": [{"datetime": "2016-06-28", "datetimeEpoch": 1467097200, "tempmax": 82.4, "tempmin": 66.9, "temp": 73.2, "feelslikemax": 84.0, "feelslikemin": 66.9, "feelslike": 73.3, "dew": 64.1, "humidity": 74.4, "precip": 0.0, "precipprob": 0.0, "precipcover": 0.0, "preciptype": null, "snow": 0.0, "snowdepth": 0.0, "windgust": 19.7, "windspeed": 11.3, "winddir": 209.6, "pressure": 1013.2, "cloudcover": 43.2, "visibility": 8.8, "solarradiation": 353.2, "solarenergy": 30.4, "uvindex": 10.0, "sunrise": "05:43:52", "sunriseEpoch": 1467117832, "sunset": "20:05:09", "sunsetEpoch": 1467169509, "moonphase": 0.8, "conditions": "Partially cloudy", "description": "Partly cloudy throughout the day.", "icon": "partly-cloudy-day", "stations": ["72033353175", "KFUL", "72297793184", "KSLI", "KSNA", "72297603166"], "source": "obs"}], "stations": {"72033353175": {"distance": 42997.0, "latitude": 33.898, "longitude": -117.602, "useCount": 0, "id": "72033353175", "name": "CORONA MUNICIPAL AIRPORT, CA US", "quality": 99, "contribution": 0.0}, "KFUL": {"distance": 39825.0, "latitude": 33.86, "longitude": -117.98, "useCount": 0, "id": "KFUL", "name": "KFUL", "quality": 100, "contribution": 0.0}, "72297793184": {"distance": 17181.0, "latitude": 33.68, "longitude": -117.866, "useCount": 0, "id": "72297793184", "name": "SANTA ANA JOHN WAYNE AIRPORT, CA US", "quality": 100, "contribution": 0.0}, "KSLI": {"distance": 36248.0, "latitude": 33.78, "longitude": -118.05, "useCount": 0, "id": "KSLI", "name": "KSLI", "quality": 93, "contribution": 0.0}, "KSNA": {"distance": 17351.0, "latitude": 33.68, "longitude": -117.87, "useCount": 0, "id": "KSNA", "name": "KSNA", "quality": 100, "contribution": 0.0}, "72297603166": {"distance": 40965.0, "latitude": 33.872, "longitude": -117.979, "useCount": 0, "id": "72297603166", "name": "FULLERTON MUNICIPAL AIRPORT, CA US", "quality": 100, "contribution": 0.0}}}