{"queryCost": 1, "latitude": 21.303, "longitude": -157.842, "resolvedAddress": "21.30300,-157.84200", "address": "21.30300,-157.84200", "timezone": "Pacific/Honolulu", "tzoffset": -10.0, "days": [{"datetime": "2016-06-28", "datetimeEpoch": 1467108000, "tempmax": 87.0, "tempmin": 74.1, "temp": 80.2, "feelslikemax": 89.9, "feelslikemin": 74.1, "feelslike": 81.3, "dew": 66.8, "humidity": 64.6, "precip": 0.0, "precipprob": 0.0, "precipcover": 0.0, "preciptype": null, "snow": 0.0, "snowdepth": 0.0, "windgust": 24.2, "windspeed": 15.9, "winddir": 57.5, "pressure": 1016.5, "cloudcover": 45.7, "visibility": 9.9, "solarradiation": 316.8, "solarenergy": 27.5, "uvindex": 10.0, "sunrise": "05:52:20", "sunriseEpoch": 1467129140, "sunset": "19:17:15", "sunsetEpoch": 1467177435, "moonphase": 0.8, "conditions": "Partially cloudy", "description": "Partly cloudy throughout the day.", "icon": "partly-cloudy-day", "stations": ["91176022519", "PHNL", "PHNG", "91178022551", "91182022521", "91170022508"], "source": "obs"}], "stations": {"91176022519": {"distance": 18123.0, "latitude": 21.451, "longitude": -157.768, "useCount": 0, "id": "91176022519", "name": "KANEOHE BAY MCAS, HI US", "quality": 98, "contribution": 0.0}, "PHNL": {"distance": 10519.0, "latitude": 21.35, "longitude": -157.93, "useCount": 0, "id": "PHNL", "name": "HONOLULU INTL,HI", "quality": 100, "contribution": 0.0}, "PHNG": {"distance": 17986.0, "latitude": 21.45, "longitude": -157.77, "useCount": 0, "id": "PHNG", "name": "PHNG", "quality": 97, "contribution": 0.0}, "91178022551": {"distance": 23384.0, "latitude": 21.317, "longitude": -158.067, "useCount": 0, "id": "91178022551", "name": "EWA KALAELOA AIRPORT, HI US", "quality": 98, "contribution": 0.0}, "91182022521": {"distance": 9320.0, "latitude": 21.324, "longitude": -157.929, "useCount": 0, "id": "91182022521", "name": "HONOLULU INTERNATIONAL AIRPORT, HI US", "quality": 100, "contribution": 0.0}, "91170022508": {"distance": 28145.0, "latitude": 21.487, "longitude": -158.028, "useCount": 0, "id": "91170022508", "name": "WHEELER ARMY AIR FIELD 810.1, HI US", "quality": 99, "contribution": 0.0}}}