{"queryCost": 1, "latitude": 34.179, "longitude": -84.821, "resolvedAddress": "34.17900,-84.82100", "address": "34.17900,-84.82100", "timezone": "America/New_York", "tzoffset": -4.0, "days": [{"datetime": "2016-07-01", "datetimeEpoch": 1467345600, "tempmax": 93.8, "tempmin": 69.9, "temp": 80.5, "feelslikemax": 92.5, "feelslikemin": 69.9, "feelslike": 80.0, "dew": 63.5, "humidity": 62.6, "precip": 0.0, "precipprob": 0.0, "precipcover": 0.0, "preciptype": null, "snow": 0.0, "snowdepth": 0.0, "windgust": 21.9, "windspeed": 5.9, "winddir": 209.2, "pressure": 1014.5, "cloudcover": 9.3, "visibility": 9.8, "solarradiation": 352.1, "solarenergy": 30.3, "uvindex": 10.0, "sunrise": "06:31:30", "sunriseEpoch": 1467369090, "sunset": "20:54:55", "sunsetEpoch": 1467420895, "moonphase": 0.95, "conditions": "Clear", "description": "Clear conditions throughout the day.", "icon": "clear-day", "stations": ["KRMG", "72320093801", "KRYY", "74781263813", "KVPC", "72215653873"], "source": "obs"}], "stations": {"KRMG": {"distance": 37327.0, "latitude": 34.35, "longitude": -85.17, "useCount": 0, "id": "KRMG", "name": "KRMG", "quality": 100, "contribution": 0.0}, "72320093801": {"distance": 36498.0, "latitude": 34.348, "longitude": -85.161, "useCount": 0, "id": "72320093801", "name": "ROME R B RUSSELL AIRPORT, GA US", "quality": 100, "contribution": 0.0}, "KRYY": {"distance": 27731.0, "latitude": 34.01, "longitude": -84.6, "useCount": 0, "id": "KRYY", "name": "MCCOLLUM FLD, GA", "quality": 100, "contribution": 0.0}, "74781263813": {"distance": 27593.0, "latitude": 34.013, "longitude": -84.599, "useCount": 0, "id": "74781263813", "name": "MARIETTA COBB CO MCCOLLUM FIELD AIRPORT, GA US", "quality": 100, "contribution": 0.0}, "KVPC": {"distance": 8132.0, "latitude": 34.11, "longitude": -84.85, "useCount": 0, "id": "KVPC", "name": "KVPC", "quality": 100, "contribution": 0.0}, "72215653873": {"distance": 6722.0, "latitude": 34.123, "longitude": -84.849, "useCount": 0, "id": "72215653873", "name": "CARTERSVILLE AIRPORT, GA US", "quality": 100, "contribution": 0.0}}}