{"queryCost": 1, "latitude": 33.87, "longitude": -117.974, "resolvedAddress": "33.87000,-117.97400", "address": "33.87000,-117.97400", "timezone": "America/Los_Angeles", "tzoffset": -7.0, "days": [{"datetime": "2016-07-03", "datetimeEpoch": 1467529200, "tempmax": 78.1, "tempmin": 64.1, "temp": 69.6, "feelslikemax": 78.1, "feelslikemin": 64.1, "feelslike": 69.6, "dew": 57.0, "humidity": 65.0, "precip": 0.0, "precipprob": 0.0, "precipcover": 0.0, "preciptype": null, "snow": 0.0, "snowdepth": 0.0, "windgust": 16.1, "windspeed": 10.3, "winddir": 149.9, "pressure": 1016.5, "cloudcover": 28.8, "visibility": 9.9, "solarradiation": 360.7, "solarenergy": 31.2, "uvindex": 10.0, "sunrise": "05:45:52", "sunriseEpoch": 1467549952, "sunset": "20:06:31", "sunsetEpoch": 1467601591, "moonphase": 1.0, "conditions": "Partially cloudy", "description": "Clearing in the afternoon.", "icon": "partly-cloudy-day", "stations": ["KFUL", "72297553141", "KSLI", "72297603166", "72297023129", "KLGB"], "source": "obs"}], "stations": {"KFUL": {"distance": 1244.0, "latitude": 33.86, "longitude": -117.98, "useCount": 0, "id": "KFUL", "name": "KFUL", "quality": 100, "contribution": 0.0}, "72297553141": {"distance": 11460.0, "latitude": 33.79, "longitude": -118.052, "useCount": 0, "id": "72297553141", "name": "LOS ALAMITOS ARMY AIR FIELD, CA US", "quality": 89, "contribution": 0.0}, "KSLI": {"distance": 12238.0, "latitude": 33.78, "longitude": -118.05, "useCount": 0, "id": "KSLI", "name": "KSLI", "quality": 93, "contribution": 0.0}, "72297603166": {"distance": 508.0, "latitude": 33.872, "longitude": -117.979, "useCount": 0, "id": "72297603166", "name": "FULLERTON MUNICIPAL AIRPORT, CA US", "quality": 100, "contribution": 0.0}, "72297023129": {"distance": 17181.0, "latitude": 33.812, "longitude": -118.146, "useCount": 0, "id": "72297023129", "name": "LONG BEACH DAUGHERTY AIRPORT, CA US", "quality": 100, "contribution": 0.0}, "KLGB": {"distance": 17198.0, "latitude": 33.82, "longitude": -118.15, "useCount": 0, "id": "KLGB", "name": "KLGB", "quality": 100, "contribution": 0.0}}}