{"queryCost": 1, "latitude": 29.689, "longitude": -95.353, "resolvedAddress": "29.68900,-95.35300", "address": "29.68900,-95.35300", "timezone": "America/Chicago", "tzoffset": -5.0, "days": [{"datetime": "2016-07-10", "datetimeEpoch": 1468126800, "tempmax": 94.5, "tempmin": 80.5, "temp": 85.8, "feelslikemax": 100.8, "feelslikemin": 86.3, "feelslike": 93.0, "dew": 74.1, "humidity": 70.4, "precip": 0.0, "precipprob": 0.0, "precipcover": 0.0, "preciptype": null, "snow": 0.0, "snowdepth": 0.0, "windgust": 26.0, "windspeed": 12.8, "winddir": 123.1, "pressure": 1015.5, "cloudcover": 92.8, "visibility": 6.9, "solarradiation": 224.3, "solarenergy": 19.3, "uvindex": 7.0, "sunrise": "06:28:58", "sunriseEpoch": 1468150138, "sunset": "20:24:36", "sunsetEpoch": 1468200276, "moonphase": 0.18, "conditions": "Overcast", "description": "Cloudy skies throughout the day.", "icon": "cloudy", "stations": ["KHOU", "72059400188", "72242712975", "KLVJ", "72244012918", "KMCJ"], "source": "obs"}], "stations": {"KHOU": {"distance": 9644.0, "latitude": 29.63, "longitude": -95.28, "useCount": 0, "id": "KHOU", "name": "KHOU", "quality": 100, "contribution": 0.0}, "72059400188": {"distance": 4258.0, "latitude": 29.717, "longitude": -95.383, "useCount": 0, "id": "72059400188", "name": "HOUSTON DUNN HELISTOP, TX US", "quality": 100, "contribution": 0.0}, "72242712975": {"distance": 21785.0, "latitude": 29.519, "longitude": -95.242, "useCount": 0, "id": "72242712975", "name": "HOUSTON CLOVER FIELD, TX US", "quality": 100, "contribution": 0.0}, "KLVJ": {"distance": 21761.0, "latitude": 29.52, "longitude": -95.24, "useCount": 0, "id": "KLVJ", "name": "KLVJ", "quality": 100, "contribution": 0.0}, "72244012918": {"distance": 8911.0, "latitude": 29.638, "longitude": -95.282, "useCount": 0, "id": "72244012918", "name": "HOUSTON WILLIAM P HOBBY AIRPORT, TX US", "quality": 100, "contribution": 0.0}, "KMCJ": {"distance": 5111.0, "latitude": 29.71, "longitude": -95.4, "useCount": 0, "id": "KMCJ", "name": "KMCJ", "quality": 82, "contribution": 0.0}}}