{"queryCost": 1, "latitude": 38.605, "longitude": -121.461, "resolvedAddress": "38.60500,-121.46100", "address": "38.60500,-121.46100", "timezone": "America/Los_Angeles", "tzoffset": -7.0, "days": [{"datetime": "2016-07-11", "datetimeEpoch": 1468220400, "tempmax": 89.9, "tempmin": 58.2, "temp": 74.1, "feelslikemax": 86.6, "feelslikemin": 58.2, "feelslike": 73.1, "dew": 49.0, "humidity": 45.5, "precip": 0.0, "precipprob": 0.0, "precipcover": 0.0, "preciptype": null, "snow": 0.0, "snowdepth": 0.0, "windgust": 20.8, "windspeed": 14.8, "winddir": 273.5, "pressure": 1011.9, "cloudcover": 4.4, "visibility": 9.9, "solarradiation": 363.4, "solarenergy": 31.5, "uvindex": 10.0, "sunrise": "05:51:19", "sunriseEpoch": 1468241479, "sunset": "20:31:16", "sunsetEpoch": 1468294276, "moonphase": 0.23, "conditions": "Clear", "description": "Clear conditions throughout the day.", "icon": "clear-day", "stations": ["KSMF", "72061400205", "72483023232", "72483993225", "KEDU", "KSAC"], "source": "obs"}], "stations": {"KSMF": {"distance": 14794.0, "latitude": 38.7, "longitude": -121.58, "useCount": 0, "id": "KSMF", "name": "SACRAMENTO METRO, CA", "quality": 100, "contribution": 0.0}, "72061400205": {"distance": 35163.0, "latitude": 38.909, "longitude": -121.351, "useCount": 0, "id": "72061400205", "name": "LINCOLN REGIONAL AIRPORT KARL HARDER FIELD, CA US", "quality": 100, "contribution": 0.0}, "72483023232": {"distance": 11314.0, "latitude": 38.507, "longitude": -121.495, "useCount": 0, "id": "72483023232", "name": "SACRAMENTO EXECUTIVE AIRPORT, CA US", "quality": 100, "contribution": 0.0}, "72483993225": {"distance": 15083.0, "latitude": 38.696, "longitude": -121.59, "useCount": 0, "id": "72483993225", "name": "SACRAMENTO METROPOLITAN AIRPORT, CA US", "quality": 100, "contribution": 0.0}, "KEDU": {"distance": 29828.0, "latitude": 38.53, "longitude": -121.79, "useCount": 0, "id": "KEDU", "name": "KEDU", "quality": 97, "contribution": 0.0}, "KSAC": {"distance": 10053.0, "latitude": 38.52, "longitude": -121.5, "useCount": 0, "id": "KSAC", "name": "KSAC", "quality": 100, "contribution": 0.0}}}