{"queryCost": 1, "latitude": 35.194, "longitude": -111.634, "resolvedAddress": "35.19400,-111.63400", "address": "35.19400,-111.63400", "timezone": "America/Phoenix", "tzoffset": -7.0, "days": [{"datetime": "2016-07-13", "datetimeEpoch": 1468393200, "tempmax": 86.2, "tempmin": 48.3, "temp": 69.1, "feelslikemax": 82.8, "feelslikemin": 47.3, "feelslike": 68.2, "dew": 29.6, "humidity": 26.8, "precip": 0.0, "precipprob": 0.0, "precipcover": 0.0, "preciptype": null, "snow": 0.0, "snowdepth": 0.0, "windgust": 29.3, "windspeed": 17.0, "winddir": 197.6, "pressure": 1016.0, "cloudcover": 0.0, "visibility": 9.9, "solarradiation": 378.2, "solarenergy": 32.7, "uvindex": 10.0, "sunrise": "05:22:34", "sunriseEpoch": 1468412554, "sunset": "19:41:54", "sunsetEpoch": 1468464114, "moonphase": 0.32, "conditions": "Clear", "description": "Clear conditions throughout the day.", "icon": "clear-day", "stations": ["72376099999", "KFLG", "72375003103", "KSEZ", "KCMR"], "source": "obs"}], "stations": {"72375003103": {"distance": 6272.0, "latitude": 35.144, "longitude": -111.666, "useCount": 0, "id": "72375003103", "name": "FLAGSTAFF PULLIAM AIRPORT, AZ US", "quality": 100, "contribution": 0.0}, "72376099999": {"distance": 16836.0, "latitude": 35.217, "longitude": -111.817, "useCount": 0, "id": "72376099999", "name": "FLAGSTAFF, AZ US", "quality": 67, "contribution": 0.0}, "KFLG": {"distance": 7842.0, "latitude": 35.13, "longitude": -111.67, "useCount": 0, "id": "KFLG", "name": "KFLG", "quality": 100, "contribution": 0.0}, "KSEZ": {"distance": 40541.0, "latitude": 34.85, "longitude": -111.78, "useCount": 0, "id": "KSEZ", "name": "KSEZ", "quality": 100, "contribution": 0.0}, "KCMR": {"distance": 52557.0, "latitude": 35.29, "longitude": -112.2, "useCount": 0, "id": "KCMR", "name": "KCMR", "quality": 99, "contribution": 0.0}}}