{"queryCost": 1, "latitude": 34.922, "longitude": -80.277, "resolvedAddress": "34.92200,-80.27700", "address": "34.92200,-80.27700", "timezone": "America/New_York", "tzoffset": -4.0, "days": [{"datetime": "2016-07-15", "datetimeEpoch": 1468555200, "tempmax": 91.9, "tempmin": 72.8, "temp": 79.4, "feelslikemax": 96.9, "feelslikemin": 72.8, "feelslike": 81.0, "dew": 69.9, "humidity": 74.0, "precip": 0.34, "precipprob": 100.0, "precipcover": 25.0, "preciptype": ["rain"], "snow": 0.0, "snowdepth": 0.0, "windgust": 31.1, "windspeed": 11.5, "winddir": 195.9, "pressure": 1015.8, "cloudcover": 26.7, "visibility": 9.6, "solarradiation": 266.7, "solarenergy": 22.9, "uvindex": 9.0, "sunrise": "06:19:02", "sunriseEpoch": 1468577942, "sunset": "20:34:57", "sunsetEpoch": 1468629297, "moonphase": 0.4, "conditions": "Rain, Partially cloudy", "description": "Partly cloudy throughout the day with rain.", "icon": "rain", "stations": ["KEQY", "KAFP", "72319453872", "72060500197", "KCQW"], "source": "obs"}], "stations": {"KEQY": {"distance": 33136.0, "latitude": 35.02, "longitude": -80.62, "useCount": 0, "id": "KEQY", "name": "KEQY", "quality": 100, "contribution": 0.0}, "72319453872": {"distance": 33076.0, "latitude": 35.017, "longitude": -80.621, "useCount": 0, "id": "72319453872", "name": "MONROE AIRPORT, NC US", "quality": 100, "contribution": 0.0}, "KAFP": {"distance": 21022.0, "latitude": 35.02, "longitude": -80.08, "useCount": 0, "id": "KAFP", "name": "KAFP", "quality": 93, "contribution": 0.0}, "72060500197": {"distance": 37601.0, "latitude": 34.717, "longitude": -79.95, "useCount": 0, "id": "72060500197", "name": "CHERAW MUNICIPAL AIRPORT LYNCH BELLINGER FIELD, SC US", "quality": 100, "contribution": 0.0}, "KCQW": {"distance": 38133.0, "latitude": 34.72, "longitude": -79.94, "useCount": 0, "id": "KCQW", "name": "KCQW", "quality": 99, "contribution": 0.0}}}