{"queryCost": 1, "latitude": 40.718, "longitude": -73.938, "resolvedAddress": "40.71800,-73.93800", "address": "40.71800,-73.93800", "timezone": "America/New_York", "tzoffset": -4.0, "days": [{"datetime": "2016-07-17", "datetimeEpoch": 1468728000, "tempmax": 89.5, "tempmin": 76.3, "temp": 82.6, "feelslikemax": 93.0, "feelslikemin": 76.3, "feelslike": 84.0, "dew": 65.9, "humidity": 58.2, "precip": 0.0, "precipprob": 0.0, "precipcover": 0.0, "preciptype": null, "snow": 0.0, "snowdepth": 0.0, "windgust": 23.0, "windspeed": 11.0, "winddir": 264.8, "pressure": 1018.3, "cloudcover": 40.1, "visibility": 9.4, "solarradiation": 325.8, "solarenergy": 28.2, "uvindex": 9.0, "sunrise": "05:39:26", "sunriseEpoch": 1468748366, "sunset": "20:24:03", "sunsetEpoch": 1468801443, "moonphase": 0.47, "conditions": "Partially cloudy", "description": "Partly cloudy throughout the day.", "icon": "partly-cloudy-day", "stations": ["72505394728", "KJFK", "KLGA", "74486094789", "KNYC", "72503014732"], "source": "obs"}], "stations": {"72505394728": {"distance": 7285.0, "latitude": 40.779, "longitude": -73.969, "useCount": 0, "id": "72505394728", "name": "NY CITY CENTRAL PARK, NY US", "quality": 100, "contribution": 0.0}, "KJFK": {"distance": 15336.0, "latitude": 40.65, "longitude": -73.78, "useCount": 0, "id": "KJFK", "name": "KJFK", "quality": 100, "contribution": 0.0}, "KLGA": {"distance": 6617.0, "latitude": 40.77, "longitude": -73.9, "useCount": 0, "id": "KLGA", "name": "KLGA", "quality": 100, "contribution": 0.0}, "74486094789": {"distance": 17115.0, "latitude": 40.639, "longitude": -73.764, "useCount": 0, "id": "74486094789", "name": "JFK INTERNATIONAL AIRPORT, NY US", "quality": 100, "contribution": 0.0}, "KNYC": {"distance": 6786.0, "latitude": 40.77, "longitude": -73.98, "useCount": 0, "id": "KNYC", "name": "KNYC", "quality": 100, "contribution": 0.0}, "72503014732": {"distance": 8390.0, "latitude": 40.779, "longitude": -73.88, "useCount": 0, "id": "72503014732", "name": "LAGUARDIA AIRPORT, NY US", "quality": 100, "contribution": 0.0}}}