{"queryCost": 1, "latitude": 34.935, "longitude": -120.438, "resolvedAddress": "34.93500,-120.43800", "address": "34.93500,-120.43800", "timezone": "America/Los_Angeles", "tzoffset": -7.0, "days": [{"datetime": "2016-07-20", "datetimeEpoch": 1468998000, "tempmax": 75.6, "tempmin": 51.0, "temp": 61.3, "feelslikemax": 75.6, "feelslikemin": 51.0, "feelslike": 61.3, "dew": 52.5, "humidity": 75.8, "precip": 0.0, "precipprob": 0.0, "precipcover": 0.0, "preciptype": null, "snow": 0.0, "snowdepth": 0.0, "windgust": 66.7, "windspeed": 13.9, "winddir": 259.8, "pressure": 1016.7, "cloudcover": 28.8, "visibility": 8.7, "solarradiation": 361.1, "solarenergy": 31.3, "uvindex": 10.0, "sunrise": "06:03:04", "sunriseEpoch": 1469019784, "sunset": "20:12:53", "sunsetEpoch": 1469070773, "moonphase": 0.5, "conditions": "Partially cloudy", "description": "Partly cloudy throughout the day.", "icon": "partly-cloudy-day", "stations": ["KSMX", "KVBG", "72394023273", "72289523243", "KLPC", "72393093214"], "source": "obs"}], "stations": {"KSMX": {"distance": 4047.0, "latitude": 34.9, "longitude": -120.45, "useCount": 0, "id": "KSMX", "name": "KSMX", "quality": 100, "contribution": 0.0}, "KVBG": {"distance": 27225.0, "latitude": 34.72, "longitude": -120.58, "useCount": 0, "id": "KVBG", "name": "KVBG", "quality": 100, "contribution": 0.0}, "72394023273": {"distance": 4088.0, "latitude": 34.899, "longitude": -120.449, "useCount": 0, "id": "72394023273", "name": "SANTA MARIA PUBLIC AIRPORT, CA US", "quality": 100, "contribution": 0.0}, "72289523243": {"distance": 29984.0, "latitude": 34.667, "longitude": -120.467, "useCount": 0, "id": "72289523243", "name": "LOMPOC AIRPORT, CA US", "quality": 96, "contribution": 0.0}, "KLPC": {"distance": 29644.0, "latitude": 34.67, "longitude": -120.47, "useCount": 0, "id": "KLPC", "name": "LOMPOC (AWOS), CA", "quality": 97, "contribution": 0.0}, "72393093214": {"distance": 27009.0, "latitude": 34.717, "longitude": -120.567, "useCount": 0, "id": "72393093214", "name": "VANDENBERG AFB, CA US", "quality": 100, "contribution": 0.0}}}