{"queryCost": 1, "latitude": 39.551, "longitude": -119.745, "resolvedAddress": "39.55100,-119.74500", "address": "39.55100,-119.74500", "timezone": "America/Los_Angeles", "tzoffset": -7.0, "days": [{"datetime": "2016-07-28", "datetimeEpoch": 1469689200, "tempmax": 100.5, "tempmin": 67.6, "temp": 84.6, "feelslikemax": 95.4, "feelslikemin": 67.6, "feelslike": 82.3, "dew": 39.6, "humidity": 22.5, "precip": 0.0, "precipprob": 0.0, "precipcover": 0.0, "preciptype": null, "snow": 0.0, "snowdepth": 0.0, "windgust": 34.3, "windspeed": 14.7, "winddir": 251.1, "pressure": 1012.6, "cloudcover": 30.5, "visibility": 9.9, "solarradiation": 340.7, "solarenergy": 29.6, "uvindex": 10.0, "sunrise": "05:55:23", "sunriseEpoch": 1469710523, "sunset": "20:15:00", "sunsetEpoch": 1469762100, "moonphase": 0.84, "conditions": "Partially cloudy", "description": "Partly cloudy throughout the day.", "icon": "partly-cloudy-day", "stations": ["KTRK", "KRTS", "72083900279", "72584693201", "72488023185", "KRNO"], "source": "obs"}], "stations": {"KTRK": {"distance": 41916.0, "latitude": 39.32, "longitude": -120.13, "useCount": 0, "id": "KTRK", "name": "KTRK", "quality": 82, "contribution": 0.0}, "KRTS": {"distance": 15985.0, "latitude": 39.65, "longitude": -119.88, "useCount": 0, "id": "KRTS", "name": "KRTS", "quality": 99, "contribution": 0.0}, "72083900279": {"distance": 17116.0, "latitude": 39.667, "longitude": -119.876, "useCount": 0, "id": "72083900279", "name": "RENO STEAD AIRPORT, NV US", "quality": 99, "contribution": 0.0}, "72584693201": {"distance": 42529.0, "latitude": 39.32, "longitude": -120.139, "useCount": 0, "id": "72584693201", "name": "TRUCKEE AIRPORT, CA US", "quality": 87, "contribution": 0.0}, "72488023185": {"distance": 7807.0, "latitude": 39.484, "longitude": -119.771, "useCount": 0, "id": "72488023185", "name": "RENO AIRPORT, NV US", "quality": 100, "contribution": 0.0}, "KRNO": {"distance": 6424.0, "latitude": 39.5, "longitude": -119.78, "useCount": 0, "id": "KRNO", "name": "KRNO", "quality": 100, "contribution": 0.0}}}