{"queryCost": 1, "latitude": 33.697, "longitude": -116.269, "resolvedAddress": "33.69700,-116.26900", "address": "33.69700,-116.26900", "timezone": "America/Los_Angeles", "tzoffset": -7.0, "days": [{"datetime": "2016-07-28", "datetimeEpoch": 1469689200, "tempmax": 112.0, "tempmin": 92.8, "temp": 101.7, "feelslikemax": 112.0, "feelslikemin": 89.2, "feelslike": 100.4, "dew": 52.9, "humidity": 20.3, "precip": 0.0, "precipprob": 0.0, "precipcover": 0.0, "preciptype": null, "snow": 0.0, "snowdepth": 0.0, "windgust": 27.5, "windspeed": 15.3, "winddir": 233.4, "pressure": 1005.7, "cloudcover": 0.9, "visibility": 9.9, "solarradiation": 330.0, "solarenergy": 28.6, "uvindex": 10.0, "sunrise": "05:54:43", "sunriseEpoch": 1469710483, "sunset": "19:47:59", "sunsetEpoch": 1469760479, "moonphase": 0.84, "conditions": "Clear", "description": "Clear conditions throughout the day.", "icon": "clear-day", "stations": ["KPSP", "74718703104", "69015093121", "KTRM", "KNXP", "72286893138"], "source": "obs"}], "stations": {"KPSP": {"distance": 26004.0, "latitude": 33.83, "longitude": -116.5, "useCount": 0, "id": "KPSP", "name": "KPSP", "quality": 100, "contribution": 0.0}, "74718703104": {"distance": 12850.0, "latitude": 33.627, "longitude": -116.159, "useCount": 0, "id": "74718703104", "name": "DESERT RESORTS REGIONAL AIRPORT, CA US", "quality": 96, "contribution": 0.0}, "69015093121": {"distance": 67782.0, "latitude": 34.3, "longitude": -116.167, "useCount": 0, "id": "69015093121", "name": "TWENTYNINE PALMS MC, CA US", "quality": 100, "contribution": 0.0}, "KTRM": {"distance": 11822.0, "latitude": 33.63, "longitude": -116.17, "useCount": 0, "id": "KTRM", "name": "KTRM", "quality": 93, "contribution": 0.0}, "KNXP": {"distance": 65982.0, "latitude": 34.28, "longitude": -116.14, "useCount": 0, "id": "KNXP", "name": "KNXP", "quality": 100, "contribution": 0.0}, "72286893138": {"distance": 25831.0, "latitude": 33.822, "longitude": -116.504, "useCount": 0, "id": "72286893138", "name": "PALM SPRINGS ASOS, CA US", "quality": 100, "contribution": 0.0}}}