{"queryCost": 1, "latitude": 39.37, "longitude": -76.814, "resolvedAddress": "39.37000,-76.81400", "address": "39.37000,-76.81400", "timezone": "America/New_York", "tzoffset": -4.0, "days": [{"datetime": "2016-08-01", "datetimeEpoch": 1470024000, "tempmax": 86.9, "tempmin": 71.6, "temp": 78.3, "feelslikemax": 95.3, "feelslikemin": 71.6, "feelslike": 80.5, "dew": 70.9, "humidity": 78.9, "precip": 0.04, "precipprob": 100.0, "precipcover": 4.17, "preciptype": ["rain"], "snow": 0.0, "snowdepth": 0.0, "windgust": 19.7, "windspeed": 10.1, "winddir": 178.7, "pressure": 1015.7, "cloudcover": 60.7, "visibility": 9.6, "solarradiation": 233.9, "solarenergy": 20.1, "uvindex": 8.0, "sunrise": "06:07:34", "sunriseEpoch": 1470046054, "sunset": "20:18:57", "sunsetEpoch": 1470097137, "moonphase": 0.99, "conditions": "Rain, Partially cloudy", "description": "Partly cloudy throughout the day with afternoon rain.", "icon": "rain", "stations": ["72406093721", "KGAI", "72069903724", "KBWI", "72033493764", "KMTN"], "source": "obs"}], "stations": {"72406093721": {"distance": 24596.0, "latitude": 39.173, "longitude": -76.684, "useCount": 0, "id": "72406093721", "name": "BALTIMORE WASHINGTON INTERNATIONAL AIRPORT, MD US", "quality": 100, "contribution": 0.0}, "KGAI": {"distance": 37907.0, "latitude": 39.17, "longitude": -77.17, "useCount": 0, "id": "KGAI", "name": "GAITHERSBURG, MD", "quality": 100, "contribution": 0.0}, "72069903724": {"distance": 31287.0, "latitude": 39.608, "longitude": -77.007, "useCount": 0, "id": "72069903724", "name": "WESTMINSTER CARROLL CO REGIONAL JB POAGE AIRPORT, MD US", "quality": 100, "contribution": 0.0}, "KBWI": {"distance": 24522.0, "latitude": 39.18, "longitude": -76.67, "useCount": 0, "id": "KBWI", "name": "KBWI", "quality": 100, "contribution": 0.0}, "72033493764": {"distance": 37896.0, "latitude": 39.167, "longitude": -77.167, "useCount": 0, "id": "72033493764", "name": "GAITHERSBURG MONTGOMERY CO AIR PARK, MD US", "quality": 100, "contribution": 0.0}, "KMTN": {"distance": 34207.0, "latitude": 39.33, "longitude": -76.42, "useCount": 0, "id": "KMTN", "name": "KMTN", "quality": 88, "contribution": 0.0}}}