{"queryCost": 1, "latitude": 28.034, "longitude": -80.589, "resolvedAddress": "28.03400,-80.58900", "address": "28.03400,-80.58900", "timezone": "America/New_York", "tzoffset": -4.0, "days": [{"datetime": "2016-08-02", "datetimeEpoch": 1470110400, "tempmax": 90.7, "tempmin": 77.5, "temp": 84.7, "feelslikemax": 103.2, "feelslikemin": 77.5, "feelslike": 92.8, "dew": 75.5, "humidity": 74.8, "precip": 0.0, "precipprob": 0.0, "precipcover": 0.0, "preciptype": null, "snow": 0.0, "snowdepth": 0.0, "windgust": 20.9, "windspeed": 13.4, "winddir": 130.6, "pressure": 1018.6, "cloudcover": 18.0, "visibility": 7.6, "solarradiation": 181.7, "solarenergy": 15.7, "uvindex": 6.0, "sunrise": "06:45:41", "sunriseEpoch": 1470134741, "sunset": "20:11:06", "sunsetEpoch": 1470183066, "moonphase": 1.0, "conditions": "Clear", "description": "Clear conditions throughout the day.", "icon": "clear-day", "stations": ["72204012838", "KVRB", "KMLB", "KCOF", "74793012843", "74795012867"], "source": "obs"}], "stations": {"72204012838": {"distance": 9213.0, "latitude": 28.101, "longitude": -80.644, "useCount": 0, "id": "72204012838", "name": "MELBOURNE INTERNATIONAL AIRPORT, FL US", "quality": 100, "contribution": 0.0}, "KVRB": {"distance": 45869.0, "latitude": 27.65, "longitude": -80.42, "useCount": 0, "id": "KVRB", "name": "KVRB", "quality": 99, "contribution": 0.0}, "KMLB": {"distance": 9481.0, "latitude": 28.1, "longitude": -80.65, "useCount": 0, "id": "KMLB", "name": "KMLB", "quality": 100, "contribution": 0.0}, "KCOF": {"distance": 21819.0, "latitude": 28.23, "longitude": -80.59, "useCount": 0, "id": "KCOF", "name": "KCOF", "quality": 100, "contribution": 0.0}, "74793012843": {"distance": 45769.0, "latitude": 27.651, "longitude": -80.42, "useCount": 0, "id": "74793012843", "name": "VERO BEACH INTERNATIONAL AIRPORT, FL US", "quality": 100, "contribution": 0.0}, "74795012867": {"distance": 22212.0, "latitude": 28.233, "longitude": -80.6, "useCount": 0, "id": "74795012867", "name": "COCOA BEACH PATRICK AFB, FL US", "quality": 99, "contribution": 0.0}}}