{"queryCost": 1, "latitude": 34.491, "longitude": -118.618, "resolvedAddress": "34.49100,-118.61800", "address": "34.49100,-118.61800", "timezone": "America/Los_Angeles", "tzoffset": -7.0, "days": [{"datetime": "2016-08-02", "datetimeEpoch": 1470121200, "tempmax": 89.6, "tempmin": 67.5, "temp": 76.7, "feelslikemax": 86.5, "feelslikemin": 67.5, "feelslike": 75.8, "dew": 53.3, "humidity": 47.7, "precip": 0.0, "precipprob": 0.0, "precipcover": 0.0, "preciptype": null, "snow": 0.0, "snowdepth": 0.0, "windgust": 33.3, "windspeed": 12.3, "winddir": 152.9, "pressure": 1014.3, "cloudcover": 4.9, "visibility": 9.7, "solarradiation": 332.3, "solarenergy": 28.7, "uvindex": 10.0, "sunrise": "06:06:06", "sunriseEpoch": 1470143166, "sunset": "19:54:47", "sunsetEpoch": 1470192887, "moonphase": 1.0, "conditions": "Clear", "description": "Clear conditions throughout the day.", "icon": "clear-day", "stations": ["KVNY", "KBUR", "72288623130", "72288023152", "72383023187"], "source": "obs"}], "stations": {"72288623130": {"distance": 33483.0, "latitude": 34.21, "longitude": -118.489, "useCount": 0, "id": "72288623130", "name": "VAN NUYS AIRPORT, CA US", "quality": 100, "contribution": 0.0}, "72288023152": {"distance": 40255.0, "latitude": 34.201, "longitude": -118.357, "useCount": 0, "id": "72288023152", "name": "BURBANK GLENDALE PASADENA AIRPORT, CA US", "quality": 100, "contribution": 0.0}, "KVNY": {"distance": 32725.0, "latitude": 34.22, "longitude": -118.48, "useCount": 0, "id": "KVNY", "name": "KVNY", "quality": 100, "contribution": 0.0}, "KBUR": {"distance": 40695.0, "latitude": 34.2, "longitude": -118.35, "useCount": 0, "id": "KBUR", "name": "KBUR", "quality": 100, "contribution": 0.0}, "72383023187": {"distance": 29749.0, "latitude": 34.744, "longitude": -118.724, "useCount": 0, "id": "72383023187", "name": "SANDBERG, CA US", "quality": 92, "contribution": 0.0}}}