{"queryCost": 1, "latitude": 40.282, "longitude": -76.899, "resolvedAddress": "40.28200,-76.89900", "address": "40.28200,-76.89900", "timezone": "America/New_York", "tzoffset": -4.0, "days": [{"datetime": "2016-08-07", "datetimeEpoch": 1470542400, "tempmax": 88.6, "tempmin": 66.7, "temp": 77.7, "feelslikemax": 86.9, "feelslikemin": 66.7, "feelslike": 77.4, "dew": 59.3, "humidity": 55.4, "precip": 0.0, "precipprob": 0.0, "precipcover": 0.0, "preciptype": null, "snow": 0.0, "snowdepth": 0.0, "windgust": 19.7, "windspeed": 9.4, "winddir": 272.9, "pressure": 1012.9, "cloudcover": 22.4, "visibility": 9.9, "solarradiation": 327.1, "solarenergy": 28.1, "uvindex": 9.0, "sunrise": "06:11:26", "sunriseEpoch": 1470564686, "sunset": "20:14:30", "sunsetEpoch": 1470615270, "moonphase": 0.1, "conditions": "Partially cloudy", "description": "Becoming cloudy in the afternoon.", "icon": "partly-cloudy-day", "stations": ["72514454723", "KMDT", "KMUI", "72511814751", "KCXY", "72399014711"], "source": "obs"}], "stations": {"72514454723": {"distance": 32837.0, "latitude": 40.433, "longitude": -76.567, "useCount": 0, "id": "72514454723", "name": "MUIR ARMY AIR FIELD, PA US", "quality": 95, "contribution": 0.0}, "KMDT": {"distance": 14265.0, "latitude": 40.2, "longitude": -76.77, "useCount": 0, "id": "KMDT", "name": "KMDT", "quality": 100, "contribution": 0.0}, "KMUI": {"distance": 33142.0, "latitude": 40.43, "longitude": -76.56, "useCount": 0, "id": "KMUI", "name": "KMUI", "quality": 100, "contribution": 0.0}, "72511814751": {"distance": 8270.0, "latitude": 40.217, "longitude": -76.851, "useCount": 0, "id": "72511814751", "name": "HARRISBURG CAPITAL CITY AIRPORT, PA US", "quality": 100, "contribution": 0.0}, "KCXY": {"distance": 8530.0, "latitude": 40.22, "longitude": -76.84, "useCount": 0, "id": "KCXY", "name": "KCXY", "quality": 100, "contribution": 0.0}, "72399014711": {"distance": 14386.0, "latitude": 40.196, "longitude": -76.772, "useCount": 0, "id": "72399014711", "name": "MIDDLETOWN HARRISBURG INTERNATIONAL AIRPORT, PA US", "quality": 100, "contribution": 0.0}}}