{"queryCost": 1, "latitude": 33.644, "longitude": -84.491, "resolvedAddress": "33.64400,-84.49100", "address": "33.64400,-84.49100", "timezone": "America/New_York", "tzoffset": -4.0, "days": [{"datetime": "2016-08-05", "datetimeEpoch": 1470369600, "tempmax": 93.5, "tempmin": 75.5, "temp": 81.8, "feelslikemax": 99.4, "feelslikemin": 75.5, "feelslike": 84.5, "dew": 72.4, "humidity": 75.5, "precip": 0.01, "precipprob": 100.0, "precipcover": 4.17, "preciptype": ["rain"], "snow": 0.0, "snowdepth": 0.0, "windgust": 20.8, "windspeed": 15.1, "winddir": 149.2, "pressure": 1014.5, "cloudcover": 67.8, "visibility": 8.7, "solarradiation": 307.6, "solarenergy": 26.6, "uvindex": 9.0, "sunrise": "06:53:18", "sunriseEpoch": 1470394398, "sunset": "20:34:01", "sunsetEpoch": 1470443641, "moonphase": 0.04, "conditions": "Rain, Partially cloudy", "description": "Partly cloudy throughout the day with early morning rain.", "icon": "rain", "stations": ["KFTY", "KMGE", "72219013874", "72227013864", "KATL", "72219503888"], "source": "obs"}], "stations": {"KFTY": {"distance": 15376.0, "latitude": 33.78, "longitude": -84.52, "useCount": 0, "id": "KFTY", "name": "KFTY", "quality": 100, "contribution": 0.0}, "KMGE": {"distance": 30841.0, "latitude": 33.92, "longitude": -84.52, "useCount": 0, "id": "KMGE", "name": "KMGE", "quality": 100, "contribution": 0.0}, "72219013874": {"distance": 4815.0, "latitude": 33.63, "longitude": -84.442, "useCount": 0, "id": "72219013874", "name": "ATLANTA HARTSFIELD INTERNATIONAL AIRPORT, GA US", "quality": 100, "contribution": 0.0}, "72227013864": {"distance": 30450.0, "latitude": 33.917, "longitude": -84.517, "useCount": 0, "id": "72227013864", "name": "MARIETTA DOBBINS AFB, GA US", "quality": 99, "contribution": 0.0}, "KATL": {"distance": 6613.0, "latitude": 33.65, "longitude": -84.42, "useCount": 0, "id": "KATL", "name": "KATL", "quality": 100, "contribution": 0.0}, "72219503888": {"distance": 15311.0, "latitude": 33.779, "longitude": -84.521, "useCount": 0, "id": "72219503888", "name": "ATLANTA FULTON CO AIRPORT, GA US", "quality": 100, "contribution": 0.0}}}