{"queryCost": 1, "latitude": 43.483, "longitude": -88.82, "resolvedAddress": "43.48300,-88.82000", "address": "43.48300,-88.82000", "timezone": "America/Chicago", "tzoffset": -5.0, "days": [{"datetime": "2016-08-05", "datetimeEpoch": 1470373200, "tempmax": 77.6, "tempmin": 63.4, "temp": 71.8, "feelslikemax": 77.6, "feelslikemin": 63.4, "feelslike": 71.8, "dew": 63.6, "humidity": 76.9, "precip": 0.02, "precipprob": 100.0, "precipcover": 8.33, "preciptype": ["rain"], "snow": 0.0, "snowdepth": 0.0, "windgust": 17.2, "windspeed": 12.8, "winddir": 295.6, "pressure": 1011.6, "cloudcover": 36.3, "visibility": 9.9, "solarradiation": 319.5, "solarenergy": 27.5, "uvindex": 9.0, "sunrise": "05:49:42", "sunriseEpoch": 1470394182, "sunset": "20:11:59", "sunsetEpoch": 1470445919, "moonphase": 0.04, "conditions": "Rain, Partially cloudy", "description": "Partly cloudy throughout the day with rain clearing later.", "icon": "rain", "stations": ["KFLD", "KUNU", "72650904898", "72646454834", "72650604840", "KRYV"], "source": "obs"}], "stations": {"KFLD": {"distance": 41567.0, "latitude": 43.77, "longitude": -88.49, "useCount": 0, "id": "KFLD", "name": "KFLD", "quality": 100, "contribution": 0.0}, "KUNU": {"distance": 11351.0, "latitude": 43.43, "longitude": -88.7, "useCount": 0, "id": "KUNU", "name": "KUNU", "quality": 99, "contribution": 0.0}, "72650904898": {"distance": 11355.0, "latitude": 43.426, "longitude": -88.703, "useCount": 0, "id": "72650904898", "name": "JUNEAU DODGE CO AIRPORT, WI US", "quality": 100, "contribution": 0.0}, "72646454834": {"distance": 36190.0, "latitude": 43.167, "longitude": -88.717, "useCount": 0, "id": "72646454834", "name": "WATERTOWN MUNICIPAL AIRPORT, WI US", "quality": 100, "contribution": 0.0}, "72650604840": {"distance": 41474.0, "latitude": 43.769, "longitude": -88.491, "useCount": 0, "id": "72650604840", "name": "FOND DU LAC CO AIRPORT, WI US", "quality": 100, "contribution": 0.0}, "KRYV": {"distance": 35772.0, "latitude": 43.17, "longitude": -88.72, "useCount": 0, "id": "KRYV", "name": "KRYV", "quality": 99, "contribution": 0.0}}}