{"queryCost": 1, "latitude": 41.586, "longitude": -80.778, "resolvedAddress": "41.58600,-80.77800", "address": "41.58600,-80.77800", "timezone": "America/New_York", "tzoffset": -4.0, "days": [{"datetime": "2016-08-16", "datetimeEpoch": 1471320000, "tempmax": 82.2, "tempmin": 68.5, "temp": 74.8, "feelslikemax": 86.3, "feelslikemin": 68.5, "feelslike": 75.5, "dew": 70.1, "humidity": 86.1, "precip": 0.1, "precipprob": 100.0, "precipcover": 16.67, "preciptype": ["rain"], "snow": 0.0, "snowdepth": 0.0, "windgust": 33.1, "windspeed": 18.0, "winddir": 207.0, "pressure": 1017.4, "cloudcover": 69.7, "visibility": 9.6, "solarradiation": 220.2, "solarenergy": 19.0, "uvindex": 7.0, "sunrise": "06:33:15", "sunriseEpoch": 1471343595, "sunset": "20:20:32", "sunsetEpoch": 1471393232, "moonphase": 0.48, "conditions": "Rain, Partially cloudy", "description": "Partly cloudy throughout the day with rain.", "icon": "rain", "stations": ["72525604857", "72525014852", "KYNG", "KGKJ", "72510404843", "KHZY"], "source": "obs"}], "stations": {"72525604857": {"distance": 22450.0, "latitude": 41.778, "longitude": -80.696, "useCount": 0, "id": "72525604857", "name": "ASHTABULA CO AIRPORT, OH US", "quality": 100, "contribution": 0.0}, "72525014852": {"distance": 37883.0, "latitude": 41.255, "longitude": -80.674, "useCount": 0, "id": "72525014852", "name": "YOUNGSTOWN WARREN REGIONAL AIRPORT, OH US", "quality": 100, "contribution": 0.0}, "KYNG": {"distance": 36314.0, "latitude": 41.27, "longitude": -80.67, "useCount": 0, "id": "KYNG", "name": "KYNG", "quality": 100, "contribution": 0.0}, "KGKJ": {"distance": 48358.0, "latitude": 41.63, "longitude": -80.2, "useCount": 0, "id": "KGKJ", "name": "KGKJ", "quality": 100, "contribution": 0.0}, "72510404843": {"distance": 47077.0, "latitude": 41.626, "longitude": -80.215, "useCount": 0, "id": "72510404843", "name": "MEADVILLE PORT MEADVILLE AIRPORT, PA US", "quality": 100, "contribution": 0.0}, "KHZY": {"distance": 22549.0, "latitude": 41.78, "longitude": -80.7, "useCount": 0, "id": "KHZY", "name": "KHZY", "quality": 100, "contribution": 0.0}}}