{"queryCost": 1, "latitude": 37.987, "longitude": -121.252, "resolvedAddress": "37.98700,-121.25200", "address": "37.98700,-121.25200", "timezone": "America/Los_Angeles", "tzoffset": -7.0, "days": [{"datetime": "2016-08-16", "datetimeEpoch": 1471330800, "tempmax": 97.9, "tempmin": 57.2, "temp": 76.1, "feelslikemax": 93.9, "feelslikemin": 57.2, "feelslike": 75.0, "dew": 51.3, "humidity": 48.5, "precip": 0.0, "precipprob": 0.0, "precipcover": 0.0, "preciptype": null, "snow": 0.0, "snowdepth": 0.0, "windgust": null, "windspeed": 11.0, "winddir": 263.8, "pressure": 1010.1, "cloudcover": 0.6, "visibility": 9.9, "solarradiation": 321.5, "solarenergy": 27.8, "uvindex": 10.0, "sunrise": "06:21:31", "sunriseEpoch": 1471353691, "sunset": "19:56:07", "sunsetEpoch": 1471402567, "moonphase": 0.48, "conditions": "Clear", "description": "Clear conditions throughout the day.", "icon": "clear-day", "stations": ["KSCK", "KMOD", "KLVK", "72492723285", "72492623258", "72492023237"], "source": "obs"}], "stations": {"KSCK": {"distance": 9686.0, "latitude": 37.9, "longitude": -121.25, "useCount": 0, "id": "KSCK", "name": "KSCK", "quality": 100, "contribution": 0.0}, "KMOD": {"distance": 47800.0, "latitude": 37.63, "longitude": -120.95, "useCount": 0, "id": "KMOD", "name": "KMOD", "quality": 100, "contribution": 0.0}, "KLVK": {"distance": 59278.0, "latitude": 37.7, "longitude": -121.82, "useCount": 0, "id": "KLVK", "name": "LIVERMORE, CA", "quality": 100, "contribution": 0.0}, "72492723285": {"distance": 59282.0, "latitude": 37.693, "longitude": -121.814, "useCount": 0, "id": "72492723285", "name": "LIVERMORE MUNICIPAL AIRPORT, CA US", "quality": 100, "contribution": 0.0}, "72492623258": {"distance": 48300.0, "latitude": 37.624, "longitude": -120.951, "useCount": 0, "id": "72492623258", "name": "MODESTO CITY CO AIRPORT, CA US", "quality": 100, "contribution": 0.0}, "72492023237": {"distance": 11135.0, "latitude": 37.889, "longitude": -121.226, "useCount": 0, "id": "72492023237", "name": "STOCKTON METROPOLITAN AIRPORT, CA US", "quality": 100, "contribution": 0.0}}}