{"queryCost": 1, "latitude": 28.507, "longitude": -81.149, "resolvedAddress": "28.50700,-81.14900", "address": "28.50700,-81.14900", "timezone": "America/New_York", "tzoffset": -4.0, "days": [{"datetime": "2016-08-24", "datetimeEpoch": 1472011200, "tempmax": 90.3, "tempmin": 80.2, "temp": 83.3, "feelslikemax": 97.2, "feelslikemin": 85.3, "feelslike": 90.4, "dew": 75.4, "humidity": 78.2, "precip": 0.23, "precipprob": 100.0, "precipcover": 16.67, "preciptype": ["rain"], "snow": 0.0, "snowdepth": 0.0, "windgust": 25.0, "windspeed": 17.2, "winddir": 45.8, "pressure": 1019.6, "cloudcover": 58.3, "visibility": 9.6, "solarradiation": 212.6, "solarenergy": 18.1, "uvindex": 7.0, "sunrise": "06:58:57", "sunriseEpoch": 1472036337, "sunset": "19:54:10", "sunsetEpoch": 1472082850, "moonphase": 0.72, "conditions": "Rain, Partially cloudy", "description": "Partly cloudy throughout the day with rain in the morning and afternoon.", "icon": "rain", "stations": ["72205312841", "72205712854", "KSFB", "72205012815", "KMCO", "KORL"], "source": "obs"}], "stations": {"72205312841": {"distance": 18504.0, "latitude": 28.545, "longitude": -81.333, "useCount": 0, "id": "72205312841", "name": "ORLANDO EXECUTIVE AIRPORT, FL US", "quality": 100, "contribution": 0.0}, "72205712854": {"distance": 31733.0, "latitude": 28.78, "longitude": -81.244, "useCount": 0, "id": "72205712854", "name": "ORLANDO SANFORD AIRPORT, FL US", "quality": 100, "contribution": 0.0}, "KSFB": {"distance": 31404.0, "latitude": 28.78, "longitude": -81.23, "useCount": 0, "id": "KSFB", "name": "KSFB", "quality": 100, "contribution": 0.0}, "72205012815": {"distance": 19048.0, "latitude": 28.434, "longitude": -81.325, "useCount": 0, "id": "72205012815", "name": "ORLANDO INTERNATIONAL AIRPORT, FL US", "quality": 100, "contribution": 0.0}, "KMCO": {"distance": 17936.0, "latitude": 28.43, "longitude": -81.31, "useCount": 0, "id": "KMCO", "name": "KMCO", "quality": 100, "contribution": 0.0}, "KORL": {"distance": 18338.0, "latitude": 28.55, "longitude": -81.33, "useCount": 0, "id": "KORL", "name": "KORL", "quality": 100, "contribution": 0.0}}}