{"queryCost": 1, "latitude": 39.717, "longitude": -104.995, "resolvedAddress": "39.71700,-104.99500", "address": "39.71700,-104.99500", "timezone": "America/Denver", "tzoffset": -6.0, "days": [{"datetime": "2016-08-27", "datetimeEpoch": 1472277600, "tempmax": 81.7, "tempmin": 49.8, "temp": 66.3, "feelslikemax": 79.6, "feelslikemin": 48.1, "feelslike": 66.0, "dew": 40.4, "humidity": 45.4, "precip": 0.02, "precipprob": 100.0, "precipcover": 4.17, "preciptype": ["rain"], "snow": 0.0, "snowdepth": 0.0, "windgust": null, "windspeed": 13.0, "winddir": 179.0, "pressure": 1014.0, "cloudcover": 51.5, "visibility": 9.9, "solarradiation": 293.5, "solarenergy": 25.3, "uvindex": 9.0, "sunrise": "06:23:51", "sunriseEpoch": 1472300631, "sunset": "19:38:04", "sunsetEpoch": 1472348284, "moonphase": 0.88, "conditions": "Rain, Partially cloudy", "description": "Partly cloudy throughout the day with morning rain.", "icon": "rain", "stations": ["KBKF", "KDEN", "72469523036", "KAPA", "72565003017", "72466693067"], "source": "obs"}], "stations": {"KBKF": {"distance": 20981.0, "latitude": 39.72, "longitude": -104.75, "useCount": 0, "id": "KBKF", "name": "KBKF", "quality": 100, "contribution": 0.0}, "KDEN": {"distance": 32035.0, "latitude": 39.86, "longitude": -104.67, "useCount": 0, "id": "KDEN", "name": "KDEN", "quality": 100, "contribution": 0.0}, "72469523036": {"distance": 20979.0, "latitude": 39.717, "longitude": -104.75, "useCount": 0, "id": "72469523036", "name": "AURORA BUCKLEY FIELD ANGB, CO US", "quality": 100, "contribution": 0.0}, "KAPA": {"distance": 20549.0, "latitude": 39.57, "longitude": -104.85, "useCount": 0, "id": "KAPA", "name": "KAPA", "quality": 100, "contribution": 0.0}, "72565003017": {"distance": 31583.0, "latitude": 39.833, "longitude": -104.658, "useCount": 0, "id": "72565003017", "name": "DENVER INTERNATIONAL AIRPORT, CO US", "quality": 100, "contribution": 0.0}, "72466693067": {"distance": 20575.0, "latitude": 39.57, "longitude": -104.849, "useCount": 0, "id": "72466693067", "name": "DENVER CENTENNIAL AIRPORT, CO US", "quality": 100, "contribution": 0.0}}}