{"queryCost": 1, "latitude": 47.019, "longitude": -122.312, "resolvedAddress": "47.01900,-122.31200", "address": "47.01900,-122.31200", "timezone": "America/Los_Angeles", "tzoffset": -7.0, "days": [{"datetime": "2016-08-30", "datetimeEpoch": 1472540400, "tempmax": 70.6, "tempmin": 55.5, "temp": 62.7, "feelslikemax": 70.6, "feelslikemin": 55.5, "feelslike": 62.7, "dew": 54.1, "humidity": 75.0, "precip": 0.0, "precipprob": 0.0, "precipcover": 0.0, "preciptype": null, "snow": 0.0, "snowdepth": 0.0, "windgust": 21.9, "windspeed": 11.2, "winddir": 201.0, "pressure": 1016.7, "cloudcover": 70.8, "visibility": 9.9, "solarradiation": 152.5, "solarenergy": 13.2, "uvindex": 5.0, "sunrise": "06:26:44", "sunriseEpoch": 1472563604, "sunset": "19:51:38", "sunsetEpoch": 1472611898, "moonphase": 0.99, "conditions": "Partially cloudy", "description": "Partly cloudy throughout the day.", "icon": "partly-cloudy-day", "stations": ["KTCM", "KGRF", "KTIW", "74206024207", "72793894274", "74207124201"], "source": "obs"}], "stations": {"KTCM": {"distance": 17746.0, "latitude": 47.13, "longitude": -122.48, "useCount": 0, "id": "KTCM", "name": "KTCM", "quality": 100, "contribution": 0.0}, "KGRF": {"distance": 21432.0, "latitude": 47.08, "longitude": -122.58, "useCount": 0, "id": "KGRF", "name": "KGRF", "quality": 100, "contribution": 0.0}, "KTIW": {"distance": 34532.0, "latitude": 47.27, "longitude": -122.58, "useCount": 0, "id": "KTIW", "name": "KTIW", "quality": 100, "contribution": 0.0}, "74206024207": {"distance": 19511.0, "latitude": 47.15, "longitude": -122.483, "useCount": 0, "id": "74206024207", "name": "TACOMA MCCHORD AFB, WA US", "quality": 96, "contribution": 0.0}, "72793894274": {"distance": 34129.0, "latitude": 47.268, "longitude": -122.576, "useCount": 0, "id": "72793894274", "name": "TACOMA NARROWS AIRPORT, WA US", "quality": 100, "contribution": 0.0}, "74207124201": {"distance": 21765.0, "latitude": 47.083, "longitude": -122.583, "useCount": 0, "id": "74207124201", "name": "GRAY ARMY AIR FIELD, WA US", "quality": 96, "contribution": 0.0}}}