{"queryCost": 1, "latitude": 64.841, "longitude": -147.72, "resolvedAddress": "64.84100,-147.72000", "address": "64.84100,-147.72000", "timezone": "America/Anchorage", "tzoffset": -8.0, "days": [{"datetime": "2016-08-29", "datetimeEpoch": 1472457600, "tempmax": 68.6, "tempmin": 45.5, "temp": 57.6, "feelslikemax": 68.6, "feelslikemin": 43.8, "feelslike": 57.4, "dew": 39.5, "humidity": 54.0, "precip": 0.0, "precipprob": 0.0, "precipcover": 0.0, "preciptype": null, "snow": 0.0, "snowdepth": 0.0, "windgust": 25.3, "windspeed": 16.4, "winddir": 65.4, "pressure": 1024.8, "cloudcover": 29.0, "visibility": 9.7, "solarradiation": 205.8, "solarenergy": 17.7, "uvindex": 6.0, "sunrise": "06:23:40", "sunriseEpoch": 1472480620, "sunset": "21:17:21", "sunsetEpoch": 1472534241, "moonphase": 0.96, "conditions": "Partially cloudy", "description": "Partly cloudy throughout the day.", "icon": "partly-cloudy-day", "stations": ["PAFB", "PAFA", "70261026411", "99999926494", "70261526498", "70265026407"], "source": "obs"}], "stations": {"PAFB": {"distance": 4889.0, "latitude": 64.83, "longitude": -147.62, "useCount": 0, "id": "PAFB", "name": "PAFB", "quality": 98, "contribution": 0.0}, "PAFA": {"distance": 7476.0, "latitude": 64.82, "longitude": -147.87, "useCount": 0, "id": "PAFA", "name": "FAIRBNKS INTLARPT, AK", "quality": 100, "contribution": 0.0}, "70261026411": {"distance": 8464.0, "latitude": 64.804, "longitude": -147.876, "useCount": 0, "id": "70261026411", "name": "FAIRBANKS INTERNATIONAL AIRPORT, AK US", "quality": 100, "contribution": 0.0}, "99999926494": {"distance": 17772.0, "latitude": 64.974, "longitude": -147.51, "useCount": 0, "id": "99999926494", "name": "FAIRBANKS 11 NE, AK US", "quality": 99, "contribution": 0.0}, "70261526498": {"distance": 5032.0, "latitude": 64.838, "longitude": -147.614, "useCount": 0, "id": "70261526498", "name": "FAIRBANKS WAINWRIGHT ARMY AIR FIELD AIRPORT, AK US", "quality": 95, "contribution": 0.0}, "70265026407": {"distance": 34961.0, "latitude": 64.683, "longitude": -147.083, "useCount": 0, "id": "70265026407", "name": "EIELSON FIELD, AK US", "quality": 99, "contribution": 0.0}}}