{"queryCost": 1, "latitude": 34.203, "longitude": -81.262, "resolvedAddress": "34.20300,-81.26200", "address": "34.20300,-81.26200", "timezone": "America/New_York", "tzoffset": -4.0, "days": [{"datetime": "2016-08-08", "datetimeEpoch": 1470628800, "tempmax": 89.0, "tempmin": 75.1, "temp": 82.3, "feelslikemax": 97.4, "feelslikemin": 75.1, "feelslike": 85.7, "dew": 72.3, "humidity": 73.3, "precip": 0.02, "precipprob": 100.0, "precipcover": 8.33, "preciptype": ["rain"], "snow": 0.0, "snowdepth": 0.0, "windgust": 20.8, "windspeed": 12.3, "winddir": 131.6, "pressure": 1013.6, "cloudcover": 43.2, "visibility": 9.6, "solarradiation": 295.0, "solarenergy": 25.3, "uvindex": 9.0, "sunrise": "06:41:32", "sunriseEpoch": 1470652892, "sunset": "20:19:10", "sunsetEpoch": 1470701950, "moonphase": 0.14, "conditions": "Rain, Partially cloudy", "description": "Partly cloudy throughout the day with afternoon rain.", "icon": "rain", "stations": ["72059600189", "72310013883", "KFDW", "72063400220", "72310453867", "KCAE"], "source": "obs"}], "stations": {"72059600189": {"distance": 35804.0, "latitude": 34.3, "longitude": -81.633, "useCount": 0, "id": "72059600189", "name": "NEWBERRY CO AIRPORT, SC US", "quality": 100, "contribution": 0.0}, "72310013883": {"distance": 31914.0, "latitude": 33.942, "longitude": -81.118, "useCount": 0, "id": "72310013883", "name": "COLUMBIA METROPOLITAN AIRPORT, SC US", "quality": 100, "contribution": 0.0}, "KFDW": {"distance": 18448.0, "latitude": 34.32, "longitude": -81.12, "useCount": 0, "id": "KFDW", "name": "KFDW", "quality": 100, "contribution": 0.0}, "72063400220": {"distance": 18804.0, "latitude": 34.315, "longitude": -81.109, "useCount": 0, "id": "72063400220", "name": "FAIRFIELD CO AIRPORT, SC US", "quality": 100, "contribution": 0.0}, "72310453867": {"distance": 35659.0, "latitude": 33.971, "longitude": -80.996, "useCount": 0, "id": "72310453867", "name": "COLUMBIA OWENS DOWNTOWN AIRPORT, SC US", "quality": 100, "contribution": 0.0}, "KCAE": {"distance": 31058.0, "latitude": 33.95, "longitude": -81.12, "useCount": 0, "id": "KCAE", "name": "KCAE", "quality": 100, "contribution": 0.0}}}