{"queryCost": 1, "latitude": 29.413, "longitude": -98.571, "resolvedAddress": "29.41300,-98.57100", "address": "29.41300,-98.57100", "timezone": "America/Chicago", "tzoffset": -5.0, "days": [{"datetime": "2016-07-23", "datetimeEpoch": 1469250000, "tempmax": 99.0, "tempmin": 76.0, "temp": 87.5, "feelslikemax": 102.8, "feelslikemin": 76.0, "feelslike": 91.0, "dew": 70.0, "humidity": 59.9, "precip": 0.0, "precipprob": 0.0, "precipcover": 0.0, "preciptype": null, "snow": 0.0, "snowdepth": 0.0, "windgust": 26.4, "windspeed": 16.0, "winddir": 148.4, "pressure": 1013.3, "cloudcover": 20.5, "visibility": 9.9, "solarradiation": 315.4, "solarenergy": 27.2, "uvindex": 10.0, "sunrise": "06:49:29", "sunriseEpoch": 1469274569, "sunset": "20:31:48", "sunsetEpoch": 1469323908, "moonphase": 0.57, "conditions": "Partially cloudy", "description": "Clearing in the afternoon.", "icon": "partly-cloudy-day", "stations": ["KSKF", "KSSF", "KSAT", "72253012921", "72252312970", "72253512909"], "source": "obs"}], "stations": {"KSKF": {"distance": 3776.0, "latitude": 29.38, "longitude": -98.58, "useCount": 0, "id": "KSKF", "name": "KSKF", "quality": 100, "contribution": 0.0}, "KSSF": {"distance": 13467.0, "latitude": 29.33, "longitude": -98.47, "useCount": 0, "id": "KSSF", "name": "KSSF", "quality": 100, "contribution": 0.0}, "KSAT": {"distance": 16293.0, "latitude": 29.53, "longitude": -98.47, "useCount": 0, "id": "KSAT", "name": "KSAT", "quality": 100, "contribution": 0.0}, "72253012921": {"distance": 16878.0, "latitude": 29.544, "longitude": -98.484, "useCount": 0, "id": "72253012921", "name": "SAN ANTONIO INTERNATIONAL AIRPORT, TX US", "quality": 100, "contribution": 0.0}, "72252312970": {"distance": 12660.0, "latitude": 29.339, "longitude": -98.472, "useCount": 0, "id": "72252312970", "name": "SAN ANTONIO STINSON MUNICIPAL AIRPORT, TX US", "quality": 100, "contribution": 0.0}, "72253512909": {"distance": 3515.0, "latitude": 29.383, "longitude": -98.583, "useCount": 0, "id": "72253512909", "name": "SAN ANTONIO KELLY FIELD AFB, TX US", "quality": 98, "contribution": 0.0}}}