{"queryCost": 1, "latitude": 37.704, "longitude": -97.444, "resolvedAddress": "37.70400,-97.44400", "address": "37.70400,-97.44400", "timezone": "America/Chicago", "tzoffset": -5.0, "days": [{"datetime": "2016-09-01", "datetimeEpoch": 1472706000, "tempmax": 82.7, "tempmin": 68.8, "temp": 75.0, "feelslikemax": 82.7, "feelslikemin": 68.8, "feelslike": 75.1, "dew": 63.1, "humidity": 68.6, "precip": 0.0, "precipprob": 0.0, "precipcover": 0.0, "preciptype": null, "snow": 0.0, "snowdepth": 0.0, "windgust": 20.8, "windspeed": 15.3, "winddir": 50.1, "pressure": 1018.9, "cloudcover": 55.8, "visibility": 9.9, "solarradiation": 254.7, "solarenergy": 22.2, "uvindex": 8.0, "sunrise": "07:00:17", "sunriseEpoch": 1472731217, "sunset": "19:58:12", "sunsetEpoch": 1472777892, "moonphase": 0.0, "conditions": "Partially cloudy", "description": "Partly cloudy throughout the day.", "icon": "partly-cloudy-day", "stations": ["72450503923", "72450403974", "KAAO", "KICT", "KIAB", "72450003928"], "source": "obs"}], "stations": {"72450503923": {"distance": 18400.0, "latitude": 37.617, "longitude": -97.267, "useCount": 0, "id": "72450503923", "name": "WICHITA MCCONNELL AFB, KS US", "quality": 100, "contribution": 0.0}, "72450403974": {"distance": 20178.0, "latitude": 37.746, "longitude": -97.221, "useCount": 0, "id": "72450403974", "name": "WICHITA COLONEL JAMES JABARA AIRPORT, KS US", "quality": 100, "contribution": 0.0}, "KAAO": {"distance": 20376.0, "latitude": 37.75, "longitude": -97.22, "useCount": 0, "id": "KAAO", "name": "KAAO", "quality": 98, "contribution": 0.0}, "KICT": {"distance": 6137.0, "latitude": 37.65, "longitude": -97.43, "useCount": 0, "id": "KICT", "name": "KICT", "quality": 100, "contribution": 0.0}, "KIAB": {"distance": 18565.0, "latitude": 37.61, "longitude": -97.27, "useCount": 0, "id": "KIAB", "name": "KIAB", "quality": 100, "contribution": 0.0}, "72450003928": {"distance": 6409.0, "latitude": 37.648, "longitude": -97.43, "useCount": 0, "id": "72450003928", "name": "WICHITA DWIGHT D. EISENHOWER NATIONAL AIRPORT, KS US", "quality": 100, "contribution": 0.0}}}