{"queryCost": 1, "latitude": 29.736, "longitude": -90.62, "resolvedAddress": "29.73600,-90.62000", "address": "29.73600,-90.62000", "timezone": "America/Chicago", "tzoffset": -5.0, "days": [{"datetime": "2016-04-03", "datetimeEpoch": 1459659600, "tempmax": 73.5, "tempmin": 47.0, "temp": 61.1, "feelslikemax": 73.5, "feelslikemin": 47.0, "feelslike": 61.1, "dew": 42.9, "humidity": 56.1, "precip": 0.0, "precipprob": 0.0, "precipcover": 0.0, "preciptype": null, "snow": 0.0, "snowdepth": 0.0, "windgust": null, "windspeed": 8.1, "winddir": 189.3, "pressure": 1022.3, "cloudcover": 4.9, "visibility": 9.2, "solarradiation": 311.3, "solarenergy": 27.0, "uvindex": 10.0, "sunrise": "06:48:52", "sunriseEpoch": 1459684132, "sunset": "19:22:39", "sunsetEpoch": 1459729359, "moonphase": 0.9, "conditions": "Clear", "description": "Clear conditions throughout the day.", "icon": "clear-day", "stations": ["72204112993", "KHUM", "KGAO", "72231012916", "72240612927", "KMSY"], "source": "obs"}], "stations": {"72204112993": {"distance": 47524.0, "latitude": 29.445, "longitude": -90.261, "useCount": 0, "id": "72204112993", "name": "GALLIANO SOUTH LAFOURCHE AIRPORT, LA US", "quality": 100, "contribution": 0.0}, "KHUM": {"distance": 19102.0, "latitude": 29.57, "longitude": -90.67, "useCount": 0, "id": "KHUM", "name": "KHUM", "quality": 79, "contribution": 0.0}, "KGAO": {"distance": 47960.0, "latitude": 29.44, "longitude": -90.26, "useCount": 0, "id": "KGAO", "name": "KGAO", "quality": 96, "contribution": 0.0}, "72231012916": {"distance": 44008.0, "latitude": 29.997, "longitude": -90.277, "useCount": 0, "id": "72231012916", "name": "NEW ORLEANS AIRPORT, LA US", "quality": 100, "contribution": 0.0}, "72240612927": {"distance": 19278.0, "latitude": 29.566, "longitude": -90.66, "useCount": 0, "id": "72240612927", "name": "HOUMA TERREBONNE AIRPORT, LA US", "quality": 73, "contribution": 0.0}, "KMSY": {"distance": 44875.0, "latitude": 29.98, "longitude": -90.25, "useCount": 0, "id": "KMSY", "name": "KMSY", "quality": 100, "contribution": 0.0}}}