{"queryCost": 1, "latitude": 33.747, "longitude": -117.879, "resolvedAddress": "33.74700,-117.87900", "address": "33.74700,-117.87900", "timezone": "America/Los_Angeles", "tzoffset": -8.0, "days": [{"datetime": "2015-02-27", "datetimeEpoch": 1425024000, "tempmax": 68.0, "tempmin": 56.2, "temp": 61.9, "feelslikemax": 68.0, "feelslikemin": 56.2, "feelslike": 61.9, "dew": 50.0, "humidity": 65.8, "precip": 0.0, "precipprob": 0.0, "precipcover": 0.0, "preciptype": null, "snow": 0.0, "snowdepth": 0.0, "windgust": null, "windspeed": 12.4, "winddir": 166.5, "pressure": 1009.3, "cloudcover": 77.7, "visibility": 9.9, "solarradiation": 184.9, "solarenergy": 15.9, "uvindex": 7.0, "sunrise": "06:22:34", "sunriseEpoch": 1425046954, "sunset": "17:46:21", "sunsetEpoch": 1425087981, "moonphase": 0.34, "conditions": "Partially cloudy", "description": "Partly cloudy throughout the day.", "icon": "partly-cloudy-day", "stations": ["KFUL", "72297793184", "KSLI", "KSNA", "72297603166", "72297023129"], "source": "obs"}], "stations": {"KFUL": {"distance": 15669.0, "latitude": 33.86, "longitude": -117.98, "useCount": 0, "id": "KFUL", "name": "KFUL", "quality": 100, "contribution": 0.0}, "72297793184": {"distance": 7555.0, "latitude": 33.68, "longitude": -117.866, "useCount": 0, "id": "72297793184", "name": "SANTA ANA JOHN WAYNE AIRPORT, CA US", "quality": 100, "contribution": 0.0}, "KSLI": {"distance": 16246.0, "latitude": 33.78, "longitude": -118.05, "useCount": 0, "id": "KSLI", "name": "KSLI", "quality": 93, "contribution": 0.0}, "KSNA": {"distance": 7505.0, "latitude": 33.68, "longitude": -117.87, "useCount": 0, "id": "KSNA", "name": "KSNA", "quality": 100, "contribution": 0.0}, "72297603166": {"distance": 16699.0, "latitude": 33.872, "longitude": -117.979, "useCount": 0, "id": "72297603166", "name": "FULLERTON MUNICIPAL AIRPORT, CA US", "quality": 100, "contribution": 0.0}, "72297023129": {"distance": 25730.0, "latitude": 33.812, "longitude": -118.146, "useCount": 0, "id": "72297023129", "name": "LONG BEACH DAUGHERTY AIRPORT, CA US", "quality": 100, "contribution": 0.0}}}