{"queryCost": 1, "latitude": 39.552, "longitude": -104.763, "resolvedAddress": "39.55200,-104.76300", "address": "39.55200,-104.76300", "timezone": "America/Denver", "tzoffset": -6.0, "days": [{"datetime": "2016-09-02", "datetimeEpoch": 1472796000, "tempmax": 82.1, "tempmin": 61.4, "temp": 70.4, "feelslikemax": 80.2, "feelslikemin": 61.4, "feelslike": 70.2, "dew": 49.5, "humidity": 50.7, "precip": 0.0, "precipprob": 0.0, "precipcover": 0.0, "preciptype": null, "snow": 0.0, "snowdepth": 0.0, "windgust": 34.3, "windspeed": 19.6, "winddir": 205.3, "pressure": 1012.2, "cloudcover": 69.8, "visibility": 9.9, "solarradiation": 183.4, "solarenergy": 15.7, "uvindex": 6.0, "sunrise": "06:28:40", "sunriseEpoch": 1472819320, "sunset": "19:27:40", "sunsetEpoch": 1472866060, "moonphase": 0.01, "conditions": "Partially cloudy", "description": "Partly cloudy throughout the day.", "icon": "partly-cloudy-day", "stations": ["KBKF", "KDEN", "KAPA", "72469523036", "72565003017", "72466693067"], "source": "obs"}], "stations": {"KBKF": {"distance": 18735.0, "latitude": 39.72, "longitude": -104.75, "useCount": 0, "id": "KBKF", "name": "KBKF", "quality": 100, "contribution": 0.0}, "KDEN": {"distance": 35199.0, "latitude": 39.86, "longitude": -104.67, "useCount": 0, "id": "KDEN", "name": "KDEN", "quality": 100, "contribution": 0.0}, "KAPA": {"distance": 7731.0, "latitude": 39.57, "longitude": -104.85, "useCount": 0, "id": "KAPA", "name": "KAPA", "quality": 100, "contribution": 0.0}, "72469523036": {"distance": 18368.0, "latitude": 39.717, "longitude": -104.75, "useCount": 0, "id": "72469523036", "name": "AURORA BUCKLEY FIELD ANGB, CO US", "quality": 100, "contribution": 0.0}, "72565003017": {"distance": 32527.0, "latitude": 39.833, "longitude": -104.658, "useCount": 0, "id": "72565003017", "name": "DENVER INTERNATIONAL AIRPORT, CO US", "quality": 100, "contribution": 0.0}, "72466693067": {"distance": 7657.0, "latitude": 39.57, "longitude": -104.849, "useCount": 0, "id": "72466693067", "name": "DENVER CENTENNIAL AIRPORT, CO US", "quality": 100, "contribution": 0.0}}}