{"queryCost": 1, "latitude": 39.356, "longitude": -74.436, "resolvedAddress": "39.35600,-74.43600", "address": "39.35600,-74.43600", "timezone": "America/New_York", "tzoffset": -4.0, "days": [{"datetime": "2016-09-03", "datetimeEpoch": 1472875200, "tempmax": 74.0, "tempmin": 66.0, "temp": 71.1, "feelslikemax": 74.0, "feelslikemin": 66.0, "feelslike": 71.1, "dew": 59.4, "humidity": 66.7, "precip": 0.0, "precipprob": 0.0, "precipcover": 0.0, "preciptype": null, "snow": 0.0, "snowdepth": 0.0, "windgust": 34.8, "windspeed": 24.9, "winddir": 50.6, "pressure": 1018.6, "cloudcover": 16.1, "visibility": 9.9, "solarradiation": 172.0, "solarenergy": 14.9, "uvindex": 7.0, "sunrise": "06:28:23", "sunriseEpoch": 1472898503, "sunset": "19:24:44", "sunsetEpoch": 1472945084, "moonphase": 0.02, "conditions": "Clear", "description": "Clear conditions throughout the day.", "icon": "clear-day", "stations": ["72407513735", "KWWD", "KMIV", "72407093730", "KACY"], "source": "obs"}], "stations": {"72407513735": {"distance": 55250.0, "latitude": 39.366, "longitude": -75.078, "useCount": 0, "id": "72407513735", "name": "MILLVILLE MUNICIPAL AIRPORT, NJ US", "quality": 100, "contribution": 0.0}, "KWWD": {"distance": 56062.0, "latitude": 39.02, "longitude": -74.92, "useCount": 0, "id": "KWWD", "name": "WILDWOOD, NJ", "quality": 100, "contribution": 0.0}, "KMIV": {"distance": 53711.0, "latitude": 39.36, "longitude": -75.06, "useCount": 0, "id": "KMIV", "name": "KMIV", "quality": 100, "contribution": 0.0}, "72407093730": {"distance": 15530.0, "latitude": 39.452, "longitude": -74.567, "useCount": 0, "id": "72407093730", "name": "ATLANTIC CITY INTERNATIONAL AIRPORT, NJ US", "quality": 100, "contribution": 0.0}, "KACY": {"distance": 14942.0, "latitude": 39.45, "longitude": -74.56, "useCount": 0, "id": "KACY", "name": "KACY", "quality": 98, "contribution": 0.0}}}