{"queryCost": 1, "latitude": 31.569, "longitude": -84.162, "resolvedAddress": "31.56900,-84.16200", "address": "31.56900,-84.16200", "timezone": "America/New_York", "tzoffset": -4.0, "days": [{"datetime": "2016-09-07", "datetimeEpoch": 1473220800, "tempmax": 92.0, "tempmin": 65.9, "temp": 77.6, "feelslikemax": 91.8, "feelslikemin": 65.9, "feelslike": 78.1, "dew": 64.5, "humidity": 67.9, "precip": 0.0, "precipprob": 0.0, "precipcover": 0.0, "preciptype": null, "snow": 0.0, "snowdepth": 0.0, "windgust": null, "windspeed": 6.9, "winddir": 79.9, "pressure": 1022.3, "cloudcover": 1.1, "visibility": 9.8, "solarradiation": 293.1, "solarenergy": 25.3, "uvindex": 9.0, "sunrise": "07:16:10", "sunriseEpoch": 1473246970, "sunset": "19:52:13", "sunsetEpoch": 1473292333, "moonphase": 0.16, "conditions": "Clear", "description": "Clear conditions throughout the day.", "icon": "clear-day", "stations": ["72216013869", "72026853882", "99999963829", "KABY", "99999963828"], "source": "obs"}], "stations": {"72216013869": {"distance": 4824.0, "latitude": 31.536, "longitude": -84.194, "useCount": 0, "id": "72216013869", "name": "ALBANY SW GEORGIA REGIONAL AIRPORT, GA US", "quality": 100, "contribution": 0.0}, "72026853882": {"distance": 79131.0, "latitude": 30.983, "longitude": -84.633, "useCount": 0, "id": "72026853882", "name": "BAINBRIDGE DECATUR CO INDUSTRIAL AIR PARK AIRPORT, GA US", "quality": 100, "contribution": 0.0}, "99999963829": {"distance": 49895.0, "latitude": 31.192, "longitude": -84.446, "useCount": 0, "id": "99999963829", "name": "NEWTON 11 SW, GA US", "quality": 100, "contribution": 0.0}, "KABY": {"distance": 4665.0, "latitude": 31.53, "longitude": -84.18, "useCount": 0, "id": "KABY", "name": "KABY", "quality": 100, "contribution": 0.0}, "99999963828": {"distance": 40903.0, "latitude": 31.313, "longitude": -84.471, "useCount": 0, "id": "99999963828", "name": "NEWTON 8 W, GA US", "quality": 100, "contribution": 0.0}}}