{"queryCost": 1, "latitude": 37.422, "longitude": -120.781, "resolvedAddress": "37.42200,-120.78100", "address": "37.42200,-120.78100", "timezone": "America/Los_Angeles", "tzoffset": -7.0, "days": [{"datetime": "2016-09-08", "datetimeEpoch": 1473318000, "tempmax": 92.2, "tempmin": 61.4, "temp": 76.1, "feelslikemax": 89.0, "feelslikemin": 61.4, "feelslike": 75.2, "dew": 51.1, "humidity": 44.6, "precip": 0.0, "precipprob": 0.0, "precipcover": 0.0, "preciptype": null, "snow": 0.0, "snowdepth": 0.0, "windgust": null, "windspeed": 13.6, "winddir": 301.4, "pressure": 1014.6, "cloudcover": 0.0, "visibility": 9.2, "solarradiation": 276.3, "solarenergy": 23.8, "uvindex": 9.0, "sunrise": "06:39:45", "sunriseEpoch": 1473341985, "sunset": "19:20:43", "sunsetEpoch": 1473387643, "moonphase": 0.2, "conditions": "Clear", "description": "Clear conditions throughout the day.", "icon": "clear-day", "stations": ["KMOD", "KMCE", "72492623258", "72492023237", "72481523257", "99999993243"], "source": "obs"}], "stations": {"KMOD": {"distance": 27545.0, "latitude": 37.63, "longitude": -120.95, "useCount": 0, "id": "KMOD", "name": "KMOD", "quality": 100, "contribution": 0.0}, "KMCE": {"distance": 29465.0, "latitude": 37.28, "longitude": -120.5, "useCount": 0, "id": "KMCE", "name": "KMCE", "quality": 100, "contribution": 0.0}, "72492623258": {"distance": 27045.0, "latitude": 37.624, "longitude": -120.951, "useCount": 0, "id": "72492623258", "name": "MODESTO CITY CO AIRPORT, CA US", "quality": 100, "contribution": 0.0}, "72492023237": {"distance": 65129.0, "latitude": 37.889, "longitude": -121.226, "useCount": 0, "id": "72492023237", "name": "STOCKTON METROPOLITAN AIRPORT, CA US", "quality": 100, "contribution": 0.0}, "72481523257": {"distance": 28214.0, "latitude": 37.285, "longitude": -120.513, "useCount": 0, "id": "72481523257", "name": "MERCED MUNICIPAL AIRPORT, CA US", "quality": 100, "contribution": 0.0}, "99999993243": {"distance": 22339.0, "latitude": 37.238, "longitude": -120.882, "useCount": 0, "id": "99999993243", "name": "MERCED 23 WSW, CA US", "quality": 100, "contribution": 0.0}}}