{"queryCost": 1, "latitude": 39.963, "longitude": -82.987, "resolvedAddress": "39.96300,-82.98700", "address": "39.96300,-82.98700", "timezone": "America/New_York", "tzoffset": -4.0, "days": [{"datetime": "2016-09-14", "datetimeEpoch": 1473825600, "tempmax": 79.6, "tempmin": 59.1, "temp": 68.7, "feelslikemax": 79.6, "feelslikemin": 59.1, "feelslike": 68.7, "dew": 61.4, "humidity": 78.2, "precip": 0.01, "precipprob": 100.0, "precipcover": 4.17, "preciptype": ["rain"], "snow": 0.0, "snowdepth": 0.0, "windgust": 17.2, "windspeed": 13.0, "winddir": 202.9, "pressure": 1020.8, "cloudcover": 41.5, "visibility": 9.8, "solarradiation": 215.9, "solarenergy": 18.6, "uvindex": 8.0, "sunrise": "07:12:22", "sunriseEpoch": 1473851542, "sunset": "19:41:32", "sunsetEpoch": 1473896492, "moonphase": 0.47, "conditions": "Rain, Partially cloudy", "description": "Becoming cloudy in the afternoon with afternoon rain.", "icon": "rain", "stations": ["KCMH", "KTZR", "KOSU", "KLHQ", "72428804804", "72428014821"], "source": "obs"}], "stations": {"KCMH": {"distance": 10013.0, "latitude": 40.0, "longitude": -82.88, "useCount": 0, "id": "KCMH", "name": "KCMH", "quality": 100, "contribution": 0.0}, "KTZR": {"distance": 14078.0, "latitude": 39.9, "longitude": -83.13, "useCount": 0, "id": "KTZR", "name": "KTZR", "quality": 86, "contribution": 0.0}, "KOSU": {"distance": 14822.0, "latitude": 40.08, "longitude": -83.07, "useCount": 0, "id": "KOSU", "name": "KOSU", "quality": 100, "contribution": 0.0}, "KLHQ": {"distance": 35936.0, "latitude": 39.76, "longitude": -82.66, "useCount": 0, "id": "KLHQ", "name": "KLHQ", "quality": 100, "contribution": 0.0}, "72428804804": {"distance": 14983.0, "latitude": 40.078, "longitude": -83.078, "useCount": 0, "id": "72428804804", "name": "COLUMBUS OHIO STATE UNIVERSITY AIRPORT, OH US", "quality": 100, "contribution": 0.0}, "72428014821": {"distance": 9877.0, "latitude": 39.991, "longitude": -82.877, "useCount": 0, "id": "72428014821", "name": "PORT COLUMBUS INTERNATIONAL AIRPORT, OH US", "quality": 100, "contribution": 0.0}}}