{"queryCost": 1, "latitude": 41.042, "longitude": -81.563, "resolvedAddress": "41.04200,-81.56300", "address": "41.04200,-81.56300", "timezone": "America/New_York", "tzoffset": -4.0, "days": [{"datetime": "2016-09-18", "datetimeEpoch": 1474171200, "tempmax": 78.0, "tempmin": 66.4, "temp": 71.9, "feelslikemax": 78.0, "feelslikemin": 66.4, "feelslike": 71.9, "dew": 65.8, "humidity": 81.6, "precip": 0.25, "precipprob": 100.0, "precipcover": 4.17, "preciptype": ["rain"], "snow": 0.0, "snowdepth": 0.0, "windgust": 37.8, "windspeed": 9.3, "winddir": 179.5, "pressure": 1015.3, "cloudcover": 76.0, "visibility": 8.9, "solarradiation": 153.9, "solarenergy": 13.2, "uvindex": 6.0, "sunrise": "07:10:10", "sunriseEpoch": 1474197010, "sunset": "19:29:29", "sunsetEpoch": 1474241369, "moonphase": 0.53, "conditions": "Rain, Partially cloudy", "description": "Partly cloudy throughout the day with late afternoon rain.", "icon": "rain", "stations": ["72430314813", "KCAK", "72521604842", "KAKR", "72521014895"], "source": "obs"}], "stations": {"72430314813": {"distance": 8311.0, "latitude": 41.038, "longitude": -81.464, "useCount": 0, "id": "72430314813", "name": "AKRON FULTON INTERNATIONAL AIRPORT, OH US", "quality": 100, "contribution": 0.0}, "KCAK": {"distance": 17589.0, "latitude": 40.92, "longitude": -81.43, "useCount": 0, "id": "KCAK", "name": "KCAK", "quality": 100, "contribution": 0.0}, "72521604842": {"distance": 33076.0, "latitude": 40.873, "longitude": -81.887, "useCount": 0, "id": "72521604842", "name": "WOOSTER WAYNE CO AIRPORT, OH US", "quality": 100, "contribution": 0.0}, "KAKR": {"distance": 9490.0, "latitude": 41.04, "longitude": -81.45, "useCount": 0, "id": "KAKR", "name": "KAKR", "quality": 100, "contribution": 0.0}, "72521014895": {"distance": 17061.0, "latitude": 40.918, "longitude": -81.443, "useCount": 0, "id": "72521014895", "name": "AKRON CANTON AIRPORT, OH US", "quality": 100, "contribution": 0.0}}}