{"queryCost": 1, "latitude": 34.659, "longitude": -86.54, "resolvedAddress": "34.65900,-86.54000", "address": "34.65900,-86.54000", "timezone": "America/Chicago", "tzoffset": -5.0, "days": [{"datetime": "2016-09-17", "datetimeEpoch": 1474088400, "tempmax": 79.2, "tempmin": 73.9, "temp": 76.3, "feelslikemax": 79.2, "feelslikemin": 73.9, "feelslike": 76.3, "dew": 68.2, "humidity": 76.6, "precip": 0.11, "precipprob": 100.0, "precipcover": 16.67, "preciptype": ["rain"], "snow": 0.0, "snowdepth": 0.0, "windgust": null, "windspeed": 13.5, "winddir": 156.8, "pressure": 1017.2, "cloudcover": 77.9, "visibility": 9.2, "solarradiation": 89.2, "solarenergy": 7.8, "uvindex": 3.0, "sunrise": "06:30:53", "sunriseEpoch": 1474111853, "sunset": "18:49:26", "sunsetEpoch": 1474156166, "moonphase": 0.51, "conditions": "Rain, Partially cloudy", "description": "Partly cloudy throughout the day with rain.", "icon": "rain", "stations": ["KHSV", "72323003856", "KDCU", "KHUA", "72227953852", "72323163883"], "source": "obs"}], "stations": {"KHSV": {"distance": 21085.0, "latitude": 34.65, "longitude": -86.77, "useCount": 0, "id": "KHSV", "name": "KHSV", "quality": 100, "contribution": 0.0}, "72323003856": {"distance": 22599.0, "latitude": 34.644, "longitude": -86.786, "useCount": 0, "id": "72323003856", "name": "HUNTSVILLE INTERNATIONAL AIRPORT JONES FIELD, AL US", "quality": 100, "contribution": 0.0}, "KDCU": {"distance": 37557.0, "latitude": 34.65, "longitude": -86.95, "useCount": 0, "id": "KDCU", "name": "KDCU", "quality": 100, "contribution": 0.0}, "KHUA": {"distance": 13029.0, "latitude": 34.68, "longitude": -86.68, "useCount": 0, "id": "KHUA", "name": "KHUA", "quality": 95, "contribution": 0.0}, "72227953852": {"distance": 37120.0, "latitude": 34.653, "longitude": -86.945, "useCount": 0, "id": "72227953852", "name": "DECATUR PRYOR FIELD, AL US", "quality": 100, "contribution": 0.0}, "72323163883": {"distance": 13426.0, "latitude": 34.679, "longitude": -86.685, "useCount": 0, "id": "72323163883", "name": "REDSTONE ARSENAL ARMY AIRFIELD, AL US", "quality": 95, "contribution": 0.0}}}