{"queryCost": 1, "latitude": 38.665, "longitude": -121.23, "resolvedAddress": "38.66500,-121.23000", "address": "38.66500,-121.23000", "timezone": "America/Los_Angeles", "tzoffset": -7.0, "days": [{"datetime": "2016-09-23", "datetimeEpoch": 1474614000, "tempmax": 81.6, "tempmin": 49.0, "temp": 64.6, "feelslikemax": 79.4, "feelslikemin": 46.9, "feelslike": 64.0, "dew": 38.4, "humidity": 45.0, "precip": 0.0, "precipprob": 0.0, "precipcover": 0.0, "preciptype": null, "snow": 0.0, "snowdepth": 0.0, "windgust": 20.8, "windspeed": 12.3, "winddir": 261.0, "pressure": 1018.3, "cloudcover": 11.3, "visibility": 9.9, "solarradiation": 199.7, "solarenergy": 17.3, "uvindex": 8.0, "sunrise": "06:54:00", "sunriseEpoch": 1474638840, "sunset": "18:59:27", "sunsetEpoch": 1474682367, "moonphase": 0.76, "conditions": "Clear", "description": "Clear conditions throughout the day.", "icon": "clear-day", "stations": ["KSMF", "72061400205", "72483023232", "72483993225", "KSAC", "KAUN"], "source": "obs"}], "stations": {"KSMF": {"distance": 30663.0, "latitude": 38.7, "longitude": -121.58, "useCount": 0, "id": "KSMF", "name": "SACRAMENTO METRO, CA", "quality": 100, "contribution": 0.0}, "72061400205": {"distance": 29121.0, "latitude": 38.909, "longitude": -121.351, "useCount": 0, "id": "72061400205", "name": "LINCOLN REGIONAL AIRPORT KARL HARDER FIELD, CA US", "quality": 100, "contribution": 0.0}, "72483023232": {"distance": 29008.0, "latitude": 38.507, "longitude": -121.495, "useCount": 0, "id": "72483023232", "name": "SACRAMENTO EXECUTIVE AIRPORT, CA US", "quality": 100, "contribution": 0.0}, "72483993225": {"distance": 31469.0, "latitude": 38.696, "longitude": -121.59, "useCount": 0, "id": "72483993225", "name": "SACRAMENTO METROPOLITAN AIRPORT, CA US", "quality": 100, "contribution": 0.0}, "KSAC": {"distance": 28503.0, "latitude": 38.52, "longitude": -121.5, "useCount": 0, "id": "KSAC", "name": "KSAC", "quality": 100, "contribution": 0.0}, "KAUN": {"distance": 34291.0, "latitude": 38.95, "longitude": -121.08, "useCount": 0, "id": "KAUN", "name": "KAUN", "quality": 100, "contribution": 0.0}}}