{"queryCost": 1, "latitude": 43.384, "longitude": -72.356, "resolvedAddress": "43.38400,-72.35600", "address": "43.38400,-72.35600", "timezone": "America/New_York", "tzoffset": -4.0, "days": [{"datetime": "2016-09-25", "datetimeEpoch": 1474776000, "tempmax": 62.1, "tempmin": 32.6, "temp": 47.2, "feelslikemax": 62.1, "feelslikemin": 32.6, "feelslike": 47.0, "dew": 33.4, "humidity": 65.6, "precip": 0.0, "precipprob": 0.0, "precipcover": 0.0, "preciptype": null, "snow": 0.0, "snowdepth": 0.0, "windgust": 26.1, "windspeed": 15.0, "winddir": 151.6, "pressure": 1021.7, "cloudcover": 4.2, "visibility": 9.5, "solarradiation": 234.7, "solarenergy": 20.3, "uvindex": 8.0, "sunrise": "06:40:30", "sunriseEpoch": 1474800030, "sunset": "18:40:32", "sunsetEpoch": 1474843232, "moonphase": 0.86, "conditions": "Clear", "description": "Clear conditions throughout the day.", "icon": "clear-day", "stations": ["72611554740", "KRUT", "72611694765", "72516594737", "KVSF", "KLEB"], "source": "obs"}], "stations": {"72611554740": {"distance": 13845.0, "latitude": 43.344, "longitude": -72.518, "useCount": 0, "id": "72611554740", "name": "SPRINGFIELD HARTNESS STATE AIRPORT, VT US", "quality": 100, "contribution": 0.0}, "KRUT": {"distance": 50675.0, "latitude": 43.53, "longitude": -72.95, "useCount": 0, "id": "KRUT", "name": "RUTLAND, VT", "quality": 100, "contribution": 0.0}, "72611694765": {"distance": 27300.0, "latitude": 43.626, "longitude": -72.305, "useCount": 0, "id": "72611694765", "name": "LEBANON MUNICIPAL AIRPORT, NH US", "quality": 100, "contribution": 0.0}, "72516594737": {"distance": 50793.0, "latitude": 43.533, "longitude": -72.95, "useCount": 0, "id": "72516594737", "name": "RUTLAND STATE AIRPORT, VT US", "quality": 100, "contribution": 0.0}, "KVSF": {"distance": 13801.0, "latitude": 43.35, "longitude": -72.52, "useCount": 0, "id": "KVSF", "name": "KVSF", "quality": 100, "contribution": 0.0}, "KLEB": {"distance": 27755.0, "latitude": 43.63, "longitude": -72.3, "useCount": 0, "id": "KLEB", "name": "KLEB", "quality": 100, "contribution": 0.0}}}