{"queryCost": 1, "latitude": 43.644, "longitude": -116.264, "resolvedAddress": "43.64400,-116.26400", "address": "43.64400,-116.26400", "timezone": "America/Boise", "tzoffset": -6.0, "days": [{"datetime": "2016-09-26", "datetimeEpoch": 1474869600, "tempmax": 83.8, "tempmin": 53.0, "temp": 67.0, "feelslikemax": 81.1, "feelslikemin": 53.0, "feelslike": 66.5, "dew": 38.8, "humidity": 38.9, "precip": 0.0, "precipprob": 0.0, "precipcover": 0.0, "preciptype": null, "snow": 0.0, "snowdepth": 0.0, "windgust": 16.6, "windspeed": 14.1, "winddir": 134.5, "pressure": 1023.1, "cloudcover": 0.0, "visibility": 9.8, "solarradiation": 224.6, "solarenergy": 19.4, "uvindex": 7.0, "sunrise": "07:37:26", "sunriseEpoch": 1474897046, "sunset": "19:34:06", "sunsetEpoch": 1474940046, "moonphase": 0.91, "conditions": "Clear", "description": "Clear conditions throughout the day.", "icon": "clear-day", "stations": ["KBOI", "KEUL", "99999904127", "KMAN", "72681394195", "72681024131"], "source": "obs"}], "stations": {"KBOI": {"distance": 8969.0, "latitude": 43.57, "longitude": -116.22, "useCount": 0, "id": "KBOI", "name": "KBOI", "quality": 100, "contribution": 0.0}, "KEUL": {"distance": 29528.0, "latitude": 43.63, "longitude": -116.63, "useCount": 0, "id": "KEUL", "name": "CALDWELL (AWOS), ID", "quality": 100, "contribution": 0.0}, "99999904127": {"distance": 62809.0, "latitude": 43.204, "longitude": -116.751, "useCount": 0, "id": "99999904127", "name": "MURPHY 10 W, ID US", "quality": 100, "contribution": 0.0}, "KMAN": {"distance": 21829.0, "latitude": 43.58, "longitude": -116.52, "useCount": 0, "id": "KMAN", "name": "KMAN", "quality": 99, "contribution": 0.0}, "72681394195": {"distance": 29731.0, "latitude": 43.65, "longitude": -116.633, "useCount": 0, "id": "72681394195", "name": "CALDWELL INDUSTRIAL AIRPORT, ID US", "quality": 100, "contribution": 0.0}, "72681024131": {"distance": 8813.0, "latitude": 43.567, "longitude": -116.241, "useCount": 0, "id": "72681024131", "name": "BOISE AIR TERMINAL, ID US", "quality": 100, "contribution": 0.0}}}