{"queryCost": 1, "latitude": 29.725, "longitude": -95.442, "resolvedAddress": "29.72500,-95.44200", "address": "29.72500,-95.44200", "timezone": "America/Chicago", "tzoffset": -5.0, "days": [{"datetime": "2016-09-26", "datetimeEpoch": 1474866000, "tempmax": 87.8, "tempmin": 73.5, "temp": 78.4, "feelslikemax": 94.2, "feelslikemin": 73.5, "feelslike": 80.5, "dew": 71.5, "humidity": 80.5, "precip": 0.26, "precipprob": 100.0, "precipcover": 4.17, "preciptype": ["rain"], "snow": 0.0, "snowdepth": 0.0, "windgust": null, "windspeed": 10.9, "winddir": 243.8, "pressure": 1016.4, "cloudcover": 52.1, "visibility": 9.6, "solarradiation": 135.8, "solarenergy": 11.9, "uvindex": 4.0, "sunrise": "07:12:31", "sunriseEpoch": 1474891951, "sunset": "19:12:47", "sunsetEpoch": 1474935167, "moonphase": 0.91, "conditions": "Rain, Partially cloudy", "description": "Partly cloudy throughout the day with late afternoon rain.", "icon": "rain", "stations": ["KHOU", "72254312977", "KSGR", "72059400188", "72244012918", "KMCJ"], "source": "obs"}], "stations": {"KHOU": {"distance": 18903.0, "latitude": 29.63, "longitude": -95.28, "useCount": 0, "id": "KHOU", "name": "KHOU", "quality": 100, "contribution": 0.0}, "72254312977": {"distance": 23727.0, "latitude": 29.622, "longitude": -95.657, "useCount": 0, "id": "72254312977", "name": "HOUSTON SUGARLAND MEM, TX US", "quality": 100, "contribution": 0.0}, "KSGR": {"distance": 24108.0, "latitude": 29.62, "longitude": -95.66, "useCount": 0, "id": "KSGR", "name": "KSGR", "quality": 100, "contribution": 0.0}, "72059400188": {"distance": 5773.0, "latitude": 29.717, "longitude": -95.383, "useCount": 0, "id": "72059400188", "name": "HOUSTON DUNN HELISTOP, TX US", "quality": 100, "contribution": 0.0}, "72244012918": {"distance": 18257.0, "latitude": 29.638, "longitude": -95.282, "useCount": 0, "id": "72244012918", "name": "HOUSTON WILLIAM P HOBBY AIRPORT, TX US", "quality": 100, "contribution": 0.0}, "KMCJ": {"distance": 4390.0, "latitude": 29.71, "longitude": -95.4, "useCount": 0, "id": "KMCJ", "name": "KMCJ", "quality": 82, "contribution": 0.0}}}