{"queryCost": 1, "latitude": 35.213, "longitude": -114.04, "resolvedAddress": "35.21300,-114.04000", "address": "35.21300,-114.04000", "timezone": "America/Phoenix", "tzoffset": -7.0, "days": [{"datetime": "2016-09-29", "datetimeEpoch": 1475132400, "tempmax": 86.5, "tempmin": 63.5, "temp": 75.2, "feelslikemax": 83.6, "feelslikemin": 63.5, "feelslike": 74.5, "dew": 48.0, "humidity": 39.5, "precip": 0.0, "precipprob": 0.0, "precipcover": 0.0, "preciptype": null, "snow": 0.0, "snowdepth": 0.0, "windgust": 25.1, "windspeed": 15.3, "winddir": 159.2, "pressure": 1015.1, "cloudcover": 58.6, "visibility": 9.9, "solarradiation": 234.0, "solarenergy": 20.2, "uvindex": 8.0, "sunrise": "06:29:49", "sunriseEpoch": 1475155789, "sunset": "18:22:07", "sunsetEpoch": 1475198527, "moonphase": 0.99, "conditions": "Partially cloudy", "description": "Partly cloudy throughout the day.", "icon": "partly-cloudy-day", "stations": ["72370093167", "KIGM", "KEED", "KIFP", "KHII", "72380523179"], "source": "obs"}], "stations": {"72370093167": {"distance": 10928.0, "latitude": 35.258, "longitude": -113.933, "useCount": 0, "id": "72370093167", "name": "KINGMAN AIRPORT, AZ US", "quality": 100, "contribution": 0.0}, "KIGM": {"distance": 10355.0, "latitude": 35.27, "longitude": -113.95, "useCount": 0, "id": "KIGM", "name": "KIGM", "quality": 100, "contribution": 0.0}, "KEED": {"distance": 72317.0, "latitude": 34.77, "longitude": -114.62, "useCount": 0, "id": "KEED", "name": "KEED", "quality": 100, "contribution": 0.0}, "KIFP": {"distance": 47829.0, "latitude": 35.15, "longitude": -114.56, "useCount": 0, "id": "KIFP", "name": "KIFP", "quality": 39, "contribution": 0.0}, "KHII": {"distance": 77312.0, "latitude": 34.57, "longitude": -114.36, "useCount": 0, "id": "KHII", "name": "KHII", "quality": 100, "contribution": 0.0}, "72380523179": {"distance": 72441.0, "latitude": 34.768, "longitude": -114.619, "useCount": 0, "id": "72380523179", "name": "NEEDLES AIRPORT, CA US", "quality": 100, "contribution": 0.0}}}