{"queryCost": 1, "latitude": 33.939, "longitude": -118.307, "resolvedAddress": "33.93900,-118.30700", "address": "33.93900,-118.30700", "timezone": "America/Los_Angeles", "tzoffset": -7.0, "days": [{"datetime": "2016-10-01", "datetimeEpoch": 1475305200, "tempmax": 78.0, "tempmin": 65.9, "temp": 70.5, "feelslikemax": 78.0, "feelslikemin": 65.9, "feelslike": 70.5, "dew": 62.0, "humidity": 75.2, "precip": 0.0, "precipprob": 0.0, "precipcover": 0.0, "preciptype": null, "snow": 0.0, "snowdepth": 0.0, "windgust": null, "windspeed": 12.6, "winddir": 195.5, "pressure": 1014.5, "cloudcover": 0.7, "visibility": 9.7, "solarradiation": 249.1, "solarenergy": 21.4, "uvindex": 8.0, "sunrise": "06:48:03", "sunriseEpoch": 1475329683, "sunset": "18:36:45", "sunsetEpoch": 1475372205, "moonphase": 0.0, "conditions": "Clear", "description": "Clear conditions throughout the day.", "icon": "clear-day", "stations": ["KHHR", "72295023174", "72295603167", "KLAX", "72287493134"], "source": "obs"}], "stations": {"72295603167": {"distance": 3078.0, "latitude": 33.923, "longitude": -118.334, "useCount": 0, "id": "72295603167", "name": "HAWTHORNE MUNICIPAL AIRPORT, CA US", "quality": 100, "contribution": 0.0}, "KLAX": {"distance": 8648.0, "latitude": 33.93, "longitude": -118.4, "useCount": 0, "id": "KLAX", "name": "KLAX", "quality": 100, "contribution": 0.0}, "KHHR": {"distance": 2998.0, "latitude": 33.92, "longitude": -118.33, "useCount": 0, "id": "KHHR", "name": "KHHR", "quality": 100, "contribution": 0.0}, "72287493134": {"distance": 9533.0, "latitude": 34.024, "longitude": -118.291, "useCount": 0, "id": "72287493134", "name": "LOS ANGELES DOWNTOWN USC, CA US", "quality": 100, "contribution": 0.0}, "72295023174": {"distance": 7574.0, "latitude": 33.938, "longitude": -118.389, "useCount": 0, "id": "72295023174", "name": "LOS ANGELES INTERNATIONAL AIRPORT, CA US", "quality": 100, "contribution": 0.0}}}