{"queryCost": 1, "latitude": 39.951, "longitude": -82.848, "resolvedAddress": "39.95100,-82.84800", "address": "39.95100,-82.84800", "timezone": "America/New_York", "tzoffset": -4.0, "days": [{"datetime": "2016-09-30", "datetimeEpoch": 1475208000, "tempmax": 64.1, "tempmin": 60.6, "temp": 61.8, "feelslikemax": 64.1, "feelslikemin": 60.6, "feelslike": 61.8, "dew": 61.3, "humidity": 98.0, "precip": 1.04, "precipprob": 100.0, "precipcover": 37.5, "preciptype": ["rain"], "snow": 0.0, "snowdepth": 0.0, "windgust": 26.6, "windspeed": 14.8, "winddir": 107.3, "pressure": 1016.6, "cloudcover": 99.1, "visibility": 8.6, "solarradiation": 94.2, "solarenergy": 8.1, "uvindex": 4.0, "sunrise": "07:27:07", "sunriseEpoch": 1475234827, "sunset": "19:14:36", "sunsetEpoch": 1475277276, "moonphase": 1.0, "conditions": "Rain, Overcast", "description": "Cloudy skies throughout the day with rain.", "icon": "rain", "stations": ["KCMH", "KOSU", "KLHQ", "72428804804", "72429453844", "72428014821"], "source": "obs"}], "stations": {"KCMH": {"distance": 6100.0, "latitude": 40.0, "longitude": -82.88, "useCount": 0, "id": "KCMH", "name": "KCMH", "quality": 100, "contribution": 0.0}, "KOSU": {"distance": 23758.0, "latitude": 40.08, "longitude": -83.07, "useCount": 0, "id": "KOSU", "name": "KOSU", "quality": 100, "contribution": 0.0}, "KLHQ": {"distance": 26649.0, "latitude": 39.76, "longitude": -82.66, "useCount": 0, "id": "KLHQ", "name": "KLHQ", "quality": 100, "contribution": 0.0}, "72428804804": {"distance": 24188.0, "latitude": 40.078, "longitude": -83.078, "useCount": 0, "id": "72428804804", "name": "COLUMBUS OHIO STATE UNIVERSITY AIRPORT, OH US", "quality": 100, "contribution": 0.0}, "72429453844": {"distance": 27185.0, "latitude": 39.756, "longitude": -82.657, "useCount": 0, "id": "72429453844", "name": "LANCASTER FAIRFIELD CO AIRPORT, OH US", "quality": 100, "contribution": 0.0}, "72428014821": {"distance": 5065.0, "latitude": 39.991, "longitude": -82.877, "useCount": 0, "id": "72428014821", "name": "PORT COLUMBUS INTERNATIONAL AIRPORT, OH US", "quality": 100, "contribution": 0.0}}}