{"queryCost": 1, "latitude": 47.343, "longitude": -122.296, "resolvedAddress": "47.34300,-122.29600", "address": "47.34300,-122.29600", "timezone": "America/Los_Angeles", "tzoffset": -7.0, "days": [{"datetime": "2016-10-08", "datetimeEpoch": 1475910000, "tempmax": 66.1, "tempmin": 52.4, "temp": 58.6, "feelslikemax": 66.1, "feelslikemin": 52.4, "feelslike": 58.6, "dew": 55.5, "humidity": 89.8, "precip": 0.5, "precipprob": 100.0, "precipcover": 58.33, "preciptype": ["rain"], "snow": 0.0, "snowdepth": 0.0, "windgust": 26.4, "windspeed": 17.1, "winddir": 158.9, "pressure": 1012.6, "cloudcover": 99.8, "visibility": 7.4, "solarradiation": 57.8, "solarenergy": 4.9, "uvindex": 2.0, "sunrise": "07:18:35", "sunriseEpoch": 1475936315, "sunset": "18:33:39", "sunsetEpoch": 1475976819, "moonphase": 0.22, "conditions": "Rain, Overcast", "description": "Cloudy skies throughout the day with a chance of rain throughout the day.", "icon": "rain", "stations": ["72793024233", "KSEA", "KBFI", "72793524234", "72793494248", "KRNT"], "source": "obs"}], "stations": {"72793024233": {"distance": 11369.0, "latitude": 47.444, "longitude": -122.314, "useCount": 0, "id": "72793024233", "name": "SEATTLE TACOMA AIRPORT, WA US", "quality": 100, "contribution": 0.0}, "KSEA": {"distance": 11915.0, "latitude": 47.45, "longitude": -122.3, "useCount": 0, "id": "KSEA", "name": "KSEA", "quality": 100, "contribution": 0.0}, "KBFI": {"distance": 20819.0, "latitude": 47.53, "longitude": -122.3, "useCount": 0, "id": "KBFI", "name": "KBFI", "quality": 100, "contribution": 0.0}, "72793524234": {"distance": 20854.0, "latitude": 47.53, "longitude": -122.301, "useCount": 0, "id": "72793524234", "name": "SEATTLE BOEING FIELD, WA US", "quality": 100, "contribution": 0.0}, "72793494248": {"distance": 17835.0, "latitude": 47.493, "longitude": -122.214, "useCount": 0, "id": "72793494248", "name": "RENTON MUNICIPAL AIRPORT, WA US", "quality": 100, "contribution": 0.0}, "KRNT": {"distance": 18391.0, "latitude": 47.5, "longitude": -122.22, "useCount": 0, "id": "KRNT", "name": "KRNT", "quality": 100, "contribution": 0.0}}}