{"queryCost": 1, "latitude": 33.668, "longitude": -111.961, "resolvedAddress": "33.66800,-111.96100", "address": "33.66800,-111.96100", "timezone": "America/Phoenix", "tzoffset": -7.0, "days": [{"datetime": "2016-10-09", "datetimeEpoch": 1475996400, "tempmax": 93.0, "tempmin": 72.0, "temp": 82.8, "feelslikemax": 89.7, "feelslikemin": 72.0, "feelslike": 81.3, "dew": 48.5, "humidity": 31.4, "precip": 0.0, "precipprob": 0.0, "precipcover": 0.0, "preciptype": null, "snow": 0.0, "snowdepth": 0.0, "windgust": null, "windspeed": 6.2, "winddir": 92.0, "pressure": 1012.6, "cloudcover": 1.1, "visibility": 9.9, "solarradiation": 229.1, "solarenergy": 19.6, "uvindex": 8.0, "sunrise": "06:28:26", "sunriseEpoch": 1476019706, "sunset": "18:00:53", "sunsetEpoch": 1476061253, "moonphase": 0.27, "conditions": "Clear", "description": "Clear conditions throughout the day.", "icon": "clear-day", "stations": ["72278903192", "72278403184", "KSDL", "KDVT", "72278023183", "KPHX"], "source": "obs"}], "stations": {"72278903192": {"distance": 6840.0, "latitude": 33.623, "longitude": -111.911, "useCount": 0, "id": "72278903192", "name": "SCOTTSDALE MUNICIPAL AIRPORT, AZ US", "quality": 100, "contribution": 0.0}, "72278403184": {"distance": 11435.0, "latitude": 33.688, "longitude": -112.082, "useCount": 0, "id": "72278403184", "name": "PHOENIX DEER VALLEY MUNICIPAL AIRPORT, AZ US", "quality": 100, "contribution": 0.0}, "KSDL": {"distance": 7492.0, "latitude": 33.61, "longitude": -111.92, "useCount": 0, "id": "KSDL", "name": "KSDL", "quality": 100, "contribution": 0.0}, "KDVT": {"distance": 10186.0, "latitude": 33.68, "longitude": -112.07, "useCount": 0, "id": "KDVT", "name": "KDVT", "quality": 100, "contribution": 0.0}, "72278023183": {"distance": 27046.0, "latitude": 33.428, "longitude": -112.004, "useCount": 0, "id": "72278023183", "name": "PHOENIX AIRPORT, AZ US", "quality": 100, "contribution": 0.0}, "KPHX": {"distance": 27054.0, "latitude": 33.43, "longitude": -112.02, "useCount": 0, "id": "KPHX", "name": "KPHX", "quality": 100, "contribution": 0.0}}}