{"queryCost": 1, "latitude": 37.665, "longitude": -120.968, "resolvedAddress": "37.66500,-120.96800", "address": "37.66500,-120.96800", "timezone": "America/Los_Angeles", "tzoffset": -7.0, "days": [{"datetime": "2016-10-08", "datetimeEpoch": 1475910000, "tempmax": 89.1, "tempmin": 50.0, "temp": 67.7, "feelslikemax": 85.2, "feelslikemin": 49.4, "feelslike": 66.8, "dew": 44.5, "humidity": 51.2, "precip": 0.0, "precipprob": 0.0, "precipcover": 0.0, "preciptype": null, "snow": 0.0, "snowdepth": 0.0, "windgust": null, "windspeed": 6.8, "winddir": 152.6, "pressure": 1012.5, "cloudcover": 7.2, "visibility": 9.9, "solarradiation": 224.5, "solarenergy": 19.4, "uvindex": 8.0, "sunrise": "07:06:09", "sunriseEpoch": 1475935569, "sunset": "18:35:40", "sunsetEpoch": 1475976940, "moonphase": 0.22, "conditions": "Clear", "description": "Clear conditions throughout the day.", "icon": "clear-day", "stations": ["KSCK", "KMOD", "72492623258", "72492023237", "72481523257", "99999993243"], "source": "obs"}], "stations": {"KSCK": {"distance": 36054.0, "latitude": 37.9, "longitude": -121.25, "useCount": 0, "id": "KSCK", "name": "KSCK", "quality": 100, "contribution": 0.0}, "KMOD": {"distance": 4207.0, "latitude": 37.63, "longitude": -120.95, "useCount": 0, "id": "KMOD", "name": "KMOD", "quality": 100, "contribution": 0.0}, "72492623258": {"distance": 4793.0, "latitude": 37.624, "longitude": -120.951, "useCount": 0, "id": "72492623258", "name": "MODESTO CITY CO AIRPORT, CA US", "quality": 100, "contribution": 0.0}, "72492023237": {"distance": 33729.0, "latitude": 37.889, "longitude": -121.226, "useCount": 0, "id": "72492023237", "name": "STOCKTON METROPOLITAN AIRPORT, CA US", "quality": 100, "contribution": 0.0}, "72481523257": {"distance": 58378.0, "latitude": 37.285, "longitude": -120.513, "useCount": 0, "id": "72481523257", "name": "MERCED MUNICIPAL AIRPORT, CA US", "quality": 100, "contribution": 0.0}, "99999993243": {"distance": 48126.0, "latitude": 37.238, "longitude": -120.882, "useCount": 0, "id": "99999993243", "name": "MERCED 23 WSW, CA US", "quality": 100, "contribution": 0.0}}}