{"queryCost": 1, "latitude": 47.384, "longitude": -122.226, "resolvedAddress": "47.38400,-122.22600", "address": "47.38400,-122.22600", "timezone": "America/Los_Angeles", "tzoffset": -7.0, "days": [{"datetime": "2016-10-13", "datetimeEpoch": 1476342000, "tempmax": 58.6, "tempmin": 51.3, "temp": 54.0, "feelslikemax": 58.6, "feelslikemin": 51.3, "feelslike": 54.0, "dew": 50.9, "humidity": 89.7, "precip": 1.32, "precipprob": 100.0, "precipcover": 95.83, "preciptype": ["rain"], "snow": 0.0, "snowdepth": 0.0, "windgust": 24.1, "windspeed": 14.9, "winddir": 114.1, "pressure": 1001.5, "cloudcover": 100.0, "visibility": 6.7, "solarradiation": 32.2, "solarenergy": 2.8, "uvindex": 1.0, "sunrise": "07:25:24", "sunriseEpoch": 1476368724, "sunset": "18:23:44", "sunsetEpoch": 1476408224, "moonphase": 0.45, "conditions": "Rain, Overcast", "description": "Cloudy skies throughout the day with a chance of rain throughout the day.", "icon": "rain", "stations": ["72793024233", "KSEA", "KBFI", "72793524234", "72793494248", "KRNT"], "source": "obs"}], "stations": {"72793024233": {"distance": 9442.0, "latitude": 47.444, "longitude": -122.314, "useCount": 0, "id": "72793024233", "name": "SEATTLE TACOMA AIRPORT, WA US", "quality": 100, "contribution": 0.0}, "KSEA": {"distance": 9222.0, "latitude": 47.45, "longitude": -122.3, "useCount": 0, "id": "KSEA", "name": "KSEA", "quality": 100, "contribution": 0.0}, "KBFI": {"distance": 17181.0, "latitude": 47.53, "longitude": -122.3, "useCount": 0, "id": "KBFI", "name": "KBFI", "quality": 100, "contribution": 0.0}, "72793524234": {"distance": 17237.0, "latitude": 47.53, "longitude": -122.301, "useCount": 0, "id": "72793524234", "name": "SEATTLE BOEING FIELD, WA US", "quality": 100, "contribution": 0.0}, "72793494248": {"distance": 12201.0, "latitude": 47.493, "longitude": -122.214, "useCount": 0, "id": "72793494248", "name": "RENTON MUNICIPAL AIRPORT, WA US", "quality": 100, "contribution": 0.0}, "KRNT": {"distance": 12921.0, "latitude": 47.5, "longitude": -122.22, "useCount": 0, "id": "KRNT", "name": "KRNT", "quality": 100, "contribution": 0.0}}}