{"queryCost": 1, "latitude": 32.711, "longitude": -96.821, "resolvedAddress": "32.71100,-96.82100", "address": "32.71100,-96.82100", "timezone": "America/Chicago", "tzoffset": -5.0, "days": [{"datetime": "2016-10-14", "datetimeEpoch": 1476421200, "tempmax": 76.8, "tempmin": 61.3, "temp": 67.4, "feelslikemax": 76.8, "feelslikemin": 61.3, "feelslike": 67.4, "dew": 62.1, "humidity": 83.8, "precip": 0.24, "precipprob": 100.0, "precipcover": 20.83, "preciptype": ["rain"], "snow": 0.0, "snowdepth": 0.0, "windgust": null, "windspeed": 8.3, "winddir": 142.8, "pressure": 1018.9, "cloudcover": 62.0, "visibility": 9.1, "solarradiation": 82.1, "solarenergy": 7.2, "uvindex": 3.0, "sunrise": "07:30:54", "sunriseEpoch": 1476448254, "sunset": "18:54:51", "sunsetEpoch": 1476489291, "moonphase": 0.48, "conditions": "Rain, Partially cloudy", "description": "Partly cloudy throughout the day with rain clearing later.", "icon": "rain", "stations": ["KLNC", "KDAL", "72259903971", "KRBD", "72258013960", "72214353975"], "source": "obs"}], "stations": {"KLNC": {"distance": 18330.0, "latitude": 32.57, "longitude": -96.72, "useCount": 0, "id": "KLNC", "name": "KLNC", "quality": 100, "contribution": 0.0}, "KDAL": {"distance": 15710.0, "latitude": 32.85, "longitude": -96.85, "useCount": 0, "id": "KDAL", "name": "KDAL", "quality": 100, "contribution": 0.0}, "72259903971": {"distance": 5547.0, "latitude": 32.681, "longitude": -96.868, "useCount": 0, "id": "72259903971", "name": "DALLAS REDBIRD AIRPORT, TX US", "quality": 99, "contribution": 0.0}, "KRBD": {"distance": 5743.0, "latitude": 32.68, "longitude": -96.87, "useCount": 0, "id": "KRBD", "name": "KRBD", "quality": 99, "contribution": 0.0}, "72258013960": {"distance": 16014.0, "latitude": 32.852, "longitude": -96.855, "useCount": 0, "id": "72258013960", "name": "DALLAS FAA AIRPORT, TX US", "quality": 100, "contribution": 0.0}, "72214353975": {"distance": 17502.0, "latitude": 32.579, "longitude": -96.719, "useCount": 0, "id": "72214353975", "name": "LANCASTER AIRPORT, TX US", "quality": 100, "contribution": 0.0}}}