{"queryCost": 1, "latitude": 38.837, "longitude": -104.794, "resolvedAddress": "38.83700,-104.79400", "address": "38.83700,-104.79400", "timezone": "America/Denver", "tzoffset": -6.0, "days": [{"datetime": "2016-10-23", "datetimeEpoch": 1477202400, "tempmax": 69.7, "tempmin": 49.5, "temp": 58.3, "feelslikemax": 69.7, "feelslikemin": 46.6, "feelslike": 58.0, "dew": 18.3, "humidity": 21.6, "precip": 0.0, "precipprob": 0.0, "precipcover": 0.0, "preciptype": null, "snow": 0.0, "snowdepth": 0.0, "windgust": 26.4, "windspeed": 16.2, "winddir": 226.8, "pressure": 1017.1, "cloudcover": 35.8, "visibility": 9.9, "solarradiation": 194.5, "solarenergy": 16.7, "uvindex": 7.0, "sunrise": "07:17:14", "sunriseEpoch": 1477228634, "sunset": "18:08:59", "sunsetEpoch": 1477267739, "moonphase": 0.79, "conditions": "Partially cloudy", "description": "Partly cloudy throughout the day.", "icon": "partly-cloudy-day", "stations": ["74531093065", "KAFF", "72466093037", "KFCS", "KCWN", "KCOS"], "source": "obs"}], "stations": {"74531093065": {"distance": 14575.0, "latitude": 38.967, "longitude": -104.817, "useCount": 0, "id": "74531093065", "name": "COLORADO SPRINGS USAF ACADEMY, CO US", "quality": 96, "contribution": 0.0}, "KAFF": {"distance": 14976.0, "latitude": 38.97, "longitude": -104.82, "useCount": 0, "id": "KAFF", "name": "KAFF", "quality": 100, "contribution": 0.0}, "72466093037": {"distance": 9672.0, "latitude": 38.81, "longitude": -104.688, "useCount": 0, "id": "72466093037", "name": "COLORADO SPRINGS MUNICIPAL AIRPORT, CO US", "quality": 100, "contribution": 0.0}, "KFCS": {"distance": 17601.0, "latitude": 38.68, "longitude": -104.77, "useCount": 0, "id": "KFCS", "name": "KFCS", "quality": 100, "contribution": 0.0}, "KCWN": {"distance": 10835.0, "latitude": 38.75, "longitude": -104.85, "useCount": 0, "id": "KCWN", "name": "KCWN", "quality": 90, "contribution": 0.0}, "KCOS": {"distance": 6691.0, "latitude": 38.82, "longitude": -104.72, "useCount": 0, "id": "KCOS", "name": "KCOS", "quality": 100, "contribution": 0.0}}}