{"queryCost": 1, "latitude": 39.599, "longitude": -75.821, "resolvedAddress": "39.59900,-75.82100", "address": "39.59900,-75.82100", "timezone": "America/New_York", "tzoffset": -4.0, "days": [{"datetime": "2016-10-25", "datetimeEpoch": 1477368000, "tempmax": 55.6, "tempmin": 37.3, "temp": 47.8, "feelslikemax": 55.6, "feelslikemin": 33.4, "feelslike": 45.7, "dew": 33.6, "humidity": 58.8, "precip": 0.0, "precipprob": 0.0, "precipcover": 0.0, "preciptype": null, "snow": 0.0, "snowdepth": 0.0, "windgust": 26.4, "windspeed": 19.9, "winddir": 287.8, "pressure": 1025.2, "cloudcover": 27.4, "visibility": 9.8, "solarradiation": 175.0, "solarenergy": 15.0, "uvindex": 6.0, "sunrise": "07:24:26", "sunriseEpoch": 1477394666, "sunset": "18:09:32", "sunsetEpoch": 1477433372, "moonphase": 0.89, "conditions": "Partially cloudy", "description": "Partly cloudy throughout the day.", "icon": "partly-cloudy-day", "stations": ["72418013781", "99999903761", "KILG", "72040800136", "KAPG"], "source": "obs"}], "stations": {"KILG": {"distance": 21759.0, "latitude": 39.68, "longitude": -75.59, "useCount": 0, "id": "KILG", "name": "KILG", "quality": 100, "contribution": 0.0}, "72418013781": {"distance": 20276.0, "latitude": 39.674, "longitude": -75.606, "useCount": 0, "id": "72418013781", "name": "WILMINGTON NEW CASTLE CO AIRPORT, DE US", "quality": 100, "contribution": 0.0}, "72040800136": {"distance": 42927.0, "latitude": 39.983, "longitude": -75.867, "useCount": 0, "id": "72040800136", "name": "CHESTER CO GO CARLSON AIRPORT, PA US", "quality": 100, "contribution": 0.0}, "99999903761": {"distance": 29130.0, "latitude": 39.859, "longitude": -75.786, "useCount": 0, "id": "99999903761", "name": "AVONDALE 2 N, PA US", "quality": 100, "contribution": 0.0}, "KAPG": {"distance": 33227.0, "latitude": 39.47, "longitude": -76.17, "useCount": 0, "id": "KAPG", "name": "KAPG", "quality": 100, "contribution": 0.0}}}