{"queryCost": 1, "latitude": 32.984, "longitude": -96.919, "resolvedAddress": "32.98400,-96.91900", "address": "32.98400,-96.91900", "timezone": "America/Chicago", "tzoffset": -5.0, "days": [{"datetime": "2016-10-26", "datetimeEpoch": 1477458000, "tempmax": 84.4, "tempmin": 64.9, "temp": 74.5, "feelslikemax": 84.4, "feelslikemin": 64.9, "feelslike": 74.6, "dew": 60.0, "humidity": 62.3, "precip": 0.0, "precipprob": 0.0, "precipcover": 0.0, "preciptype": null, "snow": 0.0, "snowdepth": 0.0, "windgust": 25.3, "windspeed": 15.4, "winddir": 168.6, "pressure": 1018.7, "cloudcover": 50.7, "visibility": 9.9, "solarradiation": 189.7, "solarenergy": 16.5, "uvindex": 7.0, "sunrise": "07:41:02", "sunriseEpoch": 1477485662, "sunset": "18:41:36", "sunsetEpoch": 1477525296, "moonphase": 0.93, "conditions": "Partially cloudy", "description": "Partly cloudy throughout the day.", "icon": "partly-cloudy-day", "stations": ["KDAL", "72259003927", "72259903971", "KDFW", "KGPM", "72258013960"], "source": "obs"}], "stations": {"KDAL": {"distance": 16251.0, "latitude": 32.85, "longitude": -96.85, "useCount": 0, "id": "KDAL", "name": "KDAL", "quality": 100, "contribution": 0.0}, "72259003927": {"distance": 13386.0, "latitude": 32.898, "longitude": -97.019, "useCount": 0, "id": "72259003927", "name": "DAL FTW WSCMO AIRPORT, TX US", "quality": 100, "contribution": 0.0}, "72259903971": {"distance": 34086.0, "latitude": 32.681, "longitude": -96.868, "useCount": 0, "id": "72259903971", "name": "DALLAS REDBIRD AIRPORT, TX US", "quality": 99, "contribution": 0.0}, "KDFW": {"distance": 13963.0, "latitude": 32.9, "longitude": -97.03, "useCount": 0, "id": "KDFW", "name": "KDFW", "quality": 100, "contribution": 0.0}, "KGPM": {"distance": 33906.0, "latitude": 32.7, "longitude": -97.05, "useCount": 0, "id": "KGPM", "name": "KGPM", "quality": 98, "contribution": 0.0}, "72258013960": {"distance": 15857.0, "latitude": 32.852, "longitude": -96.855, "useCount": 0, "id": "72258013960", "name": "DALLAS FAA AIRPORT, TX US", "quality": 100, "contribution": 0.0}}}