{"queryCost": 1, "latitude": 29.493, "longitude": -98.44, "resolvedAddress": "29.49300,-98.44000", "address": "29.49300,-98.44000", "timezone": "America/Chicago", "tzoffset": -5.0, "days": [{"datetime": "2016-10-27", "datetimeEpoch": 1477544400, "tempmax": 83.6, "tempmin": 64.0, "temp": 73.4, "feelslikemax": 84.1, "feelslikemin": 64.0, "feelslike": 73.6, "dew": 62.2, "humidity": 70.0, "precip": 0.0, "precipprob": 0.0, "precipcover": 0.0, "preciptype": null, "snow": 0.0, "snowdepth": 0.0, "windgust": null, "windspeed": 7.4, "winddir": 157.8, "pressure": 1020.5, "cloudcover": 33.3, "visibility": 9.7, "solarradiation": 208.9, "solarenergy": 17.9, "uvindex": 7.0, "sunrise": "07:43:39", "sunriseEpoch": 1477572219, "sunset": "18:51:02", "sunsetEpoch": 1477612262, "moonphase": 0.96, "conditions": "Partially cloudy", "description": "Partly cloudy throughout the day.", "icon": "partly-cloudy-day", "stations": ["72253612911", "KSAT", "KSSF", "72253012921", "72252312970", "KRND"], "source": "obs"}], "stations": {"72253612911": {"distance": 17767.0, "latitude": 29.533, "longitude": -98.262, "useCount": 0, "id": "72253612911", "name": "RANDOLPH AFB, TX US", "quality": 99, "contribution": 0.0}, "KSAT": {"distance": 5041.0, "latitude": 29.53, "longitude": -98.47, "useCount": 0, "id": "KSAT", "name": "KSAT", "quality": 100, "contribution": 0.0}, "KSSF": {"distance": 18377.0, "latitude": 29.33, "longitude": -98.47, "useCount": 0, "id": "KSSF", "name": "KSSF", "quality": 100, "contribution": 0.0}, "72253012921": {"distance": 7120.0, "latitude": 29.544, "longitude": -98.484, "useCount": 0, "id": "72253012921", "name": "SAN ANTONIO INTERNATIONAL AIRPORT, TX US", "quality": 100, "contribution": 0.0}, "72252312970": {"distance": 17433.0, "latitude": 29.339, "longitude": -98.472, "useCount": 0, "id": "72252312970", "name": "SAN ANTONIO STINSON MUNICIPAL AIRPORT, TX US", "quality": 100, "contribution": 0.0}, "KRND": {"distance": 16038.0, "latitude": 29.53, "longitude": -98.28, "useCount": 0, "id": "KRND", "name": "KRND", "quality": 100, "contribution": 0.0}}}