{"queryCost": 1, "latitude": 42.968, "longitude": -87.904, "resolvedAddress": "42.96800,-87.90400", "address": "42.96800,-87.90400", "timezone": "America/Chicago", "tzoffset": -6.0, "days": [{"datetime": "2015-03-05", "datetimeEpoch": 1425535200, "tempmax": 16.1, "tempmin": 3.8, "temp": 9.9, "feelslikemax": 6.3, "feelslikemin": -9.5, "feelslike": -2.0, "dew": -7.9, "humidity": 44.1, "precip": 0.0, "precipprob": 0.0, "precipcover": 0.0, "preciptype": null, "snow": 0.0, "snowdepth": 9.7, "windgust": null, "windspeed": 11.4, "winddir": 297.1, "pressure": 1032.5, "cloudcover": 20.2, "visibility": 9.9, "solarradiation": 217.4, "solarenergy": 18.8, "uvindex": 8.0, "sunrise": "06:21:13", "sunriseEpoch": 1425558073, "sunset": "17:45:42", "sunsetEpoch": 1425599142, "moonphase": 0.5, "conditions": "Partially cloudy", "description": "Partly cloudy throughout the day.", "icon": "partly-cloudy-day", "stations": ["KENW", "72640014839", "72650504845", "KRAC", "KMKE", "72642494818"], "source": "obs"}], "stations": {"KENW": {"distance": 41021.0, "latitude": 42.6, "longitude": -87.93, "useCount": 0, "id": "KENW", "name": "KENW", "quality": 100, "contribution": 0.0}, "72640014839": {"distance": 1448.0, "latitude": 42.955, "longitude": -87.904, "useCount": 0, "id": "72640014839", "name": "MILWAUKEE MITCHELL INTERNATIONAL AIRPORT, WI US", "quality": 100, "contribution": 0.0}, "72650504845": {"distance": 41616.0, "latitude": 42.595, "longitude": -87.938, "useCount": 0, "id": "72650504845", "name": "KENOSHA REGIONAL AIRPORT, WI US", "quality": 100, "contribution": 0.0}, "KRAC": {"distance": 24392.0, "latitude": 42.76, "longitude": -87.81, "useCount": 0, "id": "KRAC", "name": "KRAC", "quality": 100, "contribution": 0.0}, "KMKE": {"distance": 2030.0, "latitude": 42.95, "longitude": -87.9, "useCount": 0, "id": "KMKE", "name": "KMKE", "quality": 100, "contribution": 0.0}, "72642494818": {"distance": 24184.0, "latitude": 42.761, "longitude": -87.814, "useCount": 0, "id": "72642494818", "name": "RACINE BATTEN AIRPORT, WI US", "quality": 100, "contribution": 0.0}}}