{"queryCost": 1, "latitude": 40.875, "longitude": -96.682, "resolvedAddress": "40.87500,-96.68200", "address": "40.87500,-96.68200", "timezone": "America/Chicago", "tzoffset": -6.0, "days": [{"datetime": "2015-03-05", "datetimeEpoch": 1425535200, "tempmax": 34.8, "tempmin": 0.1, "temp": 17.7, "feelslikemax": 26.0, "feelslikemin": -7.9, "feelslike": 9.2, "dew": 2.2, "humidity": 53.6, "precip": 0.0, "precipprob": 0.0, "precipcover": 0.0, "preciptype": null, "snow": 0.0, "snowdepth": 0.1, "windgust": 20.7, "windspeed": 16.1, "winddir": 212.8, "pressure": 1033.5, "cloudcover": 6.1, "visibility": 9.9, "solarradiation": 223.9, "solarenergy": 19.4, "uvindex": 8.0, "sunrise": "06:54:49", "sunriseEpoch": 1425560089, "sunset": "18:22:15", "sunsetEpoch": 1425601335, "moonphase": 0.5, "conditions": "Clear", "description": "Clear conditions throughout the day.", "icon": "clear-day", "stations": ["72094200323", "99999994995", "99999994996", "72551014939", "KAHQ", "KLNK"], "source": "obs"}], "stations": {"72094200323": {"distance": 40442.0, "latitude": 41.233, "longitude": -96.6, "useCount": 0, "id": "72094200323", "name": "WAHOO MUNICIPAL AIRPORT, NE US", "quality": 100, "contribution": 0.0}, "99999994995": {"distance": 10278.0, "latitude": 40.848, "longitude": -96.565, "useCount": 0, "id": "99999994995", "name": "LINCOLN 8 ENE, NE US", "quality": 100, "contribution": 0.0}, "99999994996": {"distance": 24701.0, "latitude": 40.695, "longitude": -96.854, "useCount": 0, "id": "99999994996", "name": "LINCOLN 11 SW, NE US", "quality": 100, "contribution": 0.0}, "72551014939": {"distance": 6137.0, "latitude": 40.851, "longitude": -96.747, "useCount": 0, "id": "72551014939", "name": "LINCOLN AIRPORT, NE US", "quality": 100, "contribution": 0.0}, "KAHQ": {"distance": 40113.0, "latitude": 41.23, "longitude": -96.6, "useCount": 0, "id": "KAHQ", "name": "KAHQ", "quality": 100, "contribution": 0.0}, "KLNK": {"distance": 6365.0, "latitude": 40.85, "longitude": -96.75, "useCount": 0, "id": "KLNK", "name": "KLNK", "quality": 100, "contribution": 0.0}}}