{"queryCost": 1, "latitude": 34.128, "longitude": -117.913, "resolvedAddress": "34.12800,-117.91300", "address": "34.12800,-117.91300", "timezone": "America/Los_Angeles", "tzoffset": -8.0, "days": [{"datetime": "2016-11-08", "datetimeEpoch": 1478592000, "tempmax": 94.7, "tempmin": 57.4, "temp": 73.3, "feelslikemax": 90.0, "feelslikemin": 57.4, "feelslike": 72.1, "dew": 43.1, "humidity": 40.8, "precip": 0.0, "precipprob": 0.0, "precipcover": 0.0, "preciptype": null, "snow": 0.0, "snowdepth": 0.0, "windgust": null, "windspeed": 7.4, "winddir": 115.3, "pressure": 1016.7, "cloudcover": 15.3, "visibility": 9.0, "solarradiation": 179.8, "solarenergy": 15.5, "uvindex": 7.0, "sunrise": "06:18:21", "sunriseEpoch": 1478614701, "sunset": "16:52:06", "sunsetEpoch": 1478652726, "moonphase": 0.28, "conditions": "Clear", "description": "Clear conditions throughout the day.", "icon": "clear-day", "stations": ["KFUL", "72289903179", "KONT", "KCNO", "74704003102", "72297603166"], "source": "obs"}], "stations": {"KFUL": {"distance": 30468.0, "latitude": 33.86, "longitude": -117.98, "useCount": 0, "id": "KFUL", "name": "KFUL", "quality": 100, "contribution": 0.0}, "72289903179": {"distance": 30686.0, "latitude": 33.975, "longitude": -117.636, "useCount": 0, "id": "72289903179", "name": "CHINO AIRPORT, CA US", "quality": 100, "contribution": 0.0}, "KONT": {"distance": 30475.0, "latitude": 34.04, "longitude": -117.6, "useCount": 0, "id": "KONT", "name": "KONT", "quality": 100, "contribution": 0.0}, "KCNO": {"distance": 31475.0, "latitude": 33.97, "longitude": -117.63, "useCount": 0, "id": "KCNO", "name": "KCNO", "quality": 100, "contribution": 0.0}, "74704003102": {"distance": 29944.0, "latitude": 34.056, "longitude": -117.6, "useCount": 0, "id": "74704003102", "name": "ONTARIO INTERNATIONAL AIRPORT, CA US", "quality": 100, "contribution": 0.0}, "72297603166": {"distance": 29152.0, "latitude": 33.872, "longitude": -117.979, "useCount": 0, "id": "72297603166", "name": "FULLERTON MUNICIPAL AIRPORT, CA US", "quality": 100, "contribution": 0.0}}}