{"queryCost": 1, "latitude": 38.468, "longitude": -108.143, "resolvedAddress": "38.46800,-108.14300", "address": "38.46800,-108.14300", "timezone": "America/Denver", "tzoffset": -7.0, "days": [{"datetime": "2016-11-11", "datetimeEpoch": 1478847600, "tempmax": 64.7, "tempmin": 34.0, "temp": 46.7, "feelslikemax": 64.7, "feelslikemin": 27.6, "feelslike": 43.4, "dew": 24.8, "humidity": 44.7, "precip": 0.0, "precipprob": 0.0, "precipcover": 0.0, "preciptype": null, "snow": 0.0, "snowdepth": 0.0, "windgust": null, "windspeed": 12.4, "winddir": 204.0, "pressure": 1025.4, "cloudcover": 0.0, "visibility": 9.9, "solarradiation": 162.4, "solarenergy": 14.0, "uvindex": 6.0, "sunrise": "06:50:33", "sunriseEpoch": 1478872233, "sunset": "17:02:20", "sunsetEpoch": 1478908940, "moonphase": 0.43, "conditions": "Clear", "description": "Clear conditions throughout the day.", "icon": "clear-day", "stations": ["72476593013", "KAJZ", "72053100158", "72462703011", "KMTJ", "99999903060"], "source": "obs"}], "stations": {"72476593013": {"distance": 21673.0, "latitude": 38.506, "longitude": -107.899, "useCount": 0, "id": "72476593013", "name": "MONTROSE REGIONAL AIRPORT, CO US", "quality": 100, "contribution": 0.0}, "KAJZ": {"distance": 35474.0, "latitude": 38.78, "longitude": -108.06, "useCount": 0, "id": "KAJZ", "name": "KAJZ", "quality": 98, "contribution": 0.0}, "72053100158": {"distance": 35683.0, "latitude": 38.783, "longitude": -108.067, "useCount": 0, "id": "72053100158", "name": "BLAKE FIELD AIRPORT, CO US", "quality": 98, "contribution": 0.0}, "72462703011": {"distance": 61456.0, "latitude": 37.95, "longitude": -107.9, "useCount": 0, "id": "72462703011", "name": "TELLURIDE REGIONAL AIRPORT, CO US", "quality": 99, "contribution": 0.0}, "KMTJ": {"distance": 21472.0, "latitude": 38.5, "longitude": -107.9, "useCount": 0, "id": "KMTJ", "name": "KMTJ", "quality": 100, "contribution": 0.0}, "99999903060": {"distance": 40103.0, "latitude": 38.544, "longitude": -107.693, "useCount": 0, "id": "99999903060", "name": "MONTROSE 11 ENE, CO US", "quality": 100, "contribution": 0.0}}}