{"queryCost": 1, "latitude": 31.708, "longitude": -81.742, "resolvedAddress": "31.70800,-81.74200", "address": "31.70800,-81.74200", "timezone": "America/New_York", "tzoffset": -5.0, "days": [{"datetime": "2016-11-18", "datetimeEpoch": 1479445200, "tempmax": 76.8, "tempmin": 44.2, "temp": 57.5, "feelslikemax": 76.8, "feelslikemin": 44.2, "feelslike": 57.5, "dew": 49.7, "humidity": 79.6, "precip": 0.0, "precipprob": 0.0, "precipcover": 0.0, "preciptype": null, "snow": 0.0, "snowdepth": 0.0, "windgust": null, "windspeed": 1.5, "winddir": 29.6, "pressure": 1021.6, "cloudcover": 18.7, "visibility": 6.1, "solarradiation": 175.0, "solarenergy": 15.2, "uvindex": 7.0, "sunrise": "06:58:14", "sunriseEpoch": 1479470294, "sunset": "17:26:00", "sunsetEpoch": 1479507960, "moonphase": 0.61, "conditions": "Clear", "description": "Clear conditions throughout the day.", "icon": "clear-day", "stations": ["72213653883", "KBQK", "74780413824", "KLHW", "KSVN", "72209003875"], "source": "obs"}], "stations": {"72213653883": {"distance": 56439.0, "latitude": 31.259, "longitude": -81.466, "useCount": 0, "id": "72213653883", "name": "BRUNSWICK GLYNCO JETPORT AIRPORT, GA US", "quality": 100, "contribution": 0.0}, "KBQK": {"distance": 57151.0, "latitude": 31.25, "longitude": -81.47, "useCount": 0, "id": "KBQK", "name": "KBQK", "quality": 100, "contribution": 0.0}, "74780413824": {"distance": 67029.0, "latitude": 32.017, "longitude": -81.133, "useCount": 0, "id": "74780413824", "name": "SAVANNAH HUNTER FIELD, GA US", "quality": 99, "contribution": 0.0}, "KLHW": {"distance": 25751.0, "latitude": 31.88, "longitude": -81.56, "useCount": 0, "id": "KLHW", "name": "KLHW", "quality": 100, "contribution": 0.0}, "KSVN": {"distance": 65870.0, "latitude": 32.02, "longitude": -81.15, "useCount": 0, "id": "KSVN", "name": "KSVN", "quality": 100, "contribution": 0.0}, "72209003875": {"distance": 25611.0, "latitude": 31.883, "longitude": -81.567, "useCount": 0, "id": "72209003875", "name": "FORT STEWART WRIGHT, GA US", "quality": 99, "contribution": 0.0}}}