{"queryCost": 1, "latitude": 29.51, "longitude": -98.598, "resolvedAddress": "29.51000,-98.59800", "address": "29.51000,-98.59800", "timezone": "America/Chicago", "tzoffset": -6.0, "days": [{"datetime": "2016-11-20", "datetimeEpoch": 1479621600, "tempmax": 65.9, "tempmin": 35.5, "temp": 49.3, "feelslikemax": 65.9, "feelslikemin": 32.1, "feelslike": 48.1, "dew": 31.7, "humidity": 55.8, "precip": 0.0, "precipprob": 0.0, "precipcover": 0.0, "preciptype": null, "snow": 0.0, "snowdepth": 0.0, "windgust": null, "windspeed": 6.9, "winddir": 211.2, "pressure": 1026.9, "cloudcover": 0.0, "visibility": 9.4, "solarradiation": 193.6, "solarenergy": 16.9, "uvindex": 7.0, "sunrise": "07:03:11", "sunriseEpoch": 1479646991, "sunset": "17:36:54", "sunsetEpoch": 1479685014, "moonphase": 0.71, "conditions": "Clear", "description": "Clear conditions throughout the day.", "icon": "clear-day", "stations": ["KSKF", "KSAT", "KSSF", "72253012921", "72252312970", "72253512909"], "source": "obs"}], "stations": {"KSKF": {"distance": 14576.0, "latitude": 29.38, "longitude": -98.58, "useCount": 0, "id": "KSKF", "name": "KSKF", "quality": 100, "contribution": 0.0}, "KSAT": {"distance": 12597.0, "latitude": 29.53, "longitude": -98.47, "useCount": 0, "id": "KSAT", "name": "KSAT", "quality": 100, "contribution": 0.0}, "KSSF": {"distance": 23570.0, "latitude": 29.33, "longitude": -98.47, "useCount": 0, "id": "KSSF", "name": "KSSF", "quality": 100, "contribution": 0.0}, "72253012921": {"distance": 11693.0, "latitude": 29.544, "longitude": -98.484, "useCount": 0, "id": "72253012921", "name": "SAN ANTONIO INTERNATIONAL AIRPORT, TX US", "quality": 100, "contribution": 0.0}, "72252312970": {"distance": 22628.0, "latitude": 29.339, "longitude": -98.472, "useCount": 0, "id": "72252312970", "name": "SAN ANTONIO STINSON MUNICIPAL AIRPORT, TX US", "quality": 100, "contribution": 0.0}, "72253512909": {"distance": 14176.0, "latitude": 29.383, "longitude": -98.583, "useCount": 0, "id": "72253512909", "name": "SAN ANTONIO KELLY FIELD AFB, TX US", "quality": 98, "contribution": 0.0}}}