{"queryCost": 1, "latitude": 38.221, "longitude": -85.358, "resolvedAddress": "38.22100,-85.35800", "address": "38.22100,-85.35800", "timezone": "America/New_York", "tzoffset": -5.0, "days": [{"datetime": "2016-12-02", "datetimeEpoch": 1480654800, "tempmax": 45.2, "tempmin": 30.7, "temp": 38.7, "feelslikemax": 41.5, "feelslikemin": 29.0, "feelslike": 36.4, "dew": 28.2, "humidity": 66.8, "precip": 0.0, "precipprob": 0.0, "precipcover": 0.0, "preciptype": null, "snow": 0.0, "snowdepth": 0.0, "windgust": null, "windspeed": 9.0, "winddir": 284.4, "pressure": 1023.8, "cloudcover": 53.7, "visibility": 9.3, "solarradiation": 128.5, "solarenergy": 11.1, "uvindex": 5.0, "sunrise": "07:40:44", "sunriseEpoch": 1480682444, "sunset": "17:21:17", "sunsetEpoch": 1480717277, "moonphase": 0.04, "conditions": "Partially cloudy", "description": "Becoming cloudy in the afternoon.", "icon": "partly-cloudy-day", "stations": ["KLOU", "KSDF", "72423093821", "KFFT", "72423353841", "72423513810"], "source": "obs"}], "stations": {"KLOU": {"distance": 27287.0, "latitude": 38.22, "longitude": -85.67, "useCount": 0, "id": "KLOU", "name": "KLOU", "quality": 100, "contribution": 0.0}, "KSDF": {"distance": 32861.0, "latitude": 38.18, "longitude": -85.73, "useCount": 0, "id": "KSDF", "name": "KSDF", "quality": 100, "contribution": 0.0}, "72423093821": {"distance": 33633.0, "latitude": 38.181, "longitude": -85.739, "useCount": 0, "id": "72423093821", "name": "LOUISVILLE INTERNATIONAL AIRPORT, KY US", "quality": 100, "contribution": 0.0}, "KFFT": {"distance": 40325.0, "latitude": 38.18, "longitude": -84.9, "useCount": 0, "id": "KFFT", "name": "KFFT", "quality": 100, "contribution": 0.0}, "72423353841": {"distance": 39981.0, "latitude": 38.185, "longitude": -84.903, "useCount": 0, "id": "72423353841", "name": "FRANKFORT CAPITAL CITY AIRPORT, KY US", "quality": 100, "contribution": 0.0}, "72423513810": {"distance": 26737.0, "latitude": 38.228, "longitude": -85.664, "useCount": 0, "id": "72423513810", "name": "LOUISVILLE BOWMAN FIELD, KY US", "quality": 100, "contribution": 0.0}}}