{"queryCost": 1, "latitude": 41.263, "longitude": -81.393, "resolvedAddress": "41.26300,-81.39300", "address": "41.26300,-81.39300", "timezone": "America/New_York", "tzoffset": -5.0, "days": [{"datetime": "2016-12-04", "datetimeEpoch": 1480827600, "tempmax": 40.2, "tempmin": 33.8, "temp": 37.6, "feelslikemax": 37.1, "feelslikemin": 27.3, "feelslike": 33.8, "dew": 27.4, "humidity": 66.8, "precip": 0.03, "precipprob": 100.0, "precipcover": 8.33, "preciptype": ["rain", "snow"], "snow": 0.0, "snowdepth": 0.0, "windgust": 23.0, "windspeed": 10.7, "winddir": 169.0, "pressure": 1020.5, "cloudcover": 55.8, "visibility": 9.4, "solarradiation": 47.4, "solarenergy": 4.1, "uvindex": 2.0, "sunrise": "07:35:26", "sunriseEpoch": 1480854926, "sunset": "16:56:28", "sunsetEpoch": 1480888588, "moonphase": 0.11, "conditions": "Snow, Rain, Partially cloudy", "description": "Partly cloudy throughout the day with late afternoon rain or snow.", "icon": "rain", "stations": ["72430314813", "72525300380", "72524504853", "KBKL", "KAKR"], "source": "obs"}], "stations": {"72430314813": {"distance": 25802.0, "latitude": 41.038, "longitude": -81.464, "useCount": 0, "id": "72430314813", "name": "AKRON FULTON INTERNATIONAL AIRPORT, OH US", "quality": 100, "contribution": 0.0}, "72525300380": {"distance": 13019.0, "latitude": 41.217, "longitude": -81.25, "useCount": 0, "id": "72525300380", "name": "PORTAGE CO AIRPORT, OH US", "quality": 86, "contribution": 0.0}, "72524504853": {"distance": 37305.0, "latitude": 41.518, "longitude": -81.684, "useCount": 0, "id": "72524504853", "name": "CLEVELAND BURKE LAKEFRONT AIRPORT, OH US", "quality": 100, "contribution": 0.0}, "KBKL": {"distance": 37322.0, "latitude": 41.52, "longitude": -81.68, "useCount": 0, "id": "KBKL", "name": "KBKL", "quality": 100, "contribution": 0.0}, "KAKR": {"distance": 25280.0, "latitude": 41.04, "longitude": -81.45, "useCount": 0, "id": "KAKR", "name": "KAKR", "quality": 100, "contribution": 0.0}}}