{"queryCost": 1, "latitude": 28.955, "longitude": -95.369, "resolvedAddress": "28.95500,-95.36900", "address": "28.95500,-95.36900", "timezone": "America/Chicago", "tzoffset": -6.0, "days": [{"datetime": "2015-01-07", "datetimeEpoch": 1420610400, "tempmax": 58.7, "tempmin": 42.5, "temp": 51.3, "feelslikemax": 58.7, "feelslikemin": 36.0, "feelslike": 50.3, "dew": 43.8, "humidity": 77.5, "precip": 0.0, "precipprob": 0.0, "precipcover": 0.0, "preciptype": null, "snow": 0.0, "snowdepth": 0.0, "windgust": 36.8, "windspeed": 21.4, "winddir": 83.3, "pressure": 1031.0, "cloudcover": 62.0, "visibility": 9.6, "solarradiation": 77.3, "solarenergy": 6.7, "uvindex": 3.0, "sunrise": "07:16:09", "sunriseEpoch": 1420636569, "sunset": "17:39:29", "sunsetEpoch": 1420673969, "moonphase": 0.53, "conditions": "Partially cloudy", "description": "Partly cloudy throughout the day.", "icon": "partly-cloudy-day", "stations": ["KGLS", "72242012923", "KLBX", "KBYY", "72252712976", "72027312981"], "source": "obs"}], "stations": {"KGLS": {"distance": 59873.0, "latitude": 29.27, "longitude": -94.87, "useCount": 0, "id": "KGLS", "name": "KGLS", "quality": 100, "contribution": 0.0}, "72242012923": {"distance": 60940.0, "latitude": 29.273, "longitude": -94.859, "useCount": 0, "id": "72242012923", "name": "GALVESTON SCHOLES FIELD, TX US", "quality": 100, "contribution": 0.0}, "KLBX": {"distance": 20833.0, "latitude": 29.12, "longitude": -95.47, "useCount": 0, "id": "KLBX", "name": "KLBX", "quality": 100, "contribution": 0.0}, "KBYY": {"distance": 47851.0, "latitude": 28.97, "longitude": -95.86, "useCount": 0, "id": "KBYY", "name": "KBYY", "quality": 100, "contribution": 0.0}, "72252712976": {"distance": 19451.0, "latitude": 29.11, "longitude": -95.462, "useCount": 0, "id": "72252712976", "name": "ANGLETON LAKE JACKSON BRAZORIA CO AIRPORT, TX US", "quality": 100, "contribution": 0.0}, "72027312981": {"distance": 48185.0, "latitude": 28.973, "longitude": -95.863, "useCount": 0, "id": "72027312981", "name": "BAY CITY MUNICIPAL AIRPORT, TX US", "quality": 100, "contribution": 0.0}}}