{"queryCost": 1, "latitude": 39.312, "longitude": -76.657, "resolvedAddress": "39.31200,-76.65700", "address": "39.31200,-76.65700", "timezone": "America/New_York", "tzoffset": -5.0, "days": [{"datetime": "2016-12-13", "datetimeEpoch": 1481605200, "tempmax": 43.6, "tempmin": 37.5, "temp": 41.1, "feelslikemax": 42.8, "feelslikemin": 35.1, "feelslike": 38.8, "dew": 26.8, "humidity": 56.8, "precip": 0.0, "precipprob": 0.0, "precipcover": 0.0, "preciptype": null, "snow": 0.0, "snowdepth": 0.0, "windgust": null, "windspeed": 8.2, "winddir": 146.3, "pressure": 1020.3, "cloudcover": 18.4, "visibility": 9.9, "solarradiation": 51.5, "solarenergy": 4.5, "uvindex": 2.0, "sunrise": "07:18:17", "sunriseEpoch": 1481631497, "sunset": "16:43:53", "sunsetEpoch": 1481665433, "moonphase": 0.5, "conditions": "Clear", "description": "Clear conditions throughout the day.", "icon": "clear-day", "stations": ["99999913752", "72406093721", "KDMH", "KBWI", "74594493784", "KMTN"], "source": "obs"}], "stations": {"99999913752": {"distance": 38530.0, "latitude": 38.991, "longitude": -76.489, "useCount": 0, "id": "99999913752", "name": "ANNAPOLIS UNITED STATES NAVAL ACADEMY ASOS, MD US", "quality": 100, "contribution": 0.0}, "72406093721": {"distance": 15614.0, "latitude": 39.173, "longitude": -76.684, "useCount": 0, "id": "72406093721", "name": "BALTIMORE WASHINGTON INTERNATIONAL AIRPORT, MD US", "quality": 100, "contribution": 0.0}, "KDMH": {"distance": 4780.0, "latitude": 39.28, "longitude": -76.62, "useCount": 0, "id": "KDMH", "name": "KDMH", "quality": 71, "contribution": 0.0}, "KBWI": {"distance": 14737.0, "latitude": 39.18, "longitude": -76.67, "useCount": 0, "id": "KBWI", "name": "KBWI", "quality": 100, "contribution": 0.0}, "74594493784": {"distance": 5219.0, "latitude": 39.281, "longitude": -76.611, "useCount": 0, "id": "74594493784", "name": "MARYLAND SCIENCE CENTER, MD US", "quality": 71, "contribution": 0.0}, "KMTN": {"distance": 20508.0, "latitude": 39.33, "longitude": -76.42, "useCount": 0, "id": "KMTN", "name": "KMTN", "quality": 88, "contribution": 0.0}}}