{"queryCost": 1, "latitude": 33.386, "longitude": -84.283, "resolvedAddress": "33.38600,-84.28300", "address": "33.38600,-84.28300", "timezone": "America/New_York", "tzoffset": -5.0, "days": [{"datetime": "2016-12-13", "datetimeEpoch": 1481605200, "tempmax": 54.8, "tempmin": 51.1, "temp": 53.1, "feelslikemax": 54.8, "feelslikemin": 51.1, "feelslike": 53.1, "dew": 52.1, "humidity": 96.4, "precip": 0.13, "precipprob": 100.0, "precipcover": 33.33, "preciptype": ["rain"], "snow": 0.0, "snowdepth": 0.0, "windgust": null, "windspeed": 6.8, "winddir": 73.6, "pressure": 1017.1, "cloudcover": 93.9, "visibility": 3.4, "solarradiation": 62.0, "solarenergy": 5.3, "uvindex": 3.0, "sunrise": "07:32:44", "sunriseEpoch": 1481632364, "sunset": "17:30:29", "sunsetEpoch": 1481668229, "moonphase": 0.5, "conditions": "Rain, Overcast", "description": "Cloudy skies throughout the day with rain.", "icon": "rain", "stations": ["KFTY", "72219753819", "72219013874", "KFFC", "KATL", "72219503888"], "source": "obs"}], "stations": {"KFTY": {"distance": 49059.0, "latitude": 33.78, "longitude": -84.52, "useCount": 0, "id": "KFTY", "name": "KFTY", "quality": 100, "contribution": 0.0}, "72219753819": {"distance": 26613.0, "latitude": 33.355, "longitude": -84.567, "useCount": 0, "id": "72219753819", "name": "PEACHTREE CITY FALCON FIELD, GA US", "quality": 100, "contribution": 0.0}, "72219013874": {"distance": 30913.0, "latitude": 33.63, "longitude": -84.442, "useCount": 0, "id": "72219013874", "name": "ATLANTA HARTSFIELD INTERNATIONAL AIRPORT, GA US", "quality": 100, "contribution": 0.0}, "KFFC": {"distance": 26837.0, "latitude": 33.36, "longitude": -84.57, "useCount": 0, "id": "KFFC", "name": "KFFC", "quality": 100, "contribution": 0.0}, "KATL": {"distance": 32021.0, "latitude": 33.65, "longitude": -84.42, "useCount": 0, "id": "KATL", "name": "KATL", "quality": 100, "contribution": 0.0}, "72219503888": {"distance": 49038.0, "latitude": 33.779, "longitude": -84.521, "useCount": 0, "id": "72219503888", "name": "ATLANTA FULTON CO AIRPORT, GA US", "quality": 100, "contribution": 0.0}}}