{"queryCost": 1, "latitude": 33.985, "longitude": -118.309, "resolvedAddress": "33.98500,-118.30900", "address": "33.98500,-118.30900", "timezone": "America/Los_Angeles", "tzoffset": -8.0, "days": [{"datetime": "2016-12-18", "datetimeEpoch": 1482048000, "tempmax": 65.2, "tempmin": 42.7, "temp": 53.1, "feelslikemax": 65.2, "feelslikemin": 42.7, "feelslike": 53.1, "dew": 24.4, "humidity": 36.8, "precip": 0.0, "precipprob": 0.0, "precipcover": 0.0, "preciptype": null, "snow": 0.0, "snowdepth": 0.0, "windgust": 20.8, "windspeed": 5.5, "winddir": 139.4, "pressure": 1021.6, "cloudcover": 1.7, "visibility": 9.9, "solarradiation": 149.9, "solarenergy": 12.9, "uvindex": 6.0, "sunrise": "06:53:31", "sunriseEpoch": 1482072811, "sunset": "16:46:54", "sunsetEpoch": 1482108414, "moonphase": 0.63, "conditions": "Clear", "description": "Clear conditions throughout the day.", "icon": "clear-day", "stations": ["KHHR", "72295023174", "72295603167", "KLAX", "72287493134"], "source": "obs"}], "stations": {"72295603167": {"distance": 7299.0, "latitude": 33.923, "longitude": -118.334, "useCount": 0, "id": "72295603167", "name": "HAWTHORNE MUNICIPAL AIRPORT, CA US", "quality": 100, "contribution": 0.0}, "KLAX": {"distance": 10396.0, "latitude": 33.93, "longitude": -118.4, "useCount": 0, "id": "KLAX", "name": "KLAX", "quality": 100, "contribution": 0.0}, "KHHR": {"distance": 7491.0, "latitude": 33.92, "longitude": -118.33, "useCount": 0, "id": "KHHR", "name": "KHHR", "quality": 100, "contribution": 0.0}, "72287493134": {"distance": 4607.0, "latitude": 34.024, "longitude": -118.291, "useCount": 0, "id": "72287493134", "name": "LOS ANGELES DOWNTOWN USC, CA US", "quality": 100, "contribution": 0.0}, "72295023174": {"distance": 9052.0, "latitude": 33.938, "longitude": -118.389, "useCount": 0, "id": "72295023174", "name": "LOS ANGELES INTERNATIONAL AIRPORT, CA US", "quality": 100, "contribution": 0.0}}}