{"queryCost": 1, "latitude": 41.257, "longitude": -86.621, "resolvedAddress": "41.25700,-86.62100", "address": "41.25700,-86.62100", "timezone": "America/Indiana/Knox", "tzoffset": -6.0, "days": [{"datetime": "2016-12-21", "datetimeEpoch": 1482300000, "tempmax": 36.5, "tempmin": 17.1, "temp": 28.2, "feelslikemax": 28.6, "feelslikemin": 10.2, "feelslike": 21.2, "dew": 21.4, "humidity": 75.8, "precip": 0.0, "precipprob": 0.0, "precipcover": 0.0, "preciptype": null, "snow": 0.0, "snowdepth": 5.7, "windgust": 23.0, "windspeed": 13.9, "winddir": 212.3, "pressure": 1019.5, "cloudcover": 28.2, "visibility": 9.8, "solarradiation": 58.7, "solarenergy": 5.0, "uvindex": 2.0, "sunrise": "07:09:06", "sunriseEpoch": 1482325746, "sunset": "16:20:44", "sunsetEpoch": 1482358844, "moonphase": 0.78, "conditions": "Partially cloudy", "description": "Partly cloudy throughout the day.", "icon": "partly-cloudy-day", "stations": ["72073600265", "KRCR", "KVPZ", "KPPO", "72102900347", "72532704846"], "source": "obs"}], "stations": {"72073600265": {"distance": 42493.0, "latitude": 41.066, "longitude": -86.182, "useCount": 0, "id": "72073600265", "name": "FULTON CO AIRPORT, IN US", "quality": 92, "contribution": 0.0}, "KRCR": {"distance": 42977.0, "latitude": 41.06, "longitude": -86.18, "useCount": 0, "id": "KRCR", "name": "KRCR", "quality": 92, "contribution": 0.0}, "KVPZ": {"distance": 38270.0, "latitude": 41.45, "longitude": -87.0, "useCount": 0, "id": "KVPZ", "name": "KVPZ", "quality": 99, "contribution": 0.0}, "KPPO": {"distance": 36012.0, "latitude": 41.57, "longitude": -86.73, "useCount": 0, "id": "KPPO", "name": "KPPO", "quality": 100, "contribution": 0.0}, "72102900347": {"distance": 36334.0, "latitude": 41.572, "longitude": -86.735, "useCount": 0, "id": "72102900347", "name": "LA PORTE MUNICIPAL AIRPORT, IN US", "quality": 99, "contribution": 0.0}, "72532704846": {"distance": 38826.0, "latitude": 41.453, "longitude": -87.006, "useCount": 0, "id": "72532704846", "name": "VALPARAISO PORTER CO MUNICIPAL AIRPORT, IN US", "quality": 98, "contribution": 0.0}}}