{"queryCost": 1, "latitude": 35.352, "longitude": -80.851, "resolvedAddress": "35.35200,-80.85100", "address": "35.35200,-80.85100", "timezone": "America/New_York", "tzoffset": -5.0, "days": [{"datetime": "2015-12-24", "datetimeEpoch": 1450933200, "tempmax": 73.0, "tempmin": 62.7, "temp": 69.4, "feelslikemax": 73.0, "feelslikemin": 62.7, "feelslike": 69.4, "dew": 65.7, "humidity": 88.3, "precip": 0.32, "precipprob": 100.0, "precipcover": 41.67, "preciptype": ["rain"], "snow": 0.0, "snowdepth": 0.0, "windgust": 25.2, "windspeed": 16.0, "winddir": 194.6, "pressure": 1017.9, "cloudcover": 94.1, "visibility": 9.5, "solarradiation": 40.4, "solarenergy": 3.5, "uvindex": 2.0, "sunrise": "07:29:49", "sunriseEpoch": 1450960189, "sunset": "17:16:04", "sunsetEpoch": 1450995364, "moonphase": 0.49, "conditions": "Rain, Overcast", "description": "Cloudy skies throughout the day with a chance of rain throughout the day.", "icon": "rain", "stations": ["KAKH", "72212853899", "KCLT", "KJQF", "72314013881", "KIPJ"], "source": "obs"}], "stations": {"KAKH": {"distance": 32010.0, "latitude": 35.2, "longitude": -81.15, "useCount": 0, "id": "KAKH", "name": "KAKH", "quality": 100, "contribution": 0.0}, "72212853899": {"distance": 31692.0, "latitude": 35.483, "longitude": -81.161, "useCount": 0, "id": "72212853899", "name": "LINCOLNTON LINCOLN CO REGIONAL AIRPORT, NC US", "quality": 100, "contribution": 0.0}, "KCLT": {"distance": 17229.0, "latitude": 35.22, "longitude": -80.95, "useCount": 0, "id": "KCLT", "name": "KCLT", "quality": 100, "contribution": 0.0}, "KJQF": {"distance": 14057.0, "latitude": 35.38, "longitude": -80.7, "useCount": 0, "id": "KJQF", "name": "KJQF", "quality": 100, "contribution": 0.0}, "72314013881": {"distance": 17145.0, "latitude": 35.224, "longitude": -80.955, "useCount": 0, "id": "72314013881", "name": "CHARLOTTE DOUGLAS AIRPORT, NC US", "quality": 100, "contribution": 0.0}, "KIPJ": {"distance": 30959.0, "latitude": 35.47, "longitude": -81.16, "useCount": 0, "id": "KIPJ", "name": "KIPJ", "quality": 98, "contribution": 0.0}}}