{"queryCost": 1, "latitude": 35.719, "longitude": -91.69, "resolvedAddress": "35.71900,-91.69000", "address": "35.71900,-91.69000", "timezone": "America/Chicago", "tzoffset": -6.0, "days": [{"datetime": "2016-12-25", "datetimeEpoch": 1482645600, "tempmax": 65.3, "tempmin": 48.2, "temp": 56.9, "feelslikemax": 65.3, "feelslikemin": 45.7, "feelslike": 56.5, "dew": 54.9, "humidity": 93.3, "precip": 0.02, "precipprob": 100.0, "precipcover": 8.33, "preciptype": ["rain"], "snow": 0.0, "snowdepth": 0.0, "windgust": 31.1, "windspeed": 10.4, "winddir": 111.3, "pressure": 1020.8, "cloudcover": 96.1, "visibility": 4.2, "solarradiation": 61.0, "solarenergy": 5.3, "uvindex": 3.0, "sunrise": "07:14:54", "sunriseEpoch": 1482671694, "sunset": "16:59:30", "sunsetEpoch": 1482706770, "moonphase": 0.94, "conditions": "Rain, Overcast", "description": "Cloudy skies throughout the day with morning rain.", "icon": "rain", "stations": ["72037713917", "99999923904", "KM19", "KBVX", "72344853934", "72218853985"], "source": "obs"}], "stations": {"72037713917": {"distance": 48273.0, "latitude": 35.633, "longitude": -91.167, "useCount": 0, "id": "72037713917", "name": "NEWPORT MUNICIPAL AIRPORT, AR US", "quality": 100, "contribution": 0.0}, "99999923904": {"distance": 13947.0, "latitude": 35.82, "longitude": -91.781, "useCount": 0, "id": "99999923904", "name": "BATESVILLE 8 WNW, AR US", "quality": 100, "contribution": 0.0}, "KM19": {"distance": 46947.0, "latitude": 35.64, "longitude": -91.18, "useCount": 0, "id": "KM19", "name": "NEWPORT/NEWPORT MUN, AR", "quality": 100, "contribution": 0.0}, "KBVX": {"distance": 3817.0, "latitude": 35.73, "longitude": -91.65, "useCount": 0, "id": "KBVX", "name": "BATESVILLE, AR", "quality": 97, "contribution": 0.0}, "72344853934": {"distance": 3948.0, "latitude": 35.726, "longitude": -91.647, "useCount": 0, "id": "72344853934", "name": "BATESVILLE REGIONAL AIRPORT, AR US", "quality": 96, "contribution": 0.0}, "72218853985": {"distance": 56610.0, "latitude": 35.212, "longitude": -91.737, "useCount": 0, "id": "72218853985", "name": "SEARCY MUNICIPAL AIRPORT, AR US", "quality": 99, "contribution": 0.0}}}