{"queryCost": 1, "latitude": 28.006, "longitude": -81.568, "resolvedAddress": "28.00600,-81.56800", "address": "28.00600,-81.56800", "timezone": "America/New_York", "tzoffset": -5.0, "days": [{"datetime": "2016-12-24", "datetimeEpoch": 1482555600, "tempmax": 82.8, "tempmin": 61.3, "temp": 70.5, "feelslikemax": 83.5, "feelslikemin": 61.3, "feelslike": 70.7, "dew": 62.9, "humidity": 79.0, "precip": 0.0, "precipprob": 0.0, "precipcover": 0.0, "preciptype": null, "snow": 0.0, "snowdepth": 0.0, "windgust": null, "windspeed": 11.2, "winddir": 55.4, "pressure": 1024.4, "cloudcover": 9.4, "visibility": 9.5, "solarradiation": 162.7, "solarenergy": 14.0, "uvindex": 6.0, "sunrise": "07:15:11", "sunriseEpoch": 1482581711, "sunset": "17:37:13", "sunsetEpoch": 1482619033, "moonphase": 0.91, "conditions": "Clear", "description": "Clear conditions throughout the day.", "icon": "clear-day", "stations": ["74793112876", "72201192813", "KGIF", "72205012815", "KISM", "KMCO"], "source": "obs"}], "stations": {"74793112876": {"distance": 19336.0, "latitude": 28.062, "longitude": -81.754, "useCount": 0, "id": "74793112876", "name": "WINTER HAVEN GILBERT AIRPORT, FL US", "quality": 100, "contribution": 0.0}, "72201192813": {"distance": 34102.0, "latitude": 28.29, "longitude": -81.437, "useCount": 0, "id": "72201192813", "name": "ORLANDO KISSIMMEE MUNICIPAL AIRPORT, FL US", "quality": 99, "contribution": 0.0}, "KGIF": {"distance": 18543.0, "latitude": 28.05, "longitude": -81.75, "useCount": 0, "id": "KGIF", "name": "KGIF", "quality": 100, "contribution": 0.0}, "72205012815": {"distance": 53264.0, "latitude": 28.434, "longitude": -81.325, "useCount": 0, "id": "72205012815", "name": "ORLANDO INTERNATIONAL AIRPORT, FL US", "quality": 100, "contribution": 0.0}, "KISM": {"distance": 34020.0, "latitude": 28.29, "longitude": -81.44, "useCount": 0, "id": "KISM", "name": "KISSIMMEE AIRPORT, FL", "quality": 100, "contribution": 0.0}, "KMCO": {"distance": 53556.0, "latitude": 28.43, "longitude": -81.31, "useCount": 0, "id": "KMCO", "name": "KMCO", "quality": 100, "contribution": 0.0}}}