{"queryCost": 1, "latitude": 28.066, "longitude": -82.77, "resolvedAddress": "28.06600,-82.77000", "address": "28.06600,-82.77000", "timezone": "America/New_York", "tzoffset": -5.0, "days": [{"datetime": "2016-12-23", "datetimeEpoch": 1482469200, "tempmax": 79.7, "tempmin": 59.5, "temp": 68.4, "feelslikemax": 79.7, "feelslikemin": 59.5, "feelslike": 68.4, "dew": 53.8, "humidity": 60.9, "precip": 0.0, "precipprob": 0.0, "precipcover": 0.0, "preciptype": null, "snow": 0.0, "snowdepth": 0.0, "windgust": null, "windspeed": 8.5, "winddir": 66.4, "pressure": 1023.9, "cloudcover": 16.5, "visibility": 9.9, "solarradiation": 165.7, "solarenergy": 14.4, "uvindex": 6.0, "sunrise": "07:19:41", "sunriseEpoch": 1482495581, "sunset": "17:41:20", "sunsetEpoch": 1482532880, "moonphase": 0.87, "conditions": "Clear", "description": "Clear conditions throughout the day.", "icon": "clear-day", "stations": ["KCLW", "KPIE", "72211612873", "72211012842", "KTPA"], "source": "obs"}], "stations": {"KCLW": {"distance": 9773.0, "latitude": 27.98, "longitude": -82.75, "useCount": 0, "id": "KCLW", "name": "KCLW", "quality": 100, "contribution": 0.0}, "72211012842": {"distance": 25375.0, "latitude": 27.962, "longitude": -82.54, "useCount": 0, "id": "72211012842", "name": "TAMPA INTERNATIONAL AIRPORT, FL US", "quality": 100, "contribution": 0.0}, "KTPA": {"distance": 25894.0, "latitude": 27.97, "longitude": -82.53, "useCount": 0, "id": "KTPA", "name": "KTPA", "quality": 100, "contribution": 0.0}, "KPIE": {"distance": 18504.0, "latitude": 27.92, "longitude": -82.68, "useCount": 0, "id": "KPIE", "name": "KPIE", "quality": 100, "contribution": 0.0}, "72211612873": {"distance": 19106.0, "latitude": 27.911, "longitude": -82.687, "useCount": 0, "id": "72211612873", "name": "ST PETERSBURG CLEARWATER INTERNATIONAL AIRPORT, FL US", "quality": 100, "contribution": 0.0}}}