{"queryCost": 1, "latitude": 29.543, "longitude": -95.367, "resolvedAddress": "29.54300,-95.36700", "address": "29.54300,-95.36700", "timezone": "America/Chicago", "tzoffset": -6.0, "days": [{"datetime": "2016-12-27", "datetimeEpoch": 1482818400, "tempmax": 81.0, "tempmin": 70.2, "temp": 73.8, "feelslikemax": 83.6, "feelslikemin": 70.2, "feelslike": 74.0, "dew": 69.7, "humidity": 88.0, "precip": 0.04, "precipprob": 100.0, "precipcover": 12.5, "preciptype": ["rain"], "snow": 0.0, "snowdepth": 0.0, "windgust": null, "windspeed": 8.7, "winddir": 115.4, "pressure": 1022.5, "cloudcover": 84.2, "visibility": 5.4, "solarradiation": 144.4, "solarenergy": 12.4, "uvindex": 6.0, "sunrise": "07:15:04", "sunriseEpoch": 1482844504, "sunset": "17:30:44", "sunsetEpoch": 1482881444, "moonphase": 0.99, "conditions": "Rain, Partially cloudy", "description": "Partly cloudy throughout the day with rain.", "icon": "rain", "stations": ["KHOU", "KAXH", "72242712975", "KLVJ", "72244012918", "72063700223"], "source": "obs"}], "stations": {"KHOU": {"distance": 12835.0, "latitude": 29.63, "longitude": -95.28, "useCount": 0, "id": "KHOU", "name": "KHOU", "quality": 100, "contribution": 0.0}, "KAXH": {"distance": 11545.0, "latitude": 29.51, "longitude": -95.48, "useCount": 0, "id": "KAXH", "name": "KAXH", "quality": 100, "contribution": 0.0}, "72242712975": {"distance": 12429.0, "latitude": 29.519, "longitude": -95.242, "useCount": 0, "id": "72242712975", "name": "HOUSTON CLOVER FIELD, TX US", "quality": 100, "contribution": 0.0}, "KLVJ": {"distance": 12565.0, "latitude": 29.52, "longitude": -95.24, "useCount": 0, "id": "KLVJ", "name": "KLVJ", "quality": 100, "contribution": 0.0}, "72244012918": {"distance": 13414.0, "latitude": 29.638, "longitude": -95.282, "useCount": 0, "id": "72244012918", "name": "HOUSTON WILLIAM P HOBBY AIRPORT, TX US", "quality": 100, "contribution": 0.0}, "72063700223": {"distance": 11681.0, "latitude": 29.5, "longitude": -95.477, "useCount": 0, "id": "72063700223", "name": "HOUSTON SOUTHWEST AIRPORT, TX US", "quality": 99, "contribution": 0.0}}}