{"queryCost": 1, "latitude": 41.856, "longitude": -87.978, "resolvedAddress": "41.85600,-87.97800", "address": "41.85600,-87.97800", "timezone": "America/Chicago", "tzoffset": -6.0, "days": [{"datetime": "2017-01-01", "datetimeEpoch": 1483250400, "tempmax": 38.8, "tempmin": 18.4, "temp": 28.8, "feelslikemax": 37.6, "feelslikemin": 10.1, "feelslike": 23.8, "dew": 19.0, "humidity": 68.3, "precip": 0.0, "precipprob": 0.0, "precipcover": 0.0, "preciptype": null, "snow": 0.0, "snowdepth": 0.0, "windgust": 18.3, "windspeed": 11.9, "winddir": 161.9, "pressure": 1019.9, "cloudcover": 24.9, "visibility": 9.4, "solarradiation": 102.7, "solarenergy": 8.9, "uvindex": 5.0, "sunrise": "07:19:38", "sunriseEpoch": 1483276778, "sunset": "16:31:53", "sunsetEpoch": 1483309913, "moonphase": 0.05, "conditions": "Partially cloudy", "description": "Partly cloudy throughout the day.", "icon": "partly-cloudy-day", "stations": ["72534014819", "72530594892", "KORD", "72530094846", "KMDW", "KDPA"], "source": "obs"}], "stations": {"72534014819": {"distance": 20284.0, "latitude": 41.786, "longitude": -87.752, "useCount": 0, "id": "72534014819", "name": "CHICAGO MIDWAY AIRPORT, IL US", "quality": 100, "contribution": 0.0}, "72530594892": {"distance": 23174.0, "latitude": 41.914, "longitude": -88.246, "useCount": 0, "id": "72530594892", "name": "CHICAGO WEST CHICAGO DUPAGE AIRPORT, IL US", "quality": 100, "contribution": 0.0}, "KORD": {"distance": 15241.0, "latitude": 41.98, "longitude": -87.9, "useCount": 0, "id": "KORD", "name": "KORD", "quality": 100, "contribution": 0.0}, "72530094846": {"distance": 12220.0, "latitude": 41.96, "longitude": -87.932, "useCount": 0, "id": "72530094846", "name": "CHICAGO OHARE INTERNATIONAL AIRPORT, IL US", "quality": 100, "contribution": 0.0}, "KMDW": {"distance": 20721.0, "latitude": 41.78, "longitude": -87.75, "useCount": 0, "id": "KMDW", "name": "KMDW", "quality": 100, "contribution": 0.0}, "KDPA": {"distance": 23640.0, "latitude": 41.92, "longitude": -88.25, "useCount": 0, "id": "KDPA", "name": "KDPA", "quality": 100, "contribution": 0.0}}}