{"queryCost": 1, "latitude": 34.101, "longitude": -84.519, "resolvedAddress": "34.10100,-84.51900", "address": "34.10100,-84.51900", "timezone": "America/New_York", "tzoffset": -5.0, "days": [{"datetime": "2017-01-01", "datetimeEpoch": 1483246800, "tempmax": 48.8, "tempmin": 40.6, "temp": 44.8, "feelslikemax": 46.5, "feelslikemin": 35.9, "feelslike": 41.6, "dew": 43.6, "humidity": 95.4, "precip": 0.41, "precipprob": 100.0, "precipcover": 66.67, "preciptype": ["rain"], "snow": 0.0, "snowdepth": 0.0, "windgust": null, "windspeed": 8.7, "winddir": 95.2, "pressure": 1019.3, "cloudcover": 96.5, "visibility": 5.8, "solarradiation": 56.6, "solarenergy": 4.8, "uvindex": 3.0, "sunrise": "07:43:57", "sunriseEpoch": 1483274637, "sunset": "17:39:51", "sunsetEpoch": 1483310391, "moonphase": 0.05, "conditions": "Rain, Overcast", "description": "Cloudy skies throughout the day with rain.", "icon": "rain", "stations": ["KMGE", "KRYY", "74781263813", "72227013864", "KVPC", "72215653873"], "source": "obs"}], "stations": {"KMGE": {"distance": 20149.0, "latitude": 33.92, "longitude": -84.52, "useCount": 0, "id": "KMGE", "name": "KMGE", "quality": 100, "contribution": 0.0}, "KRYY": {"distance": 12587.0, "latitude": 34.01, "longitude": -84.6, "useCount": 0, "id": "KRYY", "name": "MCCOLLUM FLD, GA", "quality": 100, "contribution": 0.0}, "74781263813": {"distance": 12233.0, "latitude": 34.013, "longitude": -84.599, "useCount": 0, "id": "74781263813", "name": "MARIETTA COBB CO MCCOLLUM FIELD AIRPORT, GA US", "quality": 100, "contribution": 0.0}, "72227013864": {"distance": 20517.0, "latitude": 33.917, "longitude": -84.517, "useCount": 0, "id": "72227013864", "name": "MARIETTA DOBBINS AFB, GA US", "quality": 99, "contribution": 0.0}, "KVPC": {"distance": 30526.0, "latitude": 34.11, "longitude": -84.85, "useCount": 0, "id": "KVPC", "name": "KVPC", "quality": 100, "contribution": 0.0}, "72215653873": {"distance": 30477.0, "latitude": 34.123, "longitude": -84.849, "useCount": 0, "id": "72215653873", "name": "CARTERSVILLE AIRPORT, GA US", "quality": 100, "contribution": 0.0}}}