{"queryCost": 1, "latitude": 29.603, "longitude": -95.428, "resolvedAddress": "29.60300,-95.42800", "address": "29.60300,-95.42800", "timezone": "America/Chicago", "tzoffset": -6.0, "days": [{"datetime": "2017-01-01", "datetimeEpoch": 1483250400, "tempmax": 75.8, "tempmin": 62.6, "temp": 66.9, "feelslikemax": 75.8, "feelslikemin": 62.6, "feelslike": 66.9, "dew": 63.4, "humidity": 89.4, "precip": 0.23, "precipprob": 100.0, "precipcover": 12.5, "preciptype": ["rain"], "snow": 0.0, "snowdepth": 0.0, "windgust": null, "windspeed": 7.3, "winddir": 151.0, "pressure": 1011.5, "cloudcover": 62.0, "visibility": 6.7, "solarradiation": 75.8, "solarenergy": 6.4, "uvindex": 3.0, "sunrise": "07:16:54", "sunriseEpoch": 1483276614, "sunset": "17:34:11", "sunsetEpoch": 1483313651, "moonphase": 0.05, "conditions": "Rain, Partially cloudy", "description": "Partly cloudy throughout the day with rain clearing later.", "icon": "rain", "stations": ["KHOU", "72059400188", "KAXH", "72242712975", "72244012918", "72063700223"], "source": "obs"}], "stations": {"KHOU": {"distance": 14635.0, "latitude": 29.63, "longitude": -95.28, "useCount": 0, "id": "KHOU", "name": "KHOU", "quality": 100, "contribution": 0.0}, "72059400188": {"distance": 13416.0, "latitude": 29.717, "longitude": -95.383, "useCount": 0, "id": "72059400188", "name": "HOUSTON DUNN HELISTOP, TX US", "quality": 100, "contribution": 0.0}, "KAXH": {"distance": 11512.0, "latitude": 29.51, "longitude": -95.48, "useCount": 0, "id": "KAXH", "name": "KAXH", "quality": 100, "contribution": 0.0}, "72242712975": {"distance": 20324.0, "latitude": 29.519, "longitude": -95.242, "useCount": 0, "id": "72242712975", "name": "HOUSTON CLOVER FIELD, TX US", "quality": 100, "contribution": 0.0}, "72244012918": {"distance": 14668.0, "latitude": 29.638, "longitude": -95.282, "useCount": 0, "id": "72244012918", "name": "HOUSTON WILLIAM P HOBBY AIRPORT, TX US", "quality": 100, "contribution": 0.0}, "72063700223": {"distance": 12409.0, "latitude": 29.5, "longitude": -95.477, "useCount": 0, "id": "72063700223", "name": "HOUSTON SOUTHWEST AIRPORT, TX US", "quality": 99, "contribution": 0.0}}}