{"queryCost": 1, "latitude": 36.555, "longitude": -119.395, "resolvedAddress": "36.55500,-119.39500", "address": "36.55500,-119.39500", "timezone": "America/Los_Angeles", "tzoffset": -8.0, "days": [{"datetime": "2017-01-05", "datetimeEpoch": 1483603200, "tempmax": 55.7, "tempmin": 38.8, "temp": 51.3, "feelslikemax": 55.7, "feelslikemin": 34.2, "feelslike": 50.0, "dew": 45.6, "humidity": 82.1, "precip": 0.0, "precipprob": 0.0, "precipcover": 0.0, "preciptype": null, "snow": 0.0, "snowdepth": 0.0, "windgust": null, "windspeed": 14.4, "winddir": 267.3, "pressure": 1016.1, "cloudcover": 78.4, "visibility": 8.7, "solarradiation": 58.4, "solarenergy": 5.0, "uvindex": 2.0, "sunrise": "07:10:11", "sunriseEpoch": 1483629011, "sunset": "16:56:25", "sunsetEpoch": 1483664185, "moonphase": 0.23, "conditions": "Partially cloudy", "description": "Partly cloudy throughout the day.", "icon": "partly-cloudy-day", "stations": ["KHJO", "KVIS", "72389693144", "KFAT", "72389853119", "72389093193"], "source": "obs"}], "stations": {"KHJO": {"distance": 33575.0, "latitude": 36.32, "longitude": -119.63, "useCount": 0, "id": "KHJO", "name": "KHJO", "quality": 100, "contribution": 0.0}, "KVIS": {"distance": 26164.0, "latitude": 36.32, "longitude": -119.4, "useCount": 0, "id": "KVIS", "name": "VISALIA, CA", "quality": 100, "contribution": 0.0}, "72389693144": {"distance": 26531.0, "latitude": 36.317, "longitude": -119.4, "useCount": 0, "id": "72389693144", "name": "VISALIA MUNICIPAL AIRPORT, CA US", "quality": 100, "contribution": 0.0}, "KFAT": {"distance": 37617.0, "latitude": 36.77, "longitude": -119.72, "useCount": 0, "id": "KFAT", "name": "KFAT", "quality": 100, "contribution": 0.0}, "72389853119": {"distance": 33615.0, "latitude": 36.319, "longitude": -119.629, "useCount": 0, "id": "72389853119", "name": "HANFORD MUNICIPAL AIRPORT, CA US", "quality": 100, "contribution": 0.0}, "72389093193": {"distance": 38266.0, "latitude": 36.78, "longitude": -119.719, "useCount": 0, "id": "72389093193", "name": "FRESNO YOSEMITE INTERNATIONAL, CA US", "quality": 100, "contribution": 0.0}}}