{"queryCost": 1, "latitude": 39.051, "longitude": -94.357, "resolvedAddress": "39.05100,-94.35700", "address": "39.05100,-94.35700", "timezone": "America/Chicago", "tzoffset": -6.0, "days": [{"datetime": "2017-01-07", "datetimeEpoch": 1483768800, "tempmax": 24.1, "tempmin": 5.4, "temp": 13.7, "feelslikemax": 15.7, "feelslikemin": -7.6, "feelslike": 4.8, "dew": 4.0, "humidity": 65.5, "precip": 0.0, "precipprob": 0.0, "precipcover": 0.0, "preciptype": null, "snow": 0.0, "snowdepth": 1.8, "windgust": null, "windspeed": 10.8, "winddir": 251.9, "pressure": 1037.7, "cloudcover": 0.0, "visibility": 9.9, "solarradiation": 126.0, "solarenergy": 10.9, "uvindex": 5.0, "sunrise": "07:36:43", "sunriseEpoch": 1483796203, "sunset": "17:11:17", "sunsetEpoch": 1483830677, "moonphase": 0.35, "conditions": "Clear", "description": "Clear conditions throughout the day.", "icon": "clear-day", "stations": ["72446803967", "72030653879", "KMKC", "KLXT", "KOJC", "72446313988"], "source": "obs"}], "stations": {"72446803967": {"distance": 39943.0, "latitude": 38.85, "longitude": -94.739, "useCount": 0, "id": "72446803967", "name": "OLATHE JOHNSON CO EXECUTIVE AIRPORT, KS US", "quality": 100, "contribution": 0.0}, "72030653879": {"distance": 10240.0, "latitude": 38.96, "longitude": -94.371, "useCount": 0, "id": "72030653879", "name": "LEES SUMMIT MUNICIPAL AIRPORT, MO US", "quality": 100, "contribution": 0.0}, "KMKC": {"distance": 22002.0, "latitude": 39.11, "longitude": -94.6, "useCount": 0, "id": "KMKC", "name": "KMKC", "quality": 100, "contribution": 0.0}, "KLXT": {"distance": 10192.0, "latitude": 38.96, "longitude": -94.37, "useCount": 0, "id": "KLXT", "name": "KLXT", "quality": 100, "contribution": 0.0}, "KOJC": {"distance": 39286.0, "latitude": 38.85, "longitude": -94.73, "useCount": 0, "id": "KOJC", "name": "KOJC", "quality": 100, "contribution": 0.0}, "72446313988": {"distance": 22137.0, "latitude": 39.121, "longitude": -94.597, "useCount": 0, "id": "72446313988", "name": "KANSAS CITY DOWNTOWN AIRPORT, MO US", "quality": 100, "contribution": 0.0}}}