{"queryCost": 1, "latitude": 33.49, "longitude": -84.61, "resolvedAddress": "33.49000,-84.61000", "address": "33.49000,-84.61000", "timezone": "America/New_York", "tzoffset": -5.0, "days": [{"datetime": "2017-01-16", "datetimeEpoch": 1484542800, "tempmax": 70.9, "tempmin": 47.4, "temp": 57.4, "feelslikemax": 70.9, "feelslikemin": 47.4, "feelslike": 57.4, "dew": 50.5, "humidity": 79.4, "precip": 0.0, "precipprob": 0.0, "precipcover": 0.0, "preciptype": null, "snow": 0.0, "snowdepth": 0.0, "windgust": null, "windspeed": 6.1, "winddir": 67.5, "pressure": 1024.6, "cloudcover": 56.8, "visibility": 9.0, "solarradiation": 151.4, "solarenergy": 13.1, "uvindex": 6.0, "sunrise": "07:42:16", "sunriseEpoch": 1484570536, "sunset": "17:54:40", "sunsetEpoch": 1484607280, "moonphase": 0.6, "conditions": "Partially cloudy", "description": "Partly cloudy throughout the day.", "icon": "partly-cloudy-day", "stations": ["KFTY", "72219753819", "72219013874", "KFFC", "KATL", "72219503888"], "source": "obs"}], "stations": {"KFTY": {"distance": 33343.0, "latitude": 33.78, "longitude": -84.52, "useCount": 0, "id": "KFTY", "name": "KFTY", "quality": 100, "contribution": 0.0}, "72219753819": {"distance": 15520.0, "latitude": 33.355, "longitude": -84.567, "useCount": 0, "id": "72219753819", "name": "PEACHTREE CITY FALCON FIELD, GA US", "quality": 100, "contribution": 0.0}, "72219013874": {"distance": 22061.0, "latitude": 33.63, "longitude": -84.442, "useCount": 0, "id": "72219013874", "name": "ATLANTA HARTSFIELD INTERNATIONAL AIRPORT, GA US", "quality": 100, "contribution": 0.0}, "KFFC": {"distance": 14941.0, "latitude": 33.36, "longitude": -84.57, "useCount": 0, "id": "KFFC", "name": "KFFC", "quality": 100, "contribution": 0.0}, "KATL": {"distance": 25056.0, "latitude": 33.65, "longitude": -84.42, "useCount": 0, "id": "KATL", "name": "KATL", "quality": 100, "contribution": 0.0}, "72219503888": {"distance": 33224.0, "latitude": 33.779, "longitude": -84.521, "useCount": 0, "id": "72219503888", "name": "ATLANTA FULTON CO AIRPORT, GA US", "quality": 100, "contribution": 0.0}}}