{"queryCost": 1, "latitude": 40.674, "longitude": -73.762, "resolvedAddress": "40.67400,-73.76200", "address": "40.67400,-73.76200", "timezone": "America/New_York", "tzoffset": -5.0, "days": [{"datetime": "2017-01-14", "datetimeEpoch": 1484370000, "tempmax": 34.0, "tempmin": 28.2, "temp": 31.2, "feelslikemax": 30.9, "feelslikemin": 20.0, "feelslike": 25.7, "dew": 16.4, "humidity": 56.8, "precip": 0.13, "precipprob": 100.0, "precipcover": 25.0, "preciptype": ["rain", "snow"], "snow": 1.2, "snowdepth": 0.4, "windgust": null, "windspeed": 11.1, "winddir": 105.0, "pressure": 1035.7, "cloudcover": 78.6, "visibility": 7.0, "solarradiation": 64.1, "solarenergy": 5.5, "uvindex": 3.0, "sunrise": "07:17:11", "sunriseEpoch": 1484396231, "sunset": "16:51:35", "sunsetEpoch": 1484430695, "moonphase": 0.53, "conditions": "Snow, Rain, Partially cloudy", "description": "Partly cloudy throughout the day with rain or snow.", "icon": "snow", "stations": ["72505394728", "KJFK", "74486094789", "KLGA", "KNYC", "72503014732"], "source": "obs"}], "stations": {"72505394728": {"distance": 21035.0, "latitude": 40.779, "longitude": -73.969, "useCount": 0, "id": "72505394728", "name": "NY CITY CENTRAL PARK, NY US", "quality": 100, "contribution": 0.0}, "KJFK": {"distance": 3074.0, "latitude": 40.65, "longitude": -73.78, "useCount": 0, "id": "KJFK", "name": "KJFK", "quality": 100, "contribution": 0.0}, "74486094789": {"distance": 3889.0, "latitude": 40.639, "longitude": -73.764, "useCount": 0, "id": "74486094789", "name": "JFK INTERNATIONAL AIRPORT, NY US", "quality": 100, "contribution": 0.0}, "KLGA": {"distance": 15804.0, "latitude": 40.77, "longitude": -73.9, "useCount": 0, "id": "KLGA", "name": "KLGA", "quality": 100, "contribution": 0.0}, "KNYC": {"distance": 21271.0, "latitude": 40.77, "longitude": -73.98, "useCount": 0, "id": "KNYC", "name": "KNYC", "quality": 100, "contribution": 0.0}, "72503014732": {"distance": 15403.0, "latitude": 40.779, "longitude": -73.88, "useCount": 0, "id": "72503014732", "name": "LAGUARDIA AIRPORT, NY US", "quality": 100, "contribution": 0.0}}}