{"queryCost": 1, "latitude": 38.18, "longitude": -77.402, "resolvedAddress": "38.18000,-77.40200", "address": "38.18000,-77.40200", "timezone": "America/New_York", "tzoffset": -5.0, "days": [{"datetime": "2017-01-19", "datetimeEpoch": 1484802000, "tempmax": 53.0, "tempmin": 33.4, "temp": 41.9, "feelslikemax": 53.0, "feelslikemin": 33.4, "feelslike": 41.6, "dew": 36.9, "humidity": 84.0, "precip": 0.0, "precipprob": 0.0, "precipcover": 0.0, "preciptype": null, "snow": 0.0, "snowdepth": 0.0, "windgust": null, "windspeed": 5.4, "winddir": 218.4, "pressure": 1018.6, "cloudcover": 1.2, "visibility": 9.9, "solarradiation": 124.6, "solarenergy": 10.8, "uvindex": 5.0, "sunrise": "07:23:07", "sunriseEpoch": 1484828587, "sunset": "17:18:07", "sunsetEpoch": 1484864287, "moonphase": 0.73, "conditions": "Clear", "description": "Clear conditions throughout the day.", "icon": "clear-day", "stations": ["72031703735", "KNYG", "KEZF", "72403303706", "72403513773", "KRMN"], "source": "obs"}], "stations": {"72031703735": {"distance": 24726.0, "latitude": 38.398, "longitude": -77.456, "useCount": 0, "id": "72031703735", "name": "STAFFORD REGIONAL AIRPORT, VA US", "quality": 100, "contribution": 0.0}, "KNYG": {"distance": 36719.0, "latitude": 38.5, "longitude": -77.3, "useCount": 0, "id": "KNYG", "name": "KNYG", "quality": 99, "contribution": 0.0}, "KEZF": {"distance": 10863.0, "latitude": 38.27, "longitude": -77.45, "useCount": 0, "id": "KEZF", "name": "KEZF", "quality": 98, "contribution": 0.0}, "72403303706": {"distance": 10497.0, "latitude": 38.267, "longitude": -77.449, "useCount": 0, "id": "72403303706", "name": "FREDERICKSBURG SHANNON AIRPORT, VA US", "quality": 99, "contribution": 0.0}, "72403513773": {"distance": 37005.0, "latitude": 38.504, "longitude": -77.305, "useCount": 0, "id": "72403513773", "name": "QUANTICO MCAS, VA US", "quality": 100, "contribution": 0.0}, "KRMN": {"distance": 24847.0, "latitude": 38.4, "longitude": -77.45, "useCount": 0, "id": "KRMN", "name": "KRMN", "quality": 99, "contribution": 0.0}}}