{"queryCost": 1, "latitude": 35.447, "longitude": -120.639, "resolvedAddress": "35.44700,-120.63900", "address": "35.44700,-120.63900", "timezone": "America/Los_Angeles", "tzoffset": -8.0, "days": [{"datetime": "2017-01-24", "datetimeEpoch": 1485244800, "tempmax": 54.9, "tempmin": 37.9, "temp": 46.2, "feelslikemax": 54.9, "feelslikemin": 37.9, "feelslike": 45.4, "dew": 39.3, "humidity": 77.9, "precip": 0.05, "precipprob": 100.0, "precipcover": 8.33, "preciptype": ["rain"], "snow": 0.0, "snowdepth": 0.0, "windgust": null, "windspeed": 7.6, "winddir": 148.5, "pressure": 1017.1, "cloudcover": 28.4, "visibility": 9.8, "solarradiation": 124.7, "solarenergy": 10.8, "uvindex": 5.0, "sunrise": "07:07:15", "sunriseEpoch": 1485270435, "sunset": "17:22:37", "sunsetEpoch": 1485307357, "moonphase": 0.95, "conditions": "Rain, Partially cloudy", "description": "Partly cloudy throughout the day with early morning rain.", "icon": "rain", "stations": ["KSMX", "72394023273", "KSBP", "KPRB", "72289793206", "72396593209"], "source": "obs"}], "stations": {"KSMX": {"distance": 63274.0, "latitude": 34.9, "longitude": -120.45, "useCount": 0, "id": "KSMX", "name": "KSMX", "quality": 100, "contribution": 0.0}, "72394023273": {"distance": 63363.0, "latitude": 34.899, "longitude": -120.449, "useCount": 0, "id": "72394023273", "name": "SANTA MARIA PUBLIC AIRPORT, CA US", "quality": 100, "contribution": 0.0}, "KSBP": {"distance": 25283.0, "latitude": 35.22, "longitude": -120.63, "useCount": 0, "id": "KSBP", "name": "KSBP", "quality": 99, "contribution": 0.0}, "KPRB": {"distance": 24838.0, "latitude": 35.67, "longitude": -120.63, "useCount": 0, "id": "KPRB", "name": "KPRB", "quality": 100, "contribution": 0.0}, "72289793206": {"distance": 23356.0, "latitude": 35.237, "longitude": -120.641, "useCount": 0, "id": "72289793206", "name": "SAN LUIS OBISPO MCCHESNEY FIELD, CA US", "quality": 100, "contribution": 0.0}, "72396593209": {"distance": 24811.0, "latitude": 35.67, "longitude": -120.628, "useCount": 0, "id": "72396593209", "name": "PASO ROBLES MUNICIPAL AIRPORT, CA US", "quality": 100, "contribution": 0.0}}}