{"queryCost": 1, "latitude": 29.972, "longitude": -90.243, "resolvedAddress": "29.97200,-90.24300", "address": "29.97200,-90.24300", "timezone": "America/Chicago", "tzoffset": -6.0, "days": [{"datetime": "2017-01-23", "datetimeEpoch": 1485151200, "tempmax": 66.8, "tempmin": 53.2, "temp": 58.9, "feelslikemax": 66.8, "feelslikemin": 53.2, "feelslike": 58.9, "dew": 46.5, "humidity": 64.1, "precip": 0.0, "precipprob": 0.0, "precipcover": 0.0, "preciptype": null, "snow": 0.0, "snowdepth": 0.0, "windgust": 31.1, "windspeed": 20.8, "winddir": 297.1, "pressure": 1009.5, "cloudcover": 42.4, "visibility": 9.9, "solarradiation": 190.8, "solarenergy": 16.4, "uvindex": 7.0, "sunrise": "06:55:25", "sunriseEpoch": 1485176125, "sunset": "17:30:42", "sunsetEpoch": 1485214242, "moonphase": 0.91, "conditions": "Partially cloudy", "description": "Clearing in the afternoon.", "icon": "partly-cloudy-day", "stations": ["KNEW", "72231553917", "72231012916", "KMSY", "KNBG", "72231612958"], "source": "obs"}], "stations": {"KNEW": {"distance": 22293.0, "latitude": 30.05, "longitude": -90.03, "useCount": 0, "id": "KNEW", "name": "KNEW", "quality": 94, "contribution": 0.0}, "72231553917": {"distance": 22373.0, "latitude": 30.049, "longitude": -90.029, "useCount": 0, "id": "72231553917", "name": "NEW ORLEANS LAKEFRONT AIRPORT, LA US", "quality": 94, "contribution": 0.0}, "72231012916": {"distance": 4330.0, "latitude": 29.997, "longitude": -90.277, "useCount": 0, "id": "72231012916", "name": "NEW ORLEANS AIRPORT, LA US", "quality": 100, "contribution": 0.0}, "KMSY": {"distance": 1117.0, "latitude": 29.98, "longitude": -90.25, "useCount": 0, "id": "KMSY", "name": "KMSY", "quality": 100, "contribution": 0.0}, "KNBG": {"distance": 25930.0, "latitude": 29.83, "longitude": -90.03, "useCount": 0, "id": "KNBG", "name": "KNBG", "quality": 97, "contribution": 0.0}, "72231612958": {"distance": 27854.0, "latitude": 29.817, "longitude": -90.017, "useCount": 0, "id": "72231612958", "name": "NEW ORLEANS ALVIN CALLENDER FIELD, LA US", "quality": 96, "contribution": 0.0}}}