{"queryCost": 1, "latitude": 30.05, "longitude": -89.974, "resolvedAddress": "30.05000,-89.97400", "address": "30.05000,-89.97400", "timezone": "America/Chicago", "tzoffset": -6.0, "days": [{"datetime": "2017-01-24", "datetimeEpoch": 1485237600, "tempmax": 69.0, "tempmin": 51.6, "temp": 59.8, "feelslikemax": 69.0, "feelslikemin": 51.6, "feelslike": 59.8, "dew": 50.5, "humidity": 72.5, "precip": 0.0, "precipprob": 0.0, "precipcover": 0.0, "preciptype": null, "snow": 0.0, "snowdepth": 0.0, "windgust": null, "windspeed": 12.6, "winddir": 154.7, "pressure": 1012.6, "cloudcover": 1.0, "visibility": 9.6, "solarradiation": 190.6, "solarenergy": 16.4, "uvindex": 7.0, "sunrise": "06:54:06", "sunriseEpoch": 1485262446, "sunset": "17:30:21", "sunsetEpoch": 1485300621, "moonphase": 0.95, "conditions": "Clear", "description": "Clear conditions throughout the day.", "icon": "clear-day", "stations": ["KNEW", "72231553917", "72231012916", "KNBG", "KMSY", "72231612958"], "source": "obs"}], "stations": {"KNEW": {"distance": 5396.0, "latitude": 30.05, "longitude": -90.03, "useCount": 0, "id": "KNEW", "name": "KNEW", "quality": 94, "contribution": 0.0}, "72231553917": {"distance": 5281.0, "latitude": 30.049, "longitude": -90.029, "useCount": 0, "id": "72231553917", "name": "NEW ORLEANS LAKEFRONT AIRPORT, LA US", "quality": 94, "contribution": 0.0}, "72231012916": {"distance": 29843.0, "latitude": 29.997, "longitude": -90.277, "useCount": 0, "id": "72231012916", "name": "NEW ORLEANS AIRPORT, LA US", "quality": 100, "contribution": 0.0}, "KNBG": {"distance": 25079.0, "latitude": 29.83, "longitude": -90.03, "useCount": 0, "id": "KNBG", "name": "KNBG", "quality": 97, "contribution": 0.0}, "KMSY": {"distance": 27722.0, "latitude": 29.98, "longitude": -90.25, "useCount": 0, "id": "KMSY", "name": "KMSY", "quality": 100, "contribution": 0.0}, "72231612958": {"distance": 26295.0, "latitude": 29.817, "longitude": -90.017, "useCount": 0, "id": "72231612958", "name": "NEW ORLEANS ALVIN CALLENDER FIELD, LA US", "quality": 96, "contribution": 0.0}}}