{"queryCost": 1, "latitude": 47.829, "longitude": -122.311, "resolvedAddress": "47.82900,-122.31100", "address": "47.82900,-122.31100", "timezone": "America/Los_Angeles", "tzoffset": -8.0, "days": [{"datetime": "2017-01-30", "datetimeEpoch": 1485763200, "tempmax": 44.3, "tempmin": 39.5, "temp": 41.4, "feelslikemax": 44.3, "feelslikemin": 35.3, "feelslike": 37.5, "dew": 38.2, "humidity": 88.4, "precip": 0.0, "precipprob": 0.0, "precipcover": 0.0, "preciptype": null, "snow": 0.0, "snowdepth": 0.0, "windgust": null, "windspeed": 12.1, "winddir": 323.1, "pressure": 1027.8, "cloudcover": 87.2, "visibility": 9.2, "solarradiation": 30.3, "solarenergy": 2.5, "uvindex": 2.0, "sunrise": "07:38:28", "sunriseEpoch": 1485790708, "sunset": "17:07:19", "sunsetEpoch": 1485824839, "moonphase": 0.03, "conditions": "Partially cloudy", "description": "Partly cloudy throughout the day.", "icon": "partly-cloudy-day", "stations": ["KBFI", "KPAE", "72793524234", "72793494248", "72793724222", "KRNT"], "source": "obs"}], "stations": {"KBFI": {"distance": 33295.0, "latitude": 47.53, "longitude": -122.3, "useCount": 0, "id": "KBFI", "name": "KBFI", "quality": 100, "contribution": 0.0}, "KPAE": {"distance": 10391.0, "latitude": 47.92, "longitude": -122.28, "useCount": 0, "id": "KPAE", "name": "KPAE", "quality": 100, "contribution": 0.0}, "72793524234": {"distance": 33260.0, "latitude": 47.53, "longitude": -122.301, "useCount": 0, "id": "72793524234", "name": "SEATTLE BOEING FIELD, WA US", "quality": 100, "contribution": 0.0}, "72793494248": {"distance": 38071.0, "latitude": 47.493, "longitude": -122.214, "useCount": 0, "id": "72793494248", "name": "RENTON MUNICIPAL AIRPORT, WA US", "quality": 100, "contribution": 0.0}, "72793724222": {"distance": 9072.0, "latitude": 47.908, "longitude": -122.28, "useCount": 0, "id": "72793724222", "name": "EVERETT SNOHOMISH CO AIRPORT, WA US", "quality": 100, "contribution": 0.0}, "KRNT": {"distance": 37254.0, "latitude": 47.5, "longitude": -122.22, "useCount": 0, "id": "KRNT", "name": "KRNT", "quality": 100, "contribution": 0.0}}}