{"queryCost": 1, "latitude": 38.983, "longitude": -94.569, "resolvedAddress": "38.98300,-94.56900", "address": "38.98300,-94.56900", "timezone": "America/Chicago", "tzoffset": -6.0, "days": [{"datetime": "2017-02-04", "datetimeEpoch": 1486188000, "tempmax": 46.3, "tempmin": 25.7, "temp": 35.2, "feelslikemax": 38.5, "feelslikemin": 13.5, "feelslike": 26.6, "dew": 17.4, "humidity": 48.3, "precip": 0.0, "precipprob": 0.0, "precipcover": 0.0, "preciptype": null, "snow": 0.0, "snowdepth": 0.0, "windgust": 34.3, "windspeed": 21.8, "winddir": 183.4, "pressure": 1020.2, "cloudcover": 20.0, "visibility": 9.9, "solarradiation": 157.1, "solarenergy": 13.4, "uvindex": 6.0, "sunrise": "07:21:33", "sunriseEpoch": 1486214493, "sunset": "17:43:23", "sunsetEpoch": 1486251803, "moonphase": 0.27, "conditions": "Clear", "description": "Partly cloudy throughout the day.", "icon": "clear-day", "stations": ["72446803967", "72030653879", "KMKC", "KLXT", "KOJC", "72446313988"], "source": "obs"}], "stations": {"72446803967": {"distance": 20893.0, "latitude": 38.85, "longitude": -94.739, "useCount": 0, "id": "72446803967", "name": "OLATHE JOHNSON CO EXECUTIVE AIRPORT, KS US", "quality": 100, "contribution": 0.0}, "72030653879": {"distance": 17297.0, "latitude": 38.96, "longitude": -94.371, "useCount": 0, "id": "72030653879", "name": "LEES SUMMIT MUNICIPAL AIRPORT, MO US", "quality": 100, "contribution": 0.0}, "KMKC": {"distance": 14389.0, "latitude": 39.11, "longitude": -94.6, "useCount": 0, "id": "KMKC", "name": "KMKC", "quality": 100, "contribution": 0.0}, "KLXT": {"distance": 17412.0, "latitude": 38.96, "longitude": -94.37, "useCount": 0, "id": "KLXT", "name": "KLXT", "quality": 100, "contribution": 0.0}, "KOJC": {"distance": 20339.0, "latitude": 38.85, "longitude": -94.73, "useCount": 0, "id": "KOJC", "name": "KOJC", "quality": 100, "contribution": 0.0}, "72446313988": {"distance": 15528.0, "latitude": 39.121, "longitude": -94.597, "useCount": 0, "id": "72446313988", "name": "KANSAS CITY DOWNTOWN AIRPORT, MO US", "quality": 100, "contribution": 0.0}}}