{"queryCost": 1, "latitude": 41.529, "longitude": -81.609, "resolvedAddress": "41.52900,-81.60900", "address": "41.52900,-81.60900", "timezone": "America/New_York", "tzoffset": -4.0, "days": [{"datetime": "2015-03-19", "datetimeEpoch": 1426737600, "tempmax": 35.3, "tempmin": 26.1, "temp": 30.6, "feelslikemax": 28.2, "feelslikemin": 18.7, "feelslike": 22.9, "dew": 21.5, "humidity": 69.7, "precip": 0.0, "precipprob": 0.0, "precipcover": 0.0, "preciptype": null, "snow": 0.0, "snowdepth": 0.0, "windgust": 24.2, "windspeed": 16.7, "winddir": 39.0, "pressure": 1025.5, "cloudcover": 33.6, "visibility": 9.9, "solarradiation": 196.0, "solarenergy": 16.9, "uvindex": 7.0, "sunrise": "07:31:48", "sunriseEpoch": 1426764708, "sunset": "19:37:19", "sunsetEpoch": 1426808239, "moonphase": 1.0, "conditions": "Partially cloudy", "description": "Becoming cloudy in the afternoon.", "icon": "partly-cloudy-day", "stations": ["KLNN", "KCLE", "72524014820", "KBKL", "72524504853", "72524499999"], "source": "obs"}], "stations": {"KLNN": {"distance": 25414.0, "latitude": 41.68, "longitude": -81.38, "useCount": 0, "id": "KLNN", "name": "KLNN", "quality": 100, "contribution": 0.0}, "KCLE": {"distance": 24922.0, "latitude": 41.42, "longitude": -81.87, "useCount": 0, "id": "KCLE", "name": "KCLE", "quality": 100, "contribution": 0.0}, "72524014820": {"distance": 24480.0, "latitude": 41.406, "longitude": -81.852, "useCount": 0, "id": "72524014820", "name": "CLEVELAND HOPKINS INTERNATIONAL AIRPORT, OH US", "quality": 100, "contribution": 0.0}, "KBKL": {"distance": 6001.0, "latitude": 41.52, "longitude": -81.68, "useCount": 0, "id": "KBKL", "name": "KBKL", "quality": 100, "contribution": 0.0}, "72524504853": {"distance": 6348.0, "latitude": 41.518, "longitude": -81.684, "useCount": 0, "id": "72524504853", "name": "CLEVELAND BURKE LAKEFRONT AIRPORT, OH US", "quality": 100, "contribution": 0.0}, "72524499999": {"distance": 25118.0, "latitude": 41.684, "longitude": -81.39, "useCount": 0, "id": "72524499999", "name": "WILLOUGHBY LOST NATION MUNICIPAL, OH US", "quality": 100, "contribution": 0.0}}}