{"queryCost": 1, "latitude": 32.864, "longitude": -96.938, "resolvedAddress": "32.86400,-96.93800", "address": "32.86400,-96.93800", "timezone": "America/Chicago", "tzoffset": -6.0, "days": [{"datetime": "2017-02-03", "datetimeEpoch": 1486101600, "tempmax": 53.0, "tempmin": 41.5, "temp": 46.2, "feelslikemax": 53.0, "feelslikemin": 35.3, "feelslike": 42.5, "dew": 28.1, "humidity": 49.4, "precip": 0.0, "precipprob": 0.0, "precipcover": 0.0, "preciptype": null, "snow": 0.0, "snowdepth": 0.0, "windgust": 22.4, "windspeed": 12.4, "winddir": 103.8, "pressure": 1029.1, "cloudcover": 83.1, "visibility": 9.9, "solarradiation": 186.9, "solarenergy": 16.1, "uvindex": 7.0, "sunrise": "07:21:08", "sunriseEpoch": 1486128068, "sunset": "18:02:28", "sunsetEpoch": 1486166548, "moonphase": 0.21, "conditions": "Partially cloudy", "description": "Partly cloudy throughout the day.", "icon": "partly-cloudy-day", "stations": ["KDAL", "72259003927", "72259903971", "KDFW", "KGPM", "72258013960"], "source": "obs"}], "stations": {"KDAL": {"distance": 8375.0, "latitude": 32.85, "longitude": -96.85, "useCount": 0, "id": "KDAL", "name": "KDAL", "quality": 100, "contribution": 0.0}, "72259003927": {"distance": 8447.0, "latitude": 32.898, "longitude": -97.019, "useCount": 0, "id": "72259003927", "name": "DAL FTW WSCMO AIRPORT, TX US", "quality": 100, "contribution": 0.0}, "72259903971": {"distance": 21418.0, "latitude": 32.681, "longitude": -96.868, "useCount": 0, "id": "72259903971", "name": "DALLAS REDBIRD AIRPORT, TX US", "quality": 99, "contribution": 0.0}, "KDFW": {"distance": 9488.0, "latitude": 32.9, "longitude": -97.03, "useCount": 0, "id": "KDFW", "name": "KDFW", "quality": 100, "contribution": 0.0}, "KGPM": {"distance": 21052.0, "latitude": 32.7, "longitude": -97.05, "useCount": 0, "id": "KGPM", "name": "KGPM", "quality": 98, "contribution": 0.0}, "72258013960": {"distance": 7831.0, "latitude": 32.852, "longitude": -96.855, "useCount": 0, "id": "72258013960", "name": "DALLAS FAA AIRPORT, TX US", "quality": 100, "contribution": 0.0}}}