{"queryCost": 1, "latitude": 38.251, "longitude": -104.639, "resolvedAddress": "38.25100,-104.63900", "address": "38.25100,-104.63900", "timezone": "America/Denver", "tzoffset": -7.0, "days": [{"datetime": "2017-02-05", "datetimeEpoch": 1486278000, "tempmax": 65.6, "tempmin": 21.5, "temp": 41.0, "feelslikemax": 65.6, "feelslikemin": 17.2, "feelslike": 38.2, "dew": 18.9, "humidity": 46.7, "precip": 0.0, "precipprob": 0.0, "precipcover": 0.0, "preciptype": null, "snow": 0.0, "snowdepth": 0.0, "windgust": 20.8, "windspeed": 13.3, "winddir": 225.4, "pressure": 1013.0, "cloudcover": 1.4, "visibility": 9.9, "solarradiation": 173.2, "solarenergy": 15.0, "uvindex": 7.0, "sunrise": "06:59:28", "sunriseEpoch": 1486303168, "sunset": "17:26:11", "sunsetEpoch": 1486340771, "moonphase": 0.33, "conditions": "Clear", "description": "Clear conditions throughout the day.", "icon": "clear-day", "stations": ["KPUB", "72468094015", "72466093037", "72464093058", "KFCS", "KCOS"], "source": "obs"}], "stations": {"KPUB": {"distance": 10890.0, "latitude": 38.28, "longitude": -104.52, "useCount": 0, "id": "KPUB", "name": "KPUB", "quality": 100, "contribution": 0.0}, "72468094015": {"distance": 48666.0, "latitude": 38.678, "longitude": -104.757, "useCount": 0, "id": "72468094015", "name": "FORT CARSON BUTTS ARMY AIR FIELD, CO US", "quality": 94, "contribution": 0.0}, "72466093037": {"distance": 62374.0, "latitude": 38.81, "longitude": -104.688, "useCount": 0, "id": "72466093037", "name": "COLORADO SPRINGS MUNICIPAL AIRPORT, CO US", "quality": 100, "contribution": 0.0}, "72464093058": {"distance": 12358.0, "latitude": 38.289, "longitude": -104.506, "useCount": 0, "id": "72464093058", "name": "PUEBLO MEMORIAL AIRPORT, CO US", "quality": 100, "contribution": 0.0}, "KFCS": {"distance": 49102.0, "latitude": 38.68, "longitude": -104.77, "useCount": 0, "id": "KFCS", "name": "KFCS", "quality": 100, "contribution": 0.0}, "KCOS": {"distance": 63732.0, "latitude": 38.82, "longitude": -104.72, "useCount": 0, "id": "KCOS", "name": "KCOS", "quality": 100, "contribution": 0.0}}}