{"queryCost": 1, "latitude": 41.804, "longitude": -80.916, "resolvedAddress": "41.80400,-80.91600", "address": "41.80400,-80.91600", "timezone": "America/New_York", "tzoffset": -5.0, "days": [{"datetime": "2017-02-09", "datetimeEpoch": 1486616400, "tempmax": 24.4, "tempmin": 19.6, "temp": 21.3, "feelslikemax": 15.6, "feelslikemin": 5.1, "feelslike": 9.6, "dew": 12.4, "humidity": 68.4, "precip": 0.0, "precipprob": 0.0, "precipcover": 0.0, "preciptype": null, "snow": 0.8, "snowdepth": 1.5, "windgust": 28.8, "windspeed": 17.6, "winddir": 273.9, "pressure": 1017.3, "cloudcover": 76.5, "visibility": 7.6, "solarradiation": 66.7, "solarenergy": 5.7, "uvindex": 3.0, "sunrise": "07:26:40", "sunriseEpoch": 1486643200, "sunset": "17:49:37", "sunsetEpoch": 1486680577, "moonphase": 0.49, "conditions": "Partially cloudy", "description": "Partly cloudy throughout the day.", "icon": "snow", "stations": ["72525604857", "KLNN", "KGKJ", "72510404843", "KHZY", "72524499999"], "source": "obs"}], "stations": {"72525604857": {"distance": 18502.0, "latitude": 41.778, "longitude": -80.696, "useCount": 0, "id": "72525604857", "name": "ASHTABULA CO AIRPORT, OH US", "quality": 100, "contribution": 0.0}, "KLNN": {"distance": 40938.0, "latitude": 41.68, "longitude": -81.38, "useCount": 0, "id": "KLNN", "name": "KLNN", "quality": 100, "contribution": 0.0}, "KGKJ": {"distance": 62568.0, "latitude": 41.63, "longitude": -80.2, "useCount": 0, "id": "KGKJ", "name": "KGKJ", "quality": 100, "contribution": 0.0}, "72510404843": {"distance": 61514.0, "latitude": 41.626, "longitude": -80.215, "useCount": 0, "id": "72510404843", "name": "MEADVILLE PORT MEADVILLE AIRPORT, PA US", "quality": 100, "contribution": 0.0}, "KHZY": {"distance": 18125.0, "latitude": 41.78, "longitude": -80.7, "useCount": 0, "id": "KHZY", "name": "KHZY", "quality": 100, "contribution": 0.0}, "72524499999": {"distance": 41551.0, "latitude": 41.684, "longitude": -81.39, "useCount": 0, "id": "72524499999", "name": "WILLOUGHBY LOST NATION MUNICIPAL, OH US", "quality": 100, "contribution": 0.0}}}