{"queryCost": 1, "latitude": 45.652, "longitude": -122.613, "resolvedAddress": "45.65200,-122.61300", "address": "45.65200,-122.61300", "timezone": "America/Los_Angeles", "tzoffset": -8.0, "days": [{"datetime": "2017-02-10", "datetimeEpoch": 1486713600, "tempmax": 50.5, "tempmin": 37.6, "temp": 45.8, "feelslikemax": 50.5, "feelslikemin": 37.6, "feelslike": 42.5, "dew": 39.9, "humidity": 80.4, "precip": 0.15, "precipprob": 100.0, "precipcover": 33.33, "preciptype": ["rain"], "snow": 0.0, "snowdepth": 0.0, "windgust": 28.9, "windspeed": 12.8, "winddir": 195.3, "pressure": 1014.0, "cloudcover": 62.5, "visibility": 9.6, "solarradiation": 73.5, "solarenergy": 6.3, "uvindex": 3.0, "sunrise": "07:19:22", "sunriseEpoch": 1486739962, "sunset": "17:30:36", "sunsetEpoch": 1486776636, "moonphase": 0.5, "conditions": "Rain, Partially cloudy", "description": "Partly cloudy throughout the day with a chance of rain throughout the day.", "icon": "rain", "stations": ["72698524242", "KVUO", "KPDX", "72698024229", "KTTD", "72791894298"], "source": "obs"}], "stations": {"72698524242": {"distance": 19458.0, "latitude": 45.551, "longitude": -122.409, "useCount": 0, "id": "72698524242", "name": "PORTLAND TROUTDALE AIRPORT, OR US", "quality": 100, "contribution": 0.0}, "KVUO": {"distance": 5106.0, "latitude": 45.62, "longitude": -122.66, "useCount": 0, "id": "KVUO", "name": "KVUO", "quality": 100, "contribution": 0.0}, "KPDX": {"distance": 5876.0, "latitude": 45.6, "longitude": -122.6, "useCount": 0, "id": "KPDX", "name": "KPDX", "quality": 100, "contribution": 0.0}, "72698024229": {"distance": 6264.0, "latitude": 45.596, "longitude": -122.609, "useCount": 0, "id": "72698024229", "name": "PORTLAND INTERNATIONAL AIRPORT, OR US", "quality": 100, "contribution": 0.0}, "KTTD": {"distance": 18838.0, "latitude": 45.55, "longitude": -122.42, "useCount": 0, "id": "KTTD", "name": "KTTD", "quality": 100, "contribution": 0.0}, "72791894298": {"distance": 4878.0, "latitude": 45.621, "longitude": -122.657, "useCount": 0, "id": "72791894298", "name": "VANCOUVER PEARSON AIRPORT, WA US", "quality": 100, "contribution": 0.0}}}