{"queryCost": 1, "latitude": 38.918, "longitude": -94.507, "resolvedAddress": "38.91800,-94.50700", "address": "38.91800,-94.50700", "timezone": "America/Chicago", "tzoffset": -6.0, "days": [{"datetime": "2017-02-11", "datetimeEpoch": 1486792800, "tempmax": 71.2, "tempmin": 49.8, "temp": 59.3, "feelslikemax": 71.2, "feelslikemin": 46.8, "feelslike": 59.2, "dew": 51.5, "humidity": 76.8, "precip": 0.0, "precipprob": 0.0, "precipcover": 0.0, "preciptype": null, "snow": 0.0, "snowdepth": 0.0, "windgust": 19.7, "windspeed": 12.9, "winddir": 201.3, "pressure": 1007.9, "cloudcover": 10.4, "visibility": 9.5, "solarradiation": 152.7, "solarenergy": 13.2, "uvindex": 6.0, "sunrise": "07:13:40", "sunriseEpoch": 1486818820, "sunset": "17:51:20", "sunsetEpoch": 1486857080, "moonphase": 0.5, "conditions": "Clear", "description": "Clear conditions throughout the day.", "icon": "clear-day", "stations": ["72446803967", "72030653879", "KMKC", "KLXT", "KOJC", "72446313988"], "source": "obs"}], "stations": {"72446803967": {"distance": 21498.0, "latitude": 38.85, "longitude": -94.739, "useCount": 0, "id": "72446803967", "name": "OLATHE JOHNSON CO EXECUTIVE AIRPORT, KS US", "quality": 100, "contribution": 0.0}, "72030653879": {"distance": 12625.0, "latitude": 38.96, "longitude": -94.371, "useCount": 0, "id": "72030653879", "name": "LEES SUMMIT MUNICIPAL AIRPORT, MO US", "quality": 100, "contribution": 0.0}, "KMKC": {"distance": 22837.0, "latitude": 39.11, "longitude": -94.6, "useCount": 0, "id": "KMKC", "name": "KMKC", "quality": 100, "contribution": 0.0}, "KLXT": {"distance": 12750.0, "latitude": 38.96, "longitude": -94.37, "useCount": 0, "id": "KLXT", "name": "KLXT", "quality": 100, "contribution": 0.0}, "KOJC": {"distance": 20753.0, "latitude": 38.85, "longitude": -94.73, "useCount": 0, "id": "KOJC", "name": "KOJC", "quality": 100, "contribution": 0.0}, "72446313988": {"distance": 23877.0, "latitude": 39.121, "longitude": -94.597, "useCount": 0, "id": "72446313988", "name": "KANSAS CITY DOWNTOWN AIRPORT, MO US", "quality": 100, "contribution": 0.0}}}