{"queryCost": 1, "latitude": 36.022, "longitude": -78.906, "resolvedAddress": "36.02200,-78.90600", "address": "36.02200,-78.90600", "timezone": "America/New_York", "tzoffset": -5.0, "days": [{"datetime": "2017-02-12", "datetimeEpoch": 1486875600, "tempmax": 81.2, "tempmin": 59.5, "temp": 68.6, "feelslikemax": 80.8, "feelslikemin": 59.5, "feelslike": 68.6, "dew": 53.9, "humidity": 61.2, "precip": 0.03, "precipprob": 100.0, "precipcover": 4.17, "preciptype": ["rain"], "snow": 0.0, "snowdepth": 0.0, "windgust": 31.1, "windspeed": 19.6, "winddir": 240.8, "pressure": 1012.2, "cloudcover": 36.6, "visibility": 9.7, "solarradiation": 172.4, "solarenergy": 14.8, "uvindex": 7.0, "sunrise": "07:05:50", "sunriseEpoch": 1486901150, "sunset": "17:54:17", "sunsetEpoch": 1486940057, "moonphase": 0.52, "conditions": "Rain, Partially cloudy", "description": "Partly cloudy throughout the day with late afternoon rain.", "icon": "rain", "stations": ["KTDF", "KBUY", "72306013722", "KRDU", "99999903758"], "source": "obs"}], "stations": {"KTDF": {"distance": 29481.0, "latitude": 36.28, "longitude": -78.98, "useCount": 0, "id": "KTDF", "name": "KTDF", "quality": 95, "contribution": 0.0}, "KBUY": {"distance": 50813.0, "latitude": 36.04, "longitude": -79.47, "useCount": 0, "id": "KBUY", "name": "KBUY", "quality": 100, "contribution": 0.0}, "72306013722": {"distance": 18262.0, "latitude": 35.892, "longitude": -78.782, "useCount": 0, "id": "72306013722", "name": "RALEIGH AIRPORT, NC US", "quality": 100, "contribution": 0.0}, "KRDU": {"distance": 21311.0, "latitude": 35.86, "longitude": -78.78, "useCount": 0, "id": "KRDU", "name": "KRDU", "quality": 100, "contribution": 0.0}, "99999903758": {"distance": 17799.0, "latitude": 35.971, "longitude": -79.093, "useCount": 0, "id": "99999903758", "name": "DURHAM 11 W, NC US", "quality": 100, "contribution": 0.0}}}