{"queryCost": 1, "latitude": 45.506, "longitude": -122.53, "resolvedAddress": "45.50600,-122.53000", "address": "45.50600,-122.53000", "timezone": "America/Los_Angeles", "tzoffset": -7.0, "days": [{"datetime": "2015-03-22", "datetimeEpoch": 1427007600, "tempmax": 55.5, "tempmin": 47.0, "temp": 49.9, "feelslikemax": 55.5, "feelslikemin": 42.1, "feelslike": 47.9, "dew": 44.2, "humidity": 80.8, "precip": 0.17, "precipprob": 100.0, "precipcover": 29.17, "preciptype": ["rain"], "snow": 0.0, "snowdepth": 0.0, "windgust": 32.2, "windspeed": 10.7, "winddir": 106.1, "pressure": 1016.2, "cloudcover": 85.3, "visibility": 9.8, "solarradiation": 68.0, "solarenergy": 5.9, "uvindex": 2.0, "sunrise": "07:09:33", "sunriseEpoch": 1427033373, "sunset": "19:25:11", "sunsetEpoch": 1427077511, "moonphase": 0.03, "conditions": "Rain, Partially cloudy", "description": "Partly cloudy throughout the day with rain.", "icon": "rain", "stations": ["72698524242", "KVUO", "KTTD", "72698024229", "KPDX", "72791894298"], "source": "obs"}], "stations": {"72698524242": {"distance": 10689.0, "latitude": 45.551, "longitude": -122.409, "useCount": 0, "id": "72698524242", "name": "PORTLAND TROUTDALE AIRPORT, OR US", "quality": 100, "contribution": 0.0}, "KVUO": {"distance": 16239.0, "latitude": 45.62, "longitude": -122.66, "useCount": 0, "id": "KVUO", "name": "KVUO", "quality": 100, "contribution": 0.0}, "KTTD": {"distance": 9878.0, "latitude": 45.55, "longitude": -122.42, "useCount": 0, "id": "KTTD", "name": "KTTD", "quality": 100, "contribution": 0.0}, "72698024229": {"distance": 11741.0, "latitude": 45.596, "longitude": -122.609, "useCount": 0, "id": "72698024229", "name": "PORTLAND INTERNATIONAL AIRPORT, OR US", "quality": 100, "contribution": 0.0}, "KPDX": {"distance": 11801.0, "latitude": 45.6, "longitude": -122.6, "useCount": 0, "id": "KPDX", "name": "KPDX", "quality": 100, "contribution": 0.0}, "72791894298": {"distance": 16164.0, "latitude": 45.621, "longitude": -122.657, "useCount": 0, "id": "72791894298", "name": "VANCOUVER PEARSON AIRPORT, WA US", "quality": 100, "contribution": 0.0}}}