{"queryCost": 1, "latitude": 35.508, "longitude": -97.66, "resolvedAddress": "35.50800,-97.66000", "address": "35.50800,-97.66000", "timezone": "America/Chicago", "tzoffset": -6.0, "days": [{"datetime": "2017-02-10", "datetimeEpoch": 1486706400, "tempmax": 76.8, "tempmin": 47.7, "temp": 61.7, "feelslikemax": 76.8, "feelslikemin": 40.5, "feelslike": 58.9, "dew": 38.3, "humidity": 43.3, "precip": 0.0, "precipprob": 0.0, "precipcover": 0.0, "preciptype": null, "snow": 0.0, "snowdepth": 0.0, "windgust": 42.2, "windspeed": 30.7, "winddir": 191.2, "pressure": 1012.7, "cloudcover": 2.1, "visibility": 9.9, "solarradiation": 188.8, "solarenergy": 16.3, "uvindex": 7.0, "sunrise": "07:22:06", "sunriseEpoch": 1486732926, "sunset": "18:08:04", "sunsetEpoch": 1486771684, "moonphase": 0.5, "conditions": "Clear", "description": "Clear conditions throughout the day.", "icon": "wind", "stations": ["72353013967", "KRCE", "KPWA", "72354403954", "KOKC", "72062800215"], "source": "obs"}], "stations": {"72353013967": {"distance": 14311.0, "latitude": 35.389, "longitude": -97.601, "useCount": 0, "id": "72353013967", "name": "OKLAHOMA CITY WILL ROGERS WORLD AIRPORT, OK US", "quality": 100, "contribution": 0.0}, "KRCE": {"distance": 15107.0, "latitude": 35.47, "longitude": -97.82, "useCount": 0, "id": "KRCE", "name": "KRCE", "quality": 95, "contribution": 0.0}, "KPWA": {"distance": 2611.0, "latitude": 35.53, "longitude": -97.65, "useCount": 0, "id": "KPWA", "name": "KPWA", "quality": 100, "contribution": 0.0}, "72354403954": {"distance": 3149.0, "latitude": 35.534, "longitude": -97.647, "useCount": 0, "id": "72354403954", "name": "OKLAHOMA CITY WILEY POST AIRPORT, OK US", "quality": 100, "contribution": 0.0}, "KOKC": {"distance": 13196.0, "latitude": 35.4, "longitude": -97.6, "useCount": 0, "id": "KOKC", "name": "KOKC", "quality": 100, "contribution": 0.0}, "72062800215": {"distance": 14499.0, "latitude": 35.483, "longitude": -97.817, "useCount": 0, "id": "72062800215", "name": "CLARENCE E PAGE MUNICIPAL AIRPORT, OK US", "quality": 100, "contribution": 0.0}}}