{"queryCost": 1, "latitude": 40.74, "longitude": -73.238, "resolvedAddress": "40.74000,-73.23800", "address": "40.74000,-73.23800", "timezone": "America/New_York", "tzoffset": -4.0, "days": [{"datetime": "2015-03-22", "datetimeEpoch": 1426996800, "tempmax": 42.8, "tempmin": 29.4, "temp": 36.7, "feelslikemax": 38.1, "feelslikemin": 17.9, "feelslike": 27.8, "dew": 15.3, "humidity": 42.8, "precip": 0.0, "precipprob": 0.0, "precipcover": 0.0, "preciptype": null, "snow": 0.0, "snowdepth": 0.3, "windgust": 29.9, "windspeed": 19.0, "winddir": 311.9, "pressure": 1016.2, "cloudcover": 17.0, "visibility": 9.9, "solarradiation": 259.0, "solarenergy": 22.2, "uvindex": 8.0, "sunrise": "06:53:23", "sunriseEpoch": 1427021603, "sunset": "19:06:59", "sunsetEpoch": 1427065619, "moonphase": 0.03, "conditions": "Clear", "description": "Clear conditions throughout the day.", "icon": "clear-day", "stations": ["KFRG", "72505004781", "KISP", "72501654790", "74486454787", "KHWV"], "source": "obs"}], "stations": {"KFRG": {"distance": 15514.0, "latitude": 40.72, "longitude": -73.42, "useCount": 0, "id": "KFRG", "name": "KFRG", "quality": 100, "contribution": 0.0}, "72505004781": {"distance": 12949.0, "latitude": 40.794, "longitude": -73.102, "useCount": 0, "id": "72505004781", "name": "ISLIP LI MACARTHUR AIRPORT, NY US", "quality": 100, "contribution": 0.0}, "KISP": {"distance": 13663.0, "latitude": 40.79, "longitude": -73.09, "useCount": 0, "id": "KISP", "name": "KISP", "quality": 100, "contribution": 0.0}, "72501654790": {"distance": 32414.0, "latitude": 40.822, "longitude": -72.869, "useCount": 0, "id": "72501654790", "name": "SHIRLEY BROOKHAVEN AIRPORT, NY US", "quality": 100, "contribution": 0.0}, "74486454787": {"distance": 15104.0, "latitude": 40.734, "longitude": -73.417, "useCount": 0, "id": "74486454787", "name": "FARMINGDALE REPUBLIC AIRPORT, NY US", "quality": 100, "contribution": 0.0}, "KHWV": {"distance": 33084.0, "latitude": 40.82, "longitude": -72.86, "useCount": 0, "id": "KHWV", "name": "KHWV", "quality": 100, "contribution": 0.0}}}