{"queryCost": 1, "latitude": 34.713, "longitude": -112.001, "resolvedAddress": "34.71300,-112.00100", "address": "34.71300,-112.00100", "timezone": "America/Phoenix", "tzoffset": -7.0, "days": [{"datetime": "2015-03-21", "datetimeEpoch": 1426921200, "tempmax": 70.1, "tempmin": 41.7, "temp": 56.3, "feelslikemax": 70.1, "feelslikemin": 36.5, "feelslike": 55.1, "dew": 29.4, "humidity": 40.1, "precip": 0.0, "precipprob": 0.0, "precipcover": 0.0, "preciptype": null, "snow": 0.0, "snowdepth": 0.0, "windgust": 24.2, "windspeed": 12.9, "winddir": 217.5, "pressure": 1017.7, "cloudcover": 0.1, "visibility": 9.9, "solarradiation": 283.6, "solarenergy": 24.5, "uvindex": 9.0, "sunrise": "06:30:25", "sunriseEpoch": 1426944625, "sunset": "18:40:27", "sunsetEpoch": 1426988427, "moonphase": 0.01, "conditions": "Clear", "description": "Clear conditions throughout the day.", "icon": "clear-day", "stations": ["KPRC", "KFLG", "72372323184", "72375600375", "72375003103", "KSEZ"], "source": "obs"}], "stations": {"KPRC": {"distance": 38992.0, "latitude": 34.65, "longitude": -112.42, "useCount": 0, "id": "KPRC", "name": "KPRC", "quality": 100, "contribution": 0.0}, "KFLG": {"distance": 55386.0, "latitude": 35.13, "longitude": -111.67, "useCount": 0, "id": "KFLG", "name": "KFLG", "quality": 100, "contribution": 0.0}, "72372323184": {"distance": 39048.0, "latitude": 34.652, "longitude": -112.421, "useCount": 0, "id": "72372323184", "name": "PRESCOTT LOVE FIELD, AZ US", "quality": 100, "contribution": 0.0}, "72375600375": {"distance": 25097.0, "latitude": 34.85, "longitude": -111.783, "useCount": 0, "id": "72375600375", "name": "SEDONA AIRPORT, AZ US", "quality": 100, "contribution": 0.0}, "72375003103": {"distance": 56902.0, "latitude": 35.144, "longitude": -111.666, "useCount": 0, "id": "72375003103", "name": "FLAGSTAFF PULLIAM AIRPORT, AZ US", "quality": 100, "contribution": 0.0}, "KSEZ": {"distance": 25315.0, "latitude": 34.85, "longitude": -111.78, "useCount": 0, "id": "KSEZ", "name": "KSEZ", "quality": 100, "contribution": 0.0}}}