{"queryCost": 1, "latitude": 43.653, "longitude": -70.28, "resolvedAddress": "43.65300,-70.28000", "address": "43.65300,-70.28000", "timezone": "America/New_York", "tzoffset": -5.0, "days": [{"datetime": "2017-02-18", "datetimeEpoch": 1487394000, "tempmax": 41.0, "tempmin": 15.2, "temp": 31.9, "feelslikemax": 36.5, "feelslikemin": 15.2, "feelslike": 28.0, "dew": 20.7, "humidity": 64.0, "precip": 0.0, "precipprob": 0.0, "precipcover": 0.0, "preciptype": null, "snow": 0.0, "snowdepth": 14.6, "windgust": 19.7, "windspeed": 10.3, "winddir": 189.2, "pressure": 1003.7, "cloudcover": 48.5, "visibility": 9.9, "solarradiation": 155.4, "solarenergy": 13.5, "uvindex": 6.0, "sunrise": "06:34:51", "sunriseEpoch": 1487417691, "sunset": "17:15:46", "sunsetEpoch": 1487456146, "moonphase": 0.74, "conditions": "Partially cloudy", "description": "Partly cloudy throughout the day.", "icon": "partly-cloudy-day", "stations": ["KLEW", "72606014764", "KPWM", "72618494709", "KSFM", "72606464709"], "source": "obs"}], "stations": {"KLEW": {"distance": 44194.0, "latitude": 44.05, "longitude": -70.28, "useCount": 0, "id": "KLEW", "name": "AUBURN-LEWISTON, ME", "quality": 100, "contribution": 0.0}, "72606014764": {"distance": 2304.0, "latitude": 43.642, "longitude": -70.304, "useCount": 0, "id": "72606014764", "name": "PORTLAND JETPORT, ME US", "quality": 100, "contribution": 0.0}, "KPWM": {"distance": 2439.0, "latitude": 43.65, "longitude": -70.31, "useCount": 0, "id": "KPWM", "name": "KPWM", "quality": 100, "contribution": 0.0}, "72618494709": {"distance": 44195.0, "latitude": 44.05, "longitude": -70.283, "useCount": 0, "id": "72618494709", "name": "AUBURN LEWISTON, ME US", "quality": 100, "contribution": 0.0}, "KSFM": {"distance": 45326.0, "latitude": 43.4, "longitude": -70.72, "useCount": 0, "id": "KSFM", "name": "SANFORD, ME", "quality": 100, "contribution": 0.0}, "72606464709": {"distance": 45013.0, "latitude": 43.394, "longitude": -70.708, "useCount": 0, "id": "72606464709", "name": "SANFORD REGIONAL AIRPORT, ME US", "quality": 100, "contribution": 0.0}}}