{"queryCost": 1, "latitude": 26.94, "longitude": -82.292, "resolvedAddress": "26.94000,-82.29200", "address": "26.94000,-82.29200", "timezone": "America/New_York", "tzoffset": -5.0, "days": [{"datetime": "2017-02-26", "datetimeEpoch": 1488085200, "tempmax": 82.4, "tempmin": 62.5, "temp": 71.1, "feelslikemax": 80.6, "feelslikemin": 62.5, "feelslike": 70.9, "dew": 53.8, "humidity": 60.1, "precip": 0.0, "precipprob": 0.0, "precipcover": 0.0, "preciptype": null, "snow": 0.0, "snowdepth": 0.0, "windgust": 22.8, "windspeed": 16.3, "winddir": 134.6, "pressure": 1019.7, "cloudcover": 1.8, "visibility": 9.9, "solarradiation": 254.9, "solarenergy": 21.9, "uvindex": 9.0, "sunrise": "06:55:40", "sunriseEpoch": 1488110140, "sunset": "18:28:37", "sunsetEpoch": 1488151717, "moonphase": 1.0, "conditions": "Clear", "description": "Clear conditions throughout the day.", "icon": "clear-day", "stations": ["72211800482", "KPGD", "KVNC", "KSRQ", "72203412812", "72211512871"], "source": "obs"}], "stations": {"72211800482": {"distance": 20759.0, "latitude": 27.072, "longitude": -82.44, "useCount": 0, "id": "72211800482", "name": "VENICE MUNICIPAL AIRPORT, FL US", "quality": 100, "contribution": 0.0}, "KPGD": {"distance": 29066.0, "latitude": 26.92, "longitude": -82.0, "useCount": 0, "id": "KPGD", "name": "KPGD", "quality": 100, "contribution": 0.0}, "KVNC": {"distance": 19251.0, "latitude": 27.07, "longitude": -82.42, "useCount": 0, "id": "KVNC", "name": "KVNC", "quality": 95, "contribution": 0.0}, "KSRQ": {"distance": 57228.0, "latitude": 27.4, "longitude": -82.55, "useCount": 0, "id": "KSRQ", "name": "KSRQ", "quality": 100, "contribution": 0.0}, "72203412812": {"distance": 29942.0, "latitude": 26.917, "longitude": -81.991, "useCount": 0, "id": "72203412812", "name": "PUNTA GORDA CHARLOTTE CO AIRPORT, FL US", "quality": 100, "contribution": 0.0}, "72211512871": {"distance": 57752.0, "latitude": 27.401, "longitude": -82.559, "useCount": 0, "id": "72211512871", "name": "SARASOTA BRADENTON AIRPORT, FL US", "quality": 100, "contribution": 0.0}}}