{"queryCost": 1, "latitude": 39.497, "longitude": -119.789, "resolvedAddress": "39.49700,-119.78900", "address": "39.49700,-119.78900", "timezone": "America/Los_Angeles", "tzoffset": -8.0, "days": [{"datetime": "2017-03-02", "datetimeEpoch": 1488441600, "tempmax": 56.9, "tempmin": 25.1, "temp": 40.5, "feelslikemax": 56.9, "feelslikemin": 22.1, "feelslike": 39.3, "dew": 22.8, "humidity": 52.6, "precip": 0.0, "precipprob": 0.0, "precipcover": 0.0, "preciptype": null, "snow": 0.0, "snowdepth": 0.0, "windgust": null, "windspeed": 9.2, "winddir": 211.2, "pressure": 1028.2, "cloudcover": 11.7, "visibility": 9.9, "solarradiation": 234.1, "solarenergy": 20.3, "uvindex": 8.0, "sunrise": "06:29:58", "sunriseEpoch": 1488464998, "sunset": "17:52:57", "sunsetEpoch": 1488505977, "moonphase": 0.09, "conditions": "Clear", "description": "Clear conditions throughout the day.", "icon": "clear-day", "stations": ["KTRK", "KRTS", "72083900279", "72584693201", "72488023185", "KRNO"], "source": "obs"}], "stations": {"KTRK": {"distance": 35333.0, "latitude": 39.32, "longitude": -120.13, "useCount": 0, "id": "KTRK", "name": "KTRK", "quality": 82, "contribution": 0.0}, "KRTS": {"distance": 18736.0, "latitude": 39.65, "longitude": -119.88, "useCount": 0, "id": "KRTS", "name": "KRTS", "quality": 99, "contribution": 0.0}, "72083900279": {"distance": 20343.0, "latitude": 39.667, "longitude": -119.876, "useCount": 0, "id": "72083900279", "name": "RENO STEAD AIRPORT, NV US", "quality": 99, "contribution": 0.0}, "72584693201": {"distance": 35978.0, "latitude": 39.32, "longitude": -120.139, "useCount": 0, "id": "72584693201", "name": "TRUCKEE AIRPORT, CA US", "quality": 87, "contribution": 0.0}, "72488023185": {"distance": 2133.0, "latitude": 39.484, "longitude": -119.771, "useCount": 0, "id": "72488023185", "name": "RENO AIRPORT, NV US", "quality": 100, "contribution": 0.0}, "KRNO": {"distance": 842.0, "latitude": 39.5, "longitude": -119.78, "useCount": 0, "id": "KRNO", "name": "KRNO", "quality": 100, "contribution": 0.0}}}