{"queryCost": 1, "latitude": 35.432, "longitude": -97.496, "resolvedAddress": "35.43200,-97.49600", "address": "35.43200,-97.49600", "timezone": "America/Chicago", "tzoffset": -6.0, "days": [{"datetime": "2017-03-04", "datetimeEpoch": 1488607200, "tempmax": 64.9, "tempmin": 43.1, "temp": 52.3, "feelslikemax": 64.9, "feelslikemin": 36.8, "feelslike": 50.4, "dew": 35.5, "humidity": 55.6, "precip": 0.0, "precipprob": 0.0, "precipcover": 0.0, "preciptype": null, "snow": 0.0, "snowdepth": 0.0, "windgust": 35.6, "windspeed": 26.5, "winddir": 178.5, "pressure": 1024.4, "cloudcover": 60.8, "visibility": 9.9, "solarradiation": 186.4, "solarenergy": 16.1, "uvindex": 7.0, "sunrise": "06:55:17", "sunriseEpoch": 1488632117, "sunset": "18:28:22", "sunsetEpoch": 1488673702, "moonphase": 0.19, "conditions": "Partially cloudy", "description": "Becoming cloudy in the afternoon.", "icon": "partly-cloudy-day", "stations": ["72354013919", "72353013967", "KTIK", "KPWA", "KOKC", "72354403954"], "source": "obs"}], "stations": {"72354013919": {"distance": 10364.0, "latitude": 35.417, "longitude": -97.383, "useCount": 0, "id": "72354013919", "name": "OKLAHOMA CITY TINKER AFB, OK US", "quality": 99, "contribution": 0.0}, "72353013967": {"distance": 10634.0, "latitude": 35.389, "longitude": -97.601, "useCount": 0, "id": "72353013967", "name": "OKLAHOMA CITY WILL ROGERS WORLD AIRPORT, OK US", "quality": 100, "contribution": 0.0}, "KTIK": {"distance": 10607.0, "latitude": 35.42, "longitude": -97.38, "useCount": 0, "id": "KTIK", "name": "KTIK", "quality": 100, "contribution": 0.0}, "KPWA": {"distance": 17717.0, "latitude": 35.53, "longitude": -97.65, "useCount": 0, "id": "KPWA", "name": "KPWA", "quality": 100, "contribution": 0.0}, "KOKC": {"distance": 10085.0, "latitude": 35.4, "longitude": -97.6, "useCount": 0, "id": "KOKC", "name": "KOKC", "quality": 100, "contribution": 0.0}, "72354403954": {"distance": 17791.0, "latitude": 35.534, "longitude": -97.647, "useCount": 0, "id": "72354403954", "name": "OKLAHOMA CITY WILEY POST AIRPORT, OK US", "quality": 100, "contribution": 0.0}}}