{"queryCost": 1, "latitude": 44.961, "longitude": -93.067, "resolvedAddress": "44.96100,-93.06700", "address": "44.96100,-93.06700", "timezone": "America/Chicago", "tzoffset": -5.0, "days": [{"datetime": "2017-03-15", "datetimeEpoch": 1489554000, "tempmax": 31.9, "tempmin": 12.8, "temp": 22.9, "feelslikemax": 25.0, "feelslikemin": 5.1, "feelslike": 16.9, "dew": 8.0, "humidity": 54.7, "precip": 0.0, "precipprob": 0.0, "precipcover": 0.0, "preciptype": null, "snow": 0.0, "snowdepth": 1.0, "windgust": null, "windspeed": 11.2, "winddir": 206.8, "pressure": 1030.5, "cloudcover": 0.2, "visibility": 9.9, "solarradiation": 231.4, "solarenergy": 20.0, "uvindex": 8.0, "sunrise": "07:24:04", "sunriseEpoch": 1489580644, "sunset": "19:18:45", "sunsetEpoch": 1489623525, "moonphase": 0.54, "conditions": "Clear", "description": "Clear conditions throughout the day.", "icon": "clear-day", "stations": ["KSTP", "KSGS", "72658414927", "72660304974", "KMSP", "72658014922"], "source": "obs"}], "stations": {"KSTP": {"distance": 1247.0, "latitude": 44.95, "longitude": -93.07, "useCount": 0, "id": "KSTP", "name": "KSTP", "quality": 100, "contribution": 0.0}, "KSGS": {"distance": 10542.0, "latitude": 44.87, "longitude": -93.03, "useCount": 0, "id": "KSGS", "name": "KSGS", "quality": 100, "contribution": 0.0}, "72658414927": {"distance": 3325.0, "latitude": 44.932, "longitude": -93.056, "useCount": 0, "id": "72658414927", "name": "ST. PAUL DOWNTOWN AIRPORT, MN US", "quality": 100, "contribution": 0.0}, "72660304974": {"distance": 11898.0, "latitude": 44.857, "longitude": -93.033, "useCount": 0, "id": "72660304974", "name": "SOUTH ST PAUL MUNICIPAL RICHARD E FLEMING FIELD AIRPORT, MN US", "quality": 99, "contribution": 0.0}, "KMSP": {"distance": 15058.0, "latitude": 44.88, "longitude": -93.22, "useCount": 0, "id": "KMSP", "name": "KMSP", "quality": 100, "contribution": 0.0}, "72658014922": {"distance": 15429.0, "latitude": 44.883, "longitude": -93.229, "useCount": 0, "id": "72658014922", "name": "MINNEAPOLIS ST. PAUL INTERNATIONAL AIRPORT, MN US", "quality": 100, "contribution": 0.0}}}