{"queryCost": 1, "latitude": 30.225, "longitude": -85.892, "resolvedAddress": "30.22500,-85.89200", "address": "30.22500,-85.89200", "timezone": "America/Chicago", "tzoffset": -5.0, "days": [{"datetime": "2017-03-14", "datetimeEpoch": 1489467600, "tempmax": 55.7, "tempmin": 44.9, "temp": 51.2, "feelslikemax": 55.7, "feelslikemin": 39.1, "feelslike": 50.1, "dew": 41.9, "humidity": 71.6, "precip": 0.04, "precipprob": 100.0, "precipcover": 8.33, "preciptype": ["rain"], "snow": 0.0, "snowdepth": 0.0, "windgust": 21.9, "windspeed": 19.6, "winddir": 317.8, "pressure": 1018.5, "cloudcover": 10.2, "visibility": 9.9, "solarradiation": 273.9, "solarenergy": 23.6, "uvindex": 9.0, "sunrise": "06:54:13", "sunriseEpoch": 1489492453, "sunset": "18:51:27", "sunsetEpoch": 1489535487, "moonphase": 0.52, "conditions": "Rain", "description": "Clear conditions throughout the day with early morning rain.", "icon": "rain", "stations": ["72073573805", "99735299999", "KPAM", "KECP", "74775013846", "72096400338"], "source": "obs"}], "stations": {"72073573805": {"distance": 17043.0, "latitude": 30.349, "longitude": -85.788, "useCount": 0, "id": "72073573805", "name": "NORTHWEST FLORIDA BEACHES INTERNATIONAL AIRPORT, FL US", "quality": 100, "contribution": 0.0}, "99735299999": {"distance": 1281.0, "latitude": 30.22, "longitude": -85.88, "useCount": 0, "id": "99735299999", "name": "PANAMA CITY BEACH, FL US", "quality": 48, "contribution": 0.0}, "KPAM": {"distance": 34637.0, "latitude": 30.07, "longitude": -85.58, "useCount": 0, "id": "KPAM", "name": "KPAM", "quality": 100, "contribution": 0.0}, "KECP": {"distance": 17437.0, "latitude": 30.36, "longitude": -85.8, "useCount": 0, "id": "KECP", "name": "KECP", "quality": 100, "contribution": 0.0}, "74775013846": {"distance": 34549.0, "latitude": 30.067, "longitude": -85.583, "useCount": 0, "id": "74775013846", "name": "TYNDALL AFB, FL US", "quality": 99, "contribution": 0.0}, "72096400338": {"distance": 40639.0, "latitude": 30.033, "longitude": -85.533, "useCount": 0, "id": "72096400338", "name": "TYNDALL DRONE RUNWAY, FL US", "quality": 94, "contribution": 0.0}}}