{"queryCost": 1, "latitude": 37.661, "longitude": -122.065, "resolvedAddress": "37.66100,-122.06500", "address": "37.66100,-122.06500", "timezone": "America/Los_Angeles", "tzoffset": -7.0, "days": [{"datetime": "2017-03-14", "datetimeEpoch": 1489474800, "tempmax": 78.0, "tempmin": 55.6, "temp": 64.8, "feelslikemax": 78.0, "feelslikemin": 55.6, "feelslike": 64.8, "dew": 49.9, "humidity": 59.8, "precip": 0.0, "precipprob": 0.0, "precipcover": 0.0, "preciptype": null, "snow": 0.0, "snowdepth": 0.0, "windgust": null, "windspeed": 12.3, "winddir": 180.9, "pressure": 1017.8, "cloudcover": 3.4, "visibility": 9.9, "solarradiation": 238.9, "solarenergy": 20.5, "uvindex": 8.0, "sunrise": "07:20:10", "sunriseEpoch": 1489501210, "sunset": "19:14:58", "sunsetEpoch": 1489544098, "moonphase": 0.52, "conditions": "Clear", "description": "Clear conditions throughout the day.", "icon": "clear-day", "stations": ["72585093228", "72493023230", "KLVK", "72492723285", "KHWD", "KOAK"], "source": "obs"}], "stations": {"72585093228": {"distance": 4471.0, "latitude": 37.654, "longitude": -122.115, "useCount": 0, "id": "72585093228", "name": "HAYWARD AIR TERMINAL, CA US", "quality": 100, "contribution": 0.0}, "72493023230": {"distance": 15299.0, "latitude": 37.721, "longitude": -122.221, "useCount": 0, "id": "72493023230", "name": "OAKLAND METROPOLITAN, CA US", "quality": 100, "contribution": 0.0}, "KLVK": {"distance": 22017.0, "latitude": 37.7, "longitude": -121.82, "useCount": 0, "id": "KLVK", "name": "LIVERMORE, CA", "quality": 100, "contribution": 0.0}, "72492723285": {"distance": 22394.0, "latitude": 37.693, "longitude": -121.814, "useCount": 0, "id": "72492723285", "name": "LIVERMORE MUNICIPAL AIRPORT, CA US", "quality": 100, "contribution": 0.0}, "KHWD": {"distance": 4949.0, "latitude": 37.67, "longitude": -122.12, "useCount": 0, "id": "KHWD", "name": "KHWD", "quality": 100, "contribution": 0.0}, "KOAK": {"distance": 15151.0, "latitude": 37.72, "longitude": -122.22, "useCount": 0, "id": "KOAK", "name": "KOAK", "quality": 100, "contribution": 0.0}}}