{"queryCost": 1, "latitude": 37.624, "longitude": -97.309, "resolvedAddress": "37.62400,-97.30900", "address": "37.62400,-97.30900", "timezone": "America/Chicago", "tzoffset": -5.0, "days": [{"datetime": "2017-03-18", "datetimeEpoch": 1489813200, "tempmax": 73.0, "tempmin": 43.9, "temp": 58.4, "feelslikemax": 73.0, "feelslikemin": 40.5, "feelslike": 57.5, "dew": 29.8, "humidity": 36.1, "precip": 0.0, "precipprob": 0.0, "precipcover": 0.0, "preciptype": null, "snow": 0.0, "snowdepth": 0.0, "windgust": null, "windspeed": 14.6, "winddir": 100.3, "pressure": 1025.0, "cloudcover": 21.3, "visibility": 9.9, "solarradiation": 250.8, "solarenergy": 21.6, "uvindex": 8.0, "sunrise": "07:35:14", "sunriseEpoch": 1489840514, "sunset": "19:39:37", "sunsetEpoch": 1489883977, "moonphase": 0.65, "conditions": "Partially cloudy", "description": "Becoming cloudy in the afternoon.", "icon": "partly-cloudy-day", "stations": ["72450503923", "72450403974", "KAAO", "KIAB", "KICT", "72450003928"], "source": "obs"}], "stations": {"72450503923": {"distance": 3817.0, "latitude": 37.617, "longitude": -97.267, "useCount": 0, "id": "72450503923", "name": "WICHITA MCCONNELL AFB, KS US", "quality": 100, "contribution": 0.0}, "72450403974": {"distance": 15643.0, "latitude": 37.746, "longitude": -97.221, "useCount": 0, "id": "72450403974", "name": "WICHITA COLONEL JAMES JABARA AIRPORT, KS US", "quality": 100, "contribution": 0.0}, "KAAO": {"distance": 16069.0, "latitude": 37.75, "longitude": -97.22, "useCount": 0, "id": "KAAO", "name": "KAAO", "quality": 98, "contribution": 0.0}, "KIAB": {"distance": 3776.0, "latitude": 37.61, "longitude": -97.27, "useCount": 0, "id": "KIAB", "name": "KIAB", "quality": 100, "contribution": 0.0}, "KICT": {"distance": 11052.0, "latitude": 37.65, "longitude": -97.43, "useCount": 0, "id": "KICT", "name": "KICT", "quality": 100, "contribution": 0.0}, "72450003928": {"distance": 10983.0, "latitude": 37.648, "longitude": -97.43, "useCount": 0, "id": "72450003928", "name": "WICHITA DWIGHT D. EISENHOWER NATIONAL AIRPORT, KS US", "quality": 100, "contribution": 0.0}}}