{"queryCost": 1, "latitude": 38.543, "longitude": -90.298, "resolvedAddress": "38.54300,-90.29800", "address": "38.54300,-90.29800", "timezone": "America/Chicago", "tzoffset": -5.0, "days": [{"datetime": "2017-03-19", "datetimeEpoch": 1489899600, "tempmax": 57.1, "tempmin": 33.3, "temp": 46.3, "feelslikemax": 57.1, "feelslikemin": 30.0, "feelslike": 44.9, "dew": 32.0, "humidity": 59.7, "precip": 0.0, "precipprob": 0.0, "precipcover": 0.0, "preciptype": null, "snow": 0.0, "snowdepth": 0.0, "windgust": 23.0, "windspeed": 15.3, "winddir": 128.8, "pressure": 1025.5, "cloudcover": 48.9, "visibility": 9.9, "solarradiation": 220.4, "solarenergy": 19.0, "uvindex": 8.0, "sunrise": "07:05:41", "sunriseEpoch": 1489925141, "sunset": "19:12:31", "sunsetEpoch": 1489968751, "moonphase": 0.7, "conditions": "Partially cloudy", "description": "Partly cloudy throughout the day.", "icon": "partly-cloudy-day", "stations": ["KSTL", "72434503966", "KSUS", "KCPS", "72434013994", "72531403960"], "source": "obs"}], "stations": {"KSTL": {"distance": 23878.0, "latitude": 38.75, "longitude": -90.37, "useCount": 0, "id": "KSTL", "name": "KSTL", "quality": 100, "contribution": 0.0}, "72434503966": {"distance": 33624.0, "latitude": 38.657, "longitude": -90.656, "useCount": 0, "id": "72434503966", "name": "ST LOUIS SPIRIT OF ST LOUIS AIRPORT, MO US", "quality": 100, "contribution": 0.0}, "KSUS": {"distance": 33727.0, "latitude": 38.67, "longitude": -90.65, "useCount": 0, "id": "KSUS", "name": "KSUS", "quality": 100, "contribution": 0.0}, "KCPS": {"distance": 13230.0, "latitude": 38.57, "longitude": -90.15, "useCount": 0, "id": "KCPS", "name": "KCPS", "quality": 100, "contribution": 0.0}, "72434013994": {"distance": 24230.0, "latitude": 38.753, "longitude": -90.374, "useCount": 0, "id": "72434013994", "name": "ST LOUIS LAMBERT INTERNATIONAL AIRPORT, MO US", "quality": 100, "contribution": 0.0}, "72531403960": {"distance": 12658.0, "latitude": 38.571, "longitude": -90.157, "useCount": 0, "id": "72531403960", "name": "CAHOKIA ST LOUIS DOWNTOWN AIRPORT, IL US", "quality": 100, "contribution": 0.0}}}