{"queryCost": 1, "latitude": 33.452, "longitude": -112.198, "resolvedAddress": "33.45200,-112.19800", "address": "33.45200,-112.19800", "timezone": "America/Phoenix", "tzoffset": -7.0, "days": [{"datetime": "2017-03-23", "datetimeEpoch": 1490252400, "tempmax": 70.3, "tempmin": 54.3, "temp": 61.9, "feelslikemax": 70.3, "feelslikemin": 54.3, "feelslike": 61.9, "dew": 41.5, "humidity": 51.5, "precip": 0.06, "precipprob": 100.0, "precipcover": 16.67, "preciptype": ["rain"], "snow": 0.0, "snowdepth": 0.0, "windgust": 31.1, "windspeed": 19.5, "winddir": 212.1, "pressure": 1013.2, "cloudcover": 56.0, "visibility": 9.8, "solarradiation": 245.9, "solarenergy": 21.4, "uvindex": 9.0, "sunrise": "06:27:54", "sunriseEpoch": 1490275674, "sunset": "18:42:58", "sunsetEpoch": 1490319778, "moonphase": 0.89, "conditions": "Rain, Partially cloudy", "description": "Partly cloudy throughout the day with early morning rain.", "icon": "rain", "stations": ["72278403184", "KLUF", "KDVT", "72278023183", "KPHX", "72278523111"], "source": "obs"}], "stations": {"72278403184": {"distance": 28420.0, "latitude": 33.688, "longitude": -112.082, "useCount": 0, "id": "72278403184", "name": "PHOENIX DEER VALLEY MUNICIPAL AIRPORT, AZ US", "quality": 100, "contribution": 0.0}, "KLUF": {"distance": 18997.0, "latitude": 33.53, "longitude": -112.38, "useCount": 0, "id": "KLUF", "name": "KLUF", "quality": 100, "contribution": 0.0}, "KDVT": {"distance": 28021.0, "latitude": 33.68, "longitude": -112.07, "useCount": 0, "id": "KDVT", "name": "KDVT", "quality": 100, "contribution": 0.0}, "72278023183": {"distance": 18223.0, "latitude": 33.428, "longitude": -112.004, "useCount": 0, "id": "72278023183", "name": "PHOENIX AIRPORT, AZ US", "quality": 100, "contribution": 0.0}, "KPHX": {"distance": 16715.0, "latitude": 33.43, "longitude": -112.02, "useCount": 0, "id": "KPHX", "name": "KPHX", "quality": 100, "contribution": 0.0}, "72278523111": {"distance": 19108.0, "latitude": 33.55, "longitude": -112.367, "useCount": 0, "id": "72278523111", "name": "PHOENIX LUKE AFB, AZ US", "quality": 96, "contribution": 0.0}}}