{"queryCost": 1, "latitude": 61.581, "longitude": -149.45, "resolvedAddress": "61.58100,-149.45000", "address": "61.58100,-149.45000", "timezone": "America/Anchorage", "tzoffset": -8.0, "days": [{"datetime": "2017-03-26", "datetimeEpoch": 1490515200, "tempmax": 33.5, "tempmin": 18.9, "temp": 25.4, "feelslikemax": 33.5, "feelslikemin": 7.1, "feelslike": 16.7, "dew": 6.1, "humidity": 43.6, "precip": 0.0, "precipprob": 0.0, "precipcover": 0.0, "preciptype": null, "snow": 0.0, "snowdepth": 6.6, "windgust": 20.8, "windspeed": 13.5, "winddir": 114.7, "pressure": 1005.6, "cloudcover": 20.5, "visibility": 9.9, "solarradiation": 161.7, "solarenergy": 13.9, "uvindex": 5.0, "sunrise": "07:38:04", "sunriseEpoch": 1490542684, "sunset": "20:29:59", "sunsetEpoch": 1490588999, "moonphase": 0.99, "conditions": "Partially cloudy", "description": "Partly cloudy throughout the day.", "icon": "partly-cloudy-day", "stations": ["PABV", "70232526443", "PAAQ", "70274626497", "PAWS", "70274025331"], "source": "obs"}], "stations": {"PABV": {"distance": 18204.0, "latitude": 61.42, "longitude": -149.51, "useCount": 0, "id": "PABV", "name": "BIRCHWOOD/BIRCHWOOD, AK", "quality": 100, "contribution": 0.0}, "70232526443": {"distance": 4927.0, "latitude": 61.572, "longitude": -149.541, "useCount": 0, "id": "70232526443", "name": "WASILLA AIRPORT, AK US", "quality": 100, "contribution": 0.0}, "PAAQ": {"distance": 19710.0, "latitude": 61.6, "longitude": -149.08, "useCount": 0, "id": "PAAQ", "name": "PALMER MUNICIPAL, AK", "quality": 100, "contribution": 0.0}, "70274626497": {"distance": 18572.0, "latitude": 61.416, "longitude": -149.507, "useCount": 0, "id": "70274626497", "name": "BIRCHWOOD AIRPORT, AK US", "quality": 100, "contribution": 0.0}, "PAWS": {"distance": 4924.0, "latitude": 61.57, "longitude": -149.54, "useCount": 0, "id": "PAWS", "name": "WASILLA, AK", "quality": 100, "contribution": 0.0}, "70274025331": {"distance": 19036.0, "latitude": 61.596, "longitude": -149.092, "useCount": 0, "id": "70274025331", "name": "PALMER AIRPORT, AK US", "quality": 100, "contribution": 0.0}}}