{"queryCost": 1, "latitude": 38.818, "longitude": -94.91, "resolvedAddress": "38.81800,-94.91000", "address": "38.81800,-94.91000", "timezone": "America/Chicago", "tzoffset": -5.0, "days": [{"datetime": "2015-03-26", "datetimeEpoch": 1427346000, "tempmax": 51.2, "tempmin": 30.9, "temp": 41.9, "feelslikemax": 51.2, "feelslikemin": 24.2, "feelslike": 36.6, "dew": 30.1, "humidity": 66.0, "precip": 0.01, "precipprob": 100.0, "precipcover": 4.17, "preciptype": ["rain"], "snow": 0.0, "snowdepth": 0.0, "windgust": 23.0, "windspeed": 18.2, "winddir": 288.1, "pressure": 1021.3, "cloudcover": 30.6, "visibility": 9.7, "solarradiation": 273.4, "solarenergy": 23.6, "uvindex": 9.0, "sunrise": "07:13:57", "sunriseEpoch": 1427372037, "sunset": "19:37:18", "sunsetEpoch": 1427416638, "moonphase": 0.21, "conditions": "Rain, Partially cloudy", "description": "Partly cloudy throughout the day with late afternoon rain.", "icon": "rain", "stations": ["72446803967", "72450803997", "KIXD", "72447593909", "KOJC", "KLWC"], "source": "obs"}], "stations": {"72446803967": {"distance": 15233.0, "latitude": 38.85, "longitude": -94.739, "useCount": 0, "id": "72446803967", "name": "OLATHE JOHNSON CO EXECUTIVE AIRPORT, KS US", "quality": 100, "contribution": 0.0}, "72450803997": {"distance": 33599.0, "latitude": 39.008, "longitude": -95.212, "useCount": 0, "id": "72450803997", "name": "LAWRENCE ASOS, KS US", "quality": 100, "contribution": 0.0}, "KIXD": {"distance": 2925.0, "latitude": 38.83, "longitude": -94.88, "useCount": 0, "id": "KIXD", "name": "KIXD", "quality": 100, "contribution": 0.0}, "72447593909": {"distance": 2329.0, "latitude": 38.832, "longitude": -94.89, "useCount": 0, "id": "72447593909", "name": "OLATHE JOHNSON CO INDUSTRIAL AIRPORT, KS US", "quality": 100, "contribution": 0.0}, "KOJC": {"distance": 16010.0, "latitude": 38.85, "longitude": -94.73, "useCount": 0, "id": "KOJC", "name": "KOJC", "quality": 100, "contribution": 0.0}, "KLWC": {"distance": 34319.0, "latitude": 39.01, "longitude": -95.22, "useCount": 0, "id": "KLWC", "name": "KLWC", "quality": 100, "contribution": 0.0}}}