{"queryCost": 1, "latitude": 44.245, "longitude": -86.329, "resolvedAddress": "44.24500,-86.32900", "address": "44.24500,-86.32900", "timezone": "America/Detroit", "tzoffset": -4.0, "days": [{"datetime": "2017-03-28", "datetimeEpoch": 1490673600, "tempmax": 39.8, "tempmin": 36.1, "temp": 37.8, "feelslikemax": 39.0, "feelslikemin": 27.5, "feelslike": 31.1, "dew": 35.2, "humidity": 90.4, "precip": 0.0, "precipprob": 0.0, "precipcover": 0.0, "preciptype": null, "snow": 0.0, "snowdepth": 0.0, "windgust": 22.9, "windspeed": 19.3, "winddir": 120.5, "pressure": 1020.3, "cloudcover": 4.1, "visibility": 9.9, "solarradiation": 217.4, "solarenergy": 18.7, "uvindex": 8.0, "sunrise": "07:33:11", "sunriseEpoch": 1490700791, "sunset": "20:08:02", "sunsetEpoch": 1490746082, "moonphase": 0.0, "conditions": "Clear", "description": "Clear conditions throughout the day.", "icon": "clear-day", "stations": ["99780299999", "72636404883", "KLDM", "72638594894", "99840599999", "KMBL"], "source": "obs"}], "stations": {"99780299999": {"distance": 26382.0, "latitude": 44.05, "longitude": -86.517, "useCount": 0, "id": "99780299999", "name": "BIG SABLE POINT, MI US", "quality": 50, "contribution": 0.0}, "72636404883": {"distance": 32072.0, "latitude": 43.963, "longitude": -86.408, "useCount": 0, "id": "72636404883", "name": "LUDINGTON MASON CO AIRPORT, MI US", "quality": 100, "contribution": 0.0}, "KLDM": {"distance": 32380.0, "latitude": 43.96, "longitude": -86.41, "useCount": 0, "id": "KLDM", "name": "KLDM", "quality": 100, "contribution": 0.0}, "72638594894": {"distance": 6746.0, "latitude": 44.267, "longitude": -86.25, "useCount": 0, "id": "72638594894", "name": "MANISTEE CO BLACKER AIRPORT, MI US", "quality": 99, "contribution": 0.0}, "99840599999": {"distance": 1396.0, "latitude": 44.248, "longitude": -86.346, "useCount": 0, "id": "99840599999", "name": "MANISTEE HARBOR, MI US", "quality": 50, "contribution": 0.0}, "KMBL": {"distance": 6886.0, "latitude": 44.27, "longitude": -86.25, "useCount": 0, "id": "KMBL", "name": "MANISTEE/BLACKER, MI", "quality": 100, "contribution": 0.0}}}