{"queryCost": 1, "latitude": 30.558, "longitude": -87.292, "resolvedAddress": "30.55800,-87.29200", "address": "30.55800,-87.29200", "timezone": "America/Chicago", "tzoffset": -5.0, "days": [{"datetime": "2017-04-01", "datetimeEpoch": 1491022800, "tempmax": 82.2, "tempmin": 57.2, "temp": 69.4, "feelslikemax": 81.0, "feelslikemin": 57.2, "feelslike": 69.3, "dew": 56.1, "humidity": 66.6, "precip": 0.0, "precipprob": 0.0, "precipcover": 0.0, "preciptype": null, "snow": 0.0, "snowdepth": 0.0, "windgust": null, "windspeed": 11.6, "winddir": 172.4, "pressure": 1016.1, "cloudcover": 4.0, "visibility": 9.7, "solarradiation": 300.4, "solarenergy": 26.1, "uvindex": 10.0, "sunrise": "06:37:48", "sunriseEpoch": 1491046668, "sunset": "19:08:24", "sunsetEpoch": 1491091704, "moonphase": 0.12, "conditions": "Clear", "description": "Clear conditions throughout the day.", "icon": "clear-day", "stations": ["72222503855", "72222313899", "72038353847", "KNPA", "72222693841"], "source": "obs"}], "stations": {"72222503855": {"distance": 23275.0, "latitude": 30.35, "longitude": -87.317, "useCount": 0, "id": "72222503855", "name": "PENSACOLA FOREST SHERMAN NAS, FL US", "quality": 92, "contribution": 0.0}, "72222313899": {"distance": 13442.0, "latitude": 30.478, "longitude": -87.187, "useCount": 0, "id": "72222313899", "name": "PENSACOLA REGIONAL AIRPORT, FL US", "quality": 100, "contribution": 0.0}, "72038353847": {"distance": 30480.0, "latitude": 30.704, "longitude": -87.023, "useCount": 0, "id": "72038353847", "name": "WHITING FIELD NAS SOUTH, FL US", "quality": 100, "contribution": 0.0}, "KNPA": {"distance": 23310.0, "latitude": 30.35, "longitude": -87.32, "useCount": 0, "id": "KNPA", "name": "KNPA", "quality": 93, "contribution": 0.0}, "72222693841": {"distance": 31739.0, "latitude": 30.717, "longitude": -87.017, "useCount": 0, "id": "72222693841", "name": "WHITING FIELD NAS, FL US", "quality": 98, "contribution": 0.0}}}