{"queryCost": 1, "latitude": 44.913, "longitude": -89.577, "resolvedAddress": "44.91300,-89.57700", "address": "44.91300,-89.57700", "timezone": "America/Chicago", "tzoffset": -5.0, "days": [{"datetime": "2017-03-22", "datetimeEpoch": 1490158800, "tempmax": 35.1, "tempmin": 15.1, "temp": 24.9, "feelslikemax": 30.1, "feelslikemin": 8.5, "feelslike": 18.9, "dew": 7.5, "humidity": 49.6, "precip": 0.0, "precipprob": 0.0, "precipcover": 0.0, "preciptype": null, "snow": 0.0, "snowdepth": 0.0, "windgust": null, "windspeed": 10.9, "winddir": 184.0, "pressure": 1034.9, "cloudcover": 0.2, "visibility": 9.9, "solarradiation": 247.1, "solarenergy": 21.5, "uvindex": 8.0, "sunrise": "06:57:03", "sunriseEpoch": 1490183823, "sunset": "19:13:46", "sunsetEpoch": 1490228026, "moonphase": 0.84, "conditions": "Clear", "description": "Clear conditions throughout the day.", "icon": "clear-day", "stations": ["KCWA", "KRRL", "72644904891", "72646314897", "72646594890", "KAUW"], "source": "obs"}], "stations": {"KCWA": {"distance": 16525.0, "latitude": 44.78, "longitude": -89.67, "useCount": 0, "id": "KCWA", "name": "KCWA", "quality": 76, "contribution": 0.0}, "KRRL": {"distance": 31509.0, "latitude": 45.18, "longitude": -89.71, "useCount": 0, "id": "KRRL", "name": "KRRL", "quality": 99, "contribution": 0.0}, "72644904891": {"distance": 33567.0, "latitude": 45.199, "longitude": -89.711, "useCount": 0, "id": "72644904891", "name": "MERRILL MUNICIPAL AIRPORT, WI US", "quality": 100, "contribution": 0.0}, "72646314897": {"distance": 4366.0, "latitude": 44.929, "longitude": -89.628, "useCount": 0, "id": "72646314897", "name": "WAUSAU ASOS, WI US", "quality": 100, "contribution": 0.0}, "72646594890": {"distance": 16080.0, "latitude": 44.783, "longitude": -89.667, "useCount": 0, "id": "72646594890", "name": "MOSINEE, WI US", "quality": 86, "contribution": 0.0}, "KAUW": {"distance": 4586.0, "latitude": 44.93, "longitude": -89.63, "useCount": 0, "id": "KAUW", "name": "KAUW", "quality": 100, "contribution": 0.0}}}