{"queryCost": 1, "latitude": 33.954, "longitude": -118.247, "resolvedAddress": "33.95400,-118.24700", "address": "33.95400,-118.24700", "timezone": "America/Los_Angeles", "tzoffset": -7.0, "days": [{"datetime": "2017-04-12", "datetimeEpoch": 1491980400, "tempmax": 69.3, "tempmin": 55.4, "temp": 62.1, "feelslikemax": 69.3, "feelslikemin": 55.4, "feelslike": 62.1, "dew": 53.4, "humidity": 74.3, "precip": 0.0, "precipprob": 0.0, "precipcover": 0.0, "preciptype": null, "snow": 0.0, "snowdepth": 0.0, "windgust": 24.2, "windspeed": 14.4, "winddir": 192.5, "pressure": 1016.8, "cloudcover": 10.2, "visibility": 9.7, "solarradiation": 308.2, "solarenergy": 26.6, "uvindex": 10.0, "sunrise": "06:25:22", "sunriseEpoch": 1492003522, "sunset": "19:22:24", "sunsetEpoch": 1492050144, "moonphase": 0.51, "conditions": "Clear", "description": "Clear conditions throughout the day.", "icon": "clear-day", "stations": ["KHHR", "72295023174", "KCQT", "72295603167", "KLAX", "72287493134"], "source": "obs"}], "stations": {"KHHR": {"distance": 8549.0, "latitude": 33.92, "longitude": -118.33, "useCount": 0, "id": "KHHR", "name": "KHHR", "quality": 100, "contribution": 0.0}, "72295023174": {"distance": 13234.0, "latitude": 33.938, "longitude": -118.389, "useCount": 0, "id": "72295023174", "name": "LOS ANGELES INTERNATIONAL AIRPORT, CA US", "quality": 100, "contribution": 0.0}, "KCQT": {"distance": 7953.0, "latitude": 34.02, "longitude": -118.28, "useCount": 0, "id": "KCQT", "name": "KCQT", "quality": 100, "contribution": 0.0}, "72295603167": {"distance": 8753.0, "latitude": 33.923, "longitude": -118.334, "useCount": 0, "id": "72295603167", "name": "HAWTHORNE MUNICIPAL AIRPORT, CA US", "quality": 100, "contribution": 0.0}, "KLAX": {"distance": 14380.0, "latitude": 33.93, "longitude": -118.4, "useCount": 0, "id": "KLAX", "name": "KLAX", "quality": 100, "contribution": 0.0}, "72287493134": {"distance": 8748.0, "latitude": 34.024, "longitude": -118.291, "useCount": 0, "id": "72287493134", "name": "LOS ANGELES DOWNTOWN USC, CA US", "quality": 100, "contribution": 0.0}}}