{"queryCost": 1, "latitude": 45.041, "longitude": -93.037, "resolvedAddress": "45.04100,-93.03700", "address": "45.04100,-93.03700", "timezone": "America/Chicago", "tzoffset": -5.0, "days": [{"datetime": "2017-04-16", "datetimeEpoch": 1492318800, "tempmax": 64.9, "tempmin": 47.9, "temp": 56.2, "feelslikemax": 64.9, "feelslikemin": 43.8, "feelslike": 55.5, "dew": 36.6, "humidity": 52.4, "precip": 0.0, "precipprob": 0.0, "precipcover": 0.0, "preciptype": null, "snow": 0.0, "snowdepth": 0.0, "windgust": 34.0, "windspeed": 20.7, "winddir": 287.4, "pressure": 1015.5, "cloudcover": 17.0, "visibility": 9.9, "solarradiation": 295.8, "solarenergy": 25.6, "uvindex": 9.0, "sunrise": "06:25:04", "sunriseEpoch": 1492341904, "sunset": "19:59:25", "sunsetEpoch": 1492390765, "moonphase": 0.62, "conditions": "Clear", "description": "Clear conditions throughout the day.", "icon": "clear-day", "stations": ["KSTP", "KSGS", "72658414927", "72660304974", "KMSP", "72658014922"], "source": "obs"}], "stations": {"KSTP": {"distance": 10458.0, "latitude": 44.95, "longitude": -93.07, "useCount": 0, "id": "KSTP", "name": "KSTP", "quality": 100, "contribution": 0.0}, "KSGS": {"distance": 19044.0, "latitude": 44.87, "longitude": -93.03, "useCount": 0, "id": "KSGS", "name": "KSGS", "quality": 100, "contribution": 0.0}, "72658414927": {"distance": 12202.0, "latitude": 44.932, "longitude": -93.056, "useCount": 0, "id": "72658414927", "name": "ST. PAUL DOWNTOWN AIRPORT, MN US", "quality": 100, "contribution": 0.0}, "72660304974": {"distance": 20497.0, "latitude": 44.857, "longitude": -93.033, "useCount": 0, "id": "72660304974", "name": "SOUTH ST PAUL MUNICIPAL RICHARD E FLEMING FIELD AIRPORT, MN US", "quality": 99, "contribution": 0.0}, "KMSP": {"distance": 23000.0, "latitude": 44.88, "longitude": -93.22, "useCount": 0, "id": "KMSP", "name": "KMSP", "quality": 100, "contribution": 0.0}, "72658014922": {"distance": 23183.0, "latitude": 44.883, "longitude": -93.229, "useCount": 0, "id": "72658014922", "name": "MINNEAPOLIS ST. PAUL INTERNATIONAL AIRPORT, MN US", "quality": 100, "contribution": 0.0}}}