{"queryCost": 1, "latitude": 29.429, "longitude": -98.527, "resolvedAddress": "29.42900,-98.52700", "address": "29.42900,-98.52700", "timezone": "America/Chicago", "tzoffset": -5.0, "days": [{"datetime": "2017-04-20", "datetimeEpoch": 1492664400, "tempmax": 86.5, "tempmin": 69.8, "temp": 76.9, "feelslikemax": 87.5, "feelslikemin": 69.8, "feelslike": 77.4, "dew": 65.7, "humidity": 70.5, "precip": 0.0, "precipprob": 0.0, "precipcover": 0.0, "preciptype": null, "snow": 0.0, "snowdepth": 0.0, "windgust": 21.9, "windspeed": 14.6, "winddir": 155.4, "pressure": 1014.1, "cloudcover": 40.6, "visibility": 9.9, "solarradiation": 308.6, "solarenergy": 26.8, "uvindex": 10.0, "sunrise": "07:02:11", "sunriseEpoch": 1492689731, "sunset": "20:04:04", "sunsetEpoch": 1492736644, "moonphase": 0.81, "conditions": "Partially cloudy", "description": "Partly cloudy throughout the day.", "icon": "partly-cloudy-day", "stations": ["KSKF", "KSSF", "KSAT", "72253012921", "72252312970", "72253512909"], "source": "obs"}], "stations": {"KSKF": {"distance": 7495.0, "latitude": 29.38, "longitude": -98.58, "useCount": 0, "id": "KSKF", "name": "KSKF", "quality": 100, "contribution": 0.0}, "KSSF": {"distance": 12330.0, "latitude": 29.33, "longitude": -98.47, "useCount": 0, "id": "KSSF", "name": "KSSF", "quality": 100, "contribution": 0.0}, "KSAT": {"distance": 12527.0, "latitude": 29.53, "longitude": -98.47, "useCount": 0, "id": "KSAT", "name": "KSAT", "quality": 100, "contribution": 0.0}, "72253012921": {"distance": 13498.0, "latitude": 29.544, "longitude": -98.484, "useCount": 0, "id": "72253012921", "name": "SAN ANTONIO INTERNATIONAL AIRPORT, TX US", "quality": 100, "contribution": 0.0}, "72252312970": {"distance": 11360.0, "latitude": 29.339, "longitude": -98.472, "useCount": 0, "id": "72252312970", "name": "SAN ANTONIO STINSON MUNICIPAL AIRPORT, TX US", "quality": 100, "contribution": 0.0}, "72253512909": {"distance": 7463.0, "latitude": 29.383, "longitude": -98.583, "useCount": 0, "id": "72253512909", "name": "SAN ANTONIO KELLY FIELD AFB, TX US", "quality": 98, "contribution": 0.0}}}