{"queryCost": 1, "latitude": 45.359, "longitude": -122.623, "resolvedAddress": "45.35900,-122.62300", "address": "45.35900,-122.62300", "timezone": "America/Los_Angeles", "tzoffset": -7.0, "days": [{"datetime": "2017-04-21", "datetimeEpoch": 1492758000, "tempmax": 70.0, "tempmin": 40.4, "temp": 54.9, "feelslikemax": 70.0, "feelslikemin": 38.1, "feelslike": 54.4, "dew": 40.9, "humidity": 63.7, "precip": 0.0, "precipprob": 0.0, "precipcover": 0.0, "preciptype": null, "snow": 0.0, "snowdepth": 0.0, "windgust": 26.5, "windspeed": 12.1, "winddir": 95.9, "pressure": 1023.7, "cloudcover": 33.4, "visibility": 9.4, "solarradiation": 272.9, "solarenergy": 23.6, "uvindex": 9.0, "sunrise": "06:14:13", "sunriseEpoch": 1492780453, "sunset": "20:04:47", "sunsetEpoch": 1492830287, "moonphase": 0.86, "conditions": "Partially cloudy", "description": "Partly cloudy throughout the day.", "icon": "partly-cloudy-day", "stations": ["72698524242", "72695994281", "72698024229", "KTTD", "KPDX", "KUAO"], "source": "obs"}], "stations": {"72698524242": {"distance": 27139.0, "latitude": 45.551, "longitude": -122.409, "useCount": 0, "id": "72698524242", "name": "PORTLAND TROUTDALE AIRPORT, OR US", "quality": 100, "contribution": 0.0}, "72695994281": {"distance": 16784.0, "latitude": 45.249, "longitude": -122.769, "useCount": 0, "id": "72695994281", "name": "AURORA STATE AIRPORT, OR US", "quality": 100, "contribution": 0.0}, "72698024229": {"distance": 26383.0, "latitude": 45.596, "longitude": -122.609, "useCount": 0, "id": "72698024229", "name": "PORTLAND INTERNATIONAL AIRPORT, OR US", "quality": 100, "contribution": 0.0}, "KTTD": {"distance": 26521.0, "latitude": 45.55, "longitude": -122.42, "useCount": 0, "id": "KTTD", "name": "KTTD", "quality": 100, "contribution": 0.0}, "KPDX": {"distance": 26888.0, "latitude": 45.6, "longitude": -122.6, "useCount": 0, "id": "KPDX", "name": "KPDX", "quality": 100, "contribution": 0.0}, "KUAO": {"distance": 16724.0, "latitude": 45.25, "longitude": -122.77, "useCount": 0, "id": "KUAO", "name": "KUAO", "quality": 100, "contribution": 0.0}}}