{"queryCost": 1, "latitude": 36.801, "longitude": -119.772, "resolvedAddress": "36.80100,-119.77200", "address": "36.80100,-119.77200", "timezone": "America/Los_Angeles", "tzoffset": -7.0, "days": [{"datetime": "2017-04-15", "datetimeEpoch": 1492239600, "tempmax": 72.0, "tempmin": 44.8, "temp": 58.2, "feelslikemax": 72.0, "feelslikemin": 43.8, "feelslike": 57.8, "dew": 40.2, "humidity": 54.0, "precip": 0.0, "precipprob": 0.0, "precipcover": 0.0, "preciptype": null, "snow": 0.0, "snowdepth": 0.0, "windgust": null, "windspeed": 8.0, "winddir": 218.7, "pressure": 1017.4, "cloudcover": 72.5, "visibility": 9.9, "solarradiation": 233.0, "solarenergy": 19.9, "uvindex": 9.0, "sunrise": "06:24:31", "sunriseEpoch": 1492262671, "sunset": "19:34:02", "sunsetEpoch": 1492310042, "moonphase": 0.58, "conditions": "Partially cloudy", "description": "Partly cloudy throughout the day.", "icon": "partly-cloudy-day", "stations": ["KMAE", "74504693242", "74702023110", "KNLC", "KFAT", "72389093193"], "source": "obs"}], "stations": {"KMAE": {"distance": 36717.0, "latitude": 36.99, "longitude": -120.11, "useCount": 0, "id": "KMAE", "name": "KMAE", "quality": 100, "contribution": 0.0}, "74504693242": {"distance": 36650.0, "latitude": 36.988, "longitude": -120.111, "useCount": 0, "id": "74504693242", "name": "MADERA MUNICIPAL AIRPORT, CA US", "quality": 100, "contribution": 0.0}, "74702023110": {"distance": 54442.0, "latitude": 36.333, "longitude": -119.95, "useCount": 0, "id": "74702023110", "name": "LEMOORE REEVES NAS, CA US", "quality": 99, "contribution": 0.0}, "KNLC": {"distance": 54794.0, "latitude": 36.33, "longitude": -119.95, "useCount": 0, "id": "KNLC", "name": "KNLC", "quality": 99, "contribution": 0.0}, "KFAT": {"distance": 5779.0, "latitude": 36.77, "longitude": -119.72, "useCount": 0, "id": "KFAT", "name": "KFAT", "quality": 100, "contribution": 0.0}, "72389093193": {"distance": 5272.0, "latitude": 36.78, "longitude": -119.719, "useCount": 0, "id": "72389093193", "name": "FRESNO YOSEMITE INTERNATIONAL, CA US", "quality": 100, "contribution": 0.0}}}