{"queryCost": 1, "latitude": 39.373, "longitude": -84.511, "resolvedAddress": "39.37300,-84.51100", "address": "39.37300,-84.51100", "timezone": "America/New_York", "tzoffset": -4.0, "days": [{"datetime": "2017-04-22", "datetimeEpoch": 1492833600, "tempmax": 55.1, "tempmin": 45.0, "temp": 50.2, "feelslikemax": 55.1, "feelslikemin": 41.8, "feelslike": 48.7, "dew": 39.7, "humidity": 68.3, "precip": 0.05, "precipprob": 100.0, "precipcover": 8.33, "preciptype": ["rain"], "snow": 0.0, "snowdepth": 0.0, "windgust": 25.3, "windspeed": 15.0, "winddir": 71.3, "pressure": 1017.9, "cloudcover": 33.6, "visibility": 9.9, "solarradiation": 211.0, "solarenergy": 18.2, "uvindex": 8.0, "sunrise": "06:50:36", "sunriseEpoch": 1492858236, "sunset": "20:22:59", "sunsetEpoch": 1492906979, "moonphase": 0.9, "conditions": "Rain, Partially cloudy", "description": "Partly cloudy throughout the day with early morning rain.", "icon": "rain", "stations": ["72521753855", "KLUK", "72224963887", "KHAO", "KI67", "72429793812"], "source": "obs"}], "stations": {"72521753855": {"distance": 1519.0, "latitude": 39.364, "longitude": -84.525, "useCount": 0, "id": "72521753855", "name": "HAMILTON BUTLER CO REGIONAL AIRPORT, OH US", "quality": 100, "contribution": 0.0}, "KLUK": {"distance": 31387.0, "latitude": 39.1, "longitude": -84.42, "useCount": 0, "id": "KLUK", "name": "KLUK", "quality": 100, "contribution": 0.0}, "72224963887": {"distance": 20215.0, "latitude": 39.531, "longitude": -84.395, "useCount": 0, "id": "72224963887", "name": "MIDDLETOWN HOOK FIELD MUNICIPAL AIRPORT, OH US", "quality": 100, "contribution": 0.0}, "KHAO": {"distance": 1641.0, "latitude": 39.36, "longitude": -84.52, "useCount": 0, "id": "KHAO", "name": "KHAO", "quality": 100, "contribution": 0.0}, "KI67": {"distance": 26912.0, "latitude": 39.25, "longitude": -84.78, "useCount": 0, "id": "KI67", "name": "KI67", "quality": 99, "contribution": 0.0}, "72429793812": {"distance": 31055.0, "latitude": 39.103, "longitude": -84.419, "useCount": 0, "id": "72429793812", "name": "CINCINNATI MUNICIPAL AIRPORT LUNKEN FIELD, OH US", "quality": 100, "contribution": 0.0}}}