{"queryCost": 1, "latitude": 33.553, "longitude": -112.172, "resolvedAddress": "33.55300,-112.17200", "address": "33.55300,-112.17200", "timezone": "America/Phoenix", "tzoffset": -7.0, "days": [{"datetime": "2017-04-20", "datetimeEpoch": 1492671600, "tempmax": 90.9, "tempmin": 60.9, "temp": 76.7, "feelslikemax": 86.9, "feelslikemin": 60.9, "feelslike": 75.3, "dew": 24.1, "humidity": 16.7, "precip": 0.0, "precipprob": 0.0, "precipcover": 0.0, "preciptype": null, "snow": 0.0, "snowdepth": 0.0, "windgust": 24.2, "windspeed": 14.9, "winddir": 199.8, "pressure": 1011.2, "cloudcover": 0.5, "visibility": 9.8, "solarradiation": 330.8, "solarenergy": 28.7, "uvindex": 10.0, "sunrise": "05:51:48", "sunriseEpoch": 1492692708, "sunset": "19:03:41", "sunsetEpoch": 1492740221, "moonphase": 0.81, "conditions": "Clear", "description": "Clear conditions throughout the day.", "icon": "clear-day", "stations": ["72278403184", "KLUF", "KDVT", "72278023183", "KPHX", "72278523111"], "source": "obs"}], "stations": {"72278403184": {"distance": 17218.0, "latitude": 33.688, "longitude": -112.082, "useCount": 0, "id": "72278403184", "name": "PHOENIX DEER VALLEY MUNICIPAL AIRPORT, AZ US", "quality": 100, "contribution": 0.0}, "KLUF": {"distance": 19468.0, "latitude": 33.53, "longitude": -112.38, "useCount": 0, "id": "KLUF", "name": "KLUF", "quality": 100, "contribution": 0.0}, "KDVT": {"distance": 17008.0, "latitude": 33.68, "longitude": -112.07, "useCount": 0, "id": "KDVT", "name": "KDVT", "quality": 100, "contribution": 0.0}, "72278023183": {"distance": 20924.0, "latitude": 33.428, "longitude": -112.004, "useCount": 0, "id": "72278023183", "name": "PHOENIX AIRPORT, AZ US", "quality": 100, "contribution": 0.0}, "KPHX": {"distance": 19662.0, "latitude": 33.43, "longitude": -112.02, "useCount": 0, "id": "KPHX", "name": "KPHX", "quality": 100, "contribution": 0.0}, "72278523111": {"distance": 18094.0, "latitude": 33.55, "longitude": -112.367, "useCount": 0, "id": "72278523111", "name": "PHOENIX LUKE AFB, AZ US", "quality": 96, "contribution": 0.0}}}