{"queryCost": 1, "latitude": 32.872, "longitude": -117.203, "resolvedAddress": "32.87200,-117.20300", "address": "32.87200,-117.20300", "timezone": "America/Los_Angeles", "tzoffset": -7.0, "days": [{"datetime": "2017-04-30", "datetimeEpoch": 1493535600, "tempmax": 87.7, "tempmin": 57.9, "temp": 71.6, "feelslikemax": 84.1, "feelslikemin": 57.9, "feelslike": 70.7, "dew": 29.7, "humidity": 23.4, "precip": 0.0, "precipprob": 0.0, "precipcover": 0.0, "preciptype": null, "snow": 0.0, "snowdepth": 0.0, "windgust": 17.2, "windspeed": 14.3, "winddir": 171.4, "pressure": 1016.8, "cloudcover": 7.6, "visibility": 9.9, "solarradiation": 346.6, "solarenergy": 29.8, "uvindex": 10.0, "sunrise": "06:02:05", "sunriseEpoch": 1493557325, "sunset": "19:30:18", "sunsetEpoch": 1493605818, "moonphase": 0.11, "conditions": "Clear", "description": "Clear conditions throughout the day.", "icon": "clear-day", "stations": ["KNKX", "KSAN", "72290023188", "KMYF", "72290303131", "72293193107"], "source": "obs"}], "stations": {"KNKX": {"distance": 8138.0, "latitude": 32.85, "longitude": -117.12, "useCount": 0, "id": "KNKX", "name": "KNKX", "quality": 98, "contribution": 0.0}, "KSAN": {"distance": 16106.0, "latitude": 32.73, "longitude": -117.17, "useCount": 0, "id": "KSAN", "name": "SAN DIEGO/LINDBE, CA", "quality": 100, "contribution": 0.0}, "72290023188": {"distance": 15520.0, "latitude": 32.734, "longitude": -117.183, "useCount": 0, "id": "72290023188", "name": "SAN DIEGO INTERNATIONAL AIRPORT, CA US", "quality": 100, "contribution": 0.0}, "KMYF": {"distance": 8951.0, "latitude": 32.82, "longitude": -117.13, "useCount": 0, "id": "KMYF", "name": "KMYF", "quality": 100, "contribution": 0.0}, "72290303131": {"distance": 8658.0, "latitude": 32.816, "longitude": -117.139, "useCount": 0, "id": "72290303131", "name": "SAN DIEGO MONTGOMERY FIELD, CA US", "quality": 100, "contribution": 0.0}, "72293193107": {"distance": 6571.0, "latitude": 32.867, "longitude": -117.133, "useCount": 0, "id": "72293193107", "name": "SAN DIEGO MIRAMAR NAS, CA US", "quality": 99, "contribution": 0.0}}}