{"queryCost": 1, "latitude": 32.957, "longitude": -117.226, "resolvedAddress": "32.95700,-117.22600", "address": "32.95700,-117.22600", "timezone": "America/Los_Angeles", "tzoffset": -7.0, "days": [{"datetime": "2017-05-06", "datetimeEpoch": 1494054000, "tempmax": 64.5, "tempmin": 54.9, "temp": 59.8, "feelslikemax": 64.5, "feelslikemin": 54.9, "feelslike": 59.8, "dew": 49.3, "humidity": 68.6, "precip": 0.01, "precipprob": 100.0, "precipcover": 4.17, "preciptype": ["rain"], "snow": 0.0, "snowdepth": 0.0, "windgust": 27.7, "windspeed": 16.5, "winddir": 218.1, "pressure": 1010.3, "cloudcover": 89.5, "visibility": 8.5, "solarradiation": 177.3, "solarenergy": 15.3, "uvindex": 6.0, "sunrise": "05:56:26", "sunriseEpoch": 1494075386, "sunset": "19:34:58", "sunsetEpoch": 1494124498, "moonphase": 0.41, "conditions": "Rain, Partially cloudy", "description": "Partly cloudy throughout the day with afternoon rain.", "icon": "rain", "stations": ["KNKX", "KCRQ", "KMYF", "72290303131", "72292703177", "72293193107"], "source": "obs"}], "stations": {"KNKX": {"distance": 15493.0, "latitude": 32.85, "longitude": -117.12, "useCount": 0, "id": "KNKX", "name": "KNKX", "quality": 98, "contribution": 0.0}, "KCRQ": {"distance": 19907.0, "latitude": 33.13, "longitude": -117.28, "useCount": 0, "id": "KCRQ", "name": "KCRQ", "quality": 100, "contribution": 0.0}, "KMYF": {"distance": 17695.0, "latitude": 32.82, "longitude": -117.13, "useCount": 0, "id": "KMYF", "name": "KMYF", "quality": 100, "contribution": 0.0}, "72290303131": {"distance": 17698.0, "latitude": 32.816, "longitude": -117.139, "useCount": 0, "id": "72290303131", "name": "SAN DIEGO MONTGOMERY FIELD, CA US", "quality": 100, "contribution": 0.0}, "72292703177": {"distance": 19678.0, "latitude": 33.128, "longitude": -117.279, "useCount": 0, "id": "72292703177", "name": "CARLSBAD MCCLELLAN PALOMAR AIRPORT, CA US", "quality": 100, "contribution": 0.0}, "72293193107": {"distance": 13288.0, "latitude": 32.867, "longitude": -117.133, "useCount": 0, "id": "72293193107", "name": "SAN DIEGO MIRAMAR NAS, CA US", "quality": 99, "contribution": 0.0}}}