{"queryCost": 1, "latitude": 36.2, "longitude": -115.06, "resolvedAddress": "36.20000,-115.06000", "address": "36.20000,-115.06000", "timezone": "America/Los_Angeles", "tzoffset": -7.0, "days": [{"datetime": "2017-05-07", "datetimeEpoch": 1494140400, "tempmax": 64.8, "tempmin": 55.4, "temp": 60.2, "feelslikemax": 64.8, "feelslikemin": 55.4, "feelslike": 60.2, "dew": 33.0, "humidity": 36.6, "precip": 0.01, "precipprob": 100.0, "precipcover": 4.17, "preciptype": ["rain"], "snow": 0.0, "snowdepth": 0.0, "windgust": 19.7, "windspeed": 18.6, "winddir": 193.3, "pressure": 1007.7, "cloudcover": 45.8, "visibility": 9.9, "solarradiation": 359.7, "solarenergy": 30.8, "uvindex": 10.0, "sunrise": "05:40:45", "sunriseEpoch": 1494160845, "sunset": "19:33:16", "sunsetEpoch": 1494210796, "moonphase": 0.45, "conditions": "Rain, Partially cloudy", "description": "Partly cloudy throughout the day with early morning rain.", "icon": "rain", "stations": ["KLAS", "74614023112", "KLSV", "72386023169", "KVGT", "72484653123"], "source": "obs"}], "stations": {"KLAS": {"distance": 16620.0, "latitude": 36.08, "longitude": -115.17, "useCount": 0, "id": "KLAS", "name": "KLAS", "quality": 100, "contribution": 0.0}, "74614023112": {"distance": 6071.0, "latitude": 36.25, "longitude": -115.033, "useCount": 0, "id": "74614023112", "name": "LAS VEGAS NELLIS AFB, NV US", "quality": 96, "contribution": 0.0}, "KLSV": {"distance": 3495.0, "latitude": 36.22, "longitude": -115.03, "useCount": 0, "id": "KLSV", "name": "KLSV", "quality": 99, "contribution": 0.0}, "72386023169": {"distance": 17003.0, "latitude": 36.072, "longitude": -115.163, "useCount": 0, "id": "72386023169", "name": "MCCARRAN INTERNATIONAL AIRPORT, NV US", "quality": 100, "contribution": 0.0}, "KVGT": {"distance": 12625.0, "latitude": 36.21, "longitude": -115.2, "useCount": 0, "id": "KVGT", "name": "KVGT", "quality": 100, "contribution": 0.0}, "72484653123": {"distance": 12285.0, "latitude": 36.212, "longitude": -115.196, "useCount": 0, "id": "72484653123", "name": "LAS VEGAS AIR TERMINAL, NV US", "quality": 100, "contribution": 0.0}}}