{"queryCost": 1, "latitude": 45.468, "longitude": -122.569, "resolvedAddress": "45.46800,-122.56900", "address": "45.46800,-122.56900", "timezone": "America/Los_Angeles", "tzoffset": -7.0, "days": [{"datetime": "2017-05-10", "datetimeEpoch": 1494399600, "tempmax": 73.5, "tempmin": 49.6, "temp": 61.9, "feelslikemax": 73.5, "feelslikemin": 49.6, "feelslike": 61.9, "dew": 47.0, "humidity": 60.5, "precip": 0.0, "precipprob": 0.0, "precipcover": 0.0, "preciptype": null, "snow": 0.0, "snowdepth": 0.0, "windgust": 17.2, "windspeed": 11.1, "winddir": 238.8, "pressure": 1012.5, "cloudcover": 32.3, "visibility": 9.9, "solarradiation": 291.3, "solarenergy": 25.4, "uvindex": 8.0, "sunrise": "05:45:24", "sunriseEpoch": 1494420324, "sunset": "20:28:41", "sunsetEpoch": 1494473321, "moonphase": 0.5, "conditions": "Partially cloudy", "description": "Partly cloudy throughout the day.", "icon": "partly-cloudy-day", "stations": ["72698524242", "KVUO", "72698024229", "KTTD", "KPDX", "72791894298"], "source": "obs"}], "stations": {"72698524242": {"distance": 15536.0, "latitude": 45.551, "longitude": -122.409, "useCount": 0, "id": "72698524242", "name": "PORTLAND TROUTDALE AIRPORT, OR US", "quality": 100, "contribution": 0.0}, "KVUO": {"distance": 18348.0, "latitude": 45.62, "longitude": -122.66, "useCount": 0, "id": "KVUO", "name": "KVUO", "quality": 100, "contribution": 0.0}, "72698024229": {"distance": 14565.0, "latitude": 45.596, "longitude": -122.609, "useCount": 0, "id": "72698024229", "name": "PORTLAND INTERNATIONAL AIRPORT, OR US", "quality": 100, "contribution": 0.0}, "KTTD": {"distance": 14780.0, "latitude": 45.55, "longitude": -122.42, "useCount": 0, "id": "KTTD", "name": "KTTD", "quality": 100, "contribution": 0.0}, "KPDX": {"distance": 14892.0, "latitude": 45.6, "longitude": -122.6, "useCount": 0, "id": "KPDX", "name": "KPDX", "quality": 100, "contribution": 0.0}, "72791894298": {"distance": 18341.0, "latitude": 45.621, "longitude": -122.657, "useCount": 0, "id": "72791894298", "name": "VANCOUVER PEARSON AIRPORT, WA US", "quality": 100, "contribution": 0.0}}}