{"queryCost": 1, "latitude": 38.566, "longitude": -90.257, "resolvedAddress": "38.56600,-90.25700", "address": "38.56600,-90.25700", "timezone": "America/Chicago", "tzoffset": -5.0, "days": [{"datetime": "2017-05-10", "datetimeEpoch": 1494392400, "tempmax": 85.0, "tempmin": 62.8, "temp": 75.6, "feelslikemax": 85.4, "feelslikemin": 62.8, "feelslike": 75.9, "dew": 61.1, "humidity": 62.2, "precip": 0.03, "precipprob": 100.0, "precipcover": 4.17, "preciptype": ["rain"], "snow": 0.0, "snowdepth": 0.0, "windgust": 27.7, "windspeed": 12.5, "winddir": 236.5, "pressure": 1011.6, "cloudcover": 41.0, "visibility": 9.8, "solarradiation": 252.1, "solarenergy": 21.8, "uvindex": 9.0, "sunrise": "05:53:41", "sunriseEpoch": 1494413621, "sunset": "20:01:41", "sunsetEpoch": 1494464501, "moonphase": 0.5, "conditions": "Rain, Partially cloudy", "description": "Partly cloudy throughout the day with late afternoon rain.", "icon": "rain", "stations": ["KBLV", "KSTL", "KCPS", "72434013994", "72433813802", "72531403960"], "source": "obs"}], "stations": {"KBLV": {"distance": 35550.0, "latitude": 38.54, "longitude": -89.85, "useCount": 0, "id": "KBLV", "name": "KBLV", "quality": 100, "contribution": 0.0}, "KSTL": {"distance": 22716.0, "latitude": 38.75, "longitude": -90.37, "useCount": 0, "id": "KSTL", "name": "KSTL", "quality": 100, "contribution": 0.0}, "KCPS": {"distance": 9324.0, "latitude": 38.57, "longitude": -90.15, "useCount": 0, "id": "KCPS", "name": "KCPS", "quality": 100, "contribution": 0.0}, "72434013994": {"distance": 23103.0, "latitude": 38.753, "longitude": -90.374, "useCount": 0, "id": "72434013994", "name": "ST LOUIS LAMBERT INTERNATIONAL AIRPORT, MO US", "quality": 100, "contribution": 0.0}, "72433813802": {"distance": 35474.0, "latitude": 38.55, "longitude": -89.85, "useCount": 0, "id": "72433813802", "name": "BELLEVILLE SCOTT AFB, IL US", "quality": 99, "contribution": 0.0}, "72531403960": {"distance": 8707.0, "latitude": 38.571, "longitude": -90.157, "useCount": 0, "id": "72531403960", "name": "CAHOKIA ST LOUIS DOWNTOWN AIRPORT, IL US", "quality": 100, "contribution": 0.0}}}