{"queryCost": 1, "latitude": 32.738, "longitude": -97.1, "resolvedAddress": "32.73800,-97.10000", "address": "32.73800,-97.10000", "timezone": "America/Chicago", "tzoffset": -5.0, "days": [{"datetime": "2017-05-11", "datetimeEpoch": 1494478800, "tempmax": 85.6, "tempmin": 69.6, "temp": 77.3, "feelslikemax": 86.1, "feelslikemin": 69.6, "feelslike": 77.6, "dew": 61.2, "humidity": 59.4, "precip": 0.0, "precipprob": 0.0, "precipcover": 0.0, "preciptype": null, "snow": 0.0, "snowdepth": 0.0, "windgust": 23.3, "windspeed": 16.3, "winddir": 202.1, "pressure": 1010.4, "cloudcover": 21.5, "visibility": 9.9, "solarradiation": 234.6, "solarenergy": 20.2, "uvindex": 8.0, "sunrise": "06:32:16", "sunriseEpoch": 1494502336, "sunset": "20:17:40", "sunsetEpoch": 1494551860, "moonphase": 0.5, "conditions": "Partially cloudy", "description": "Partly cloudy throughout the day.", "icon": "partly-cloudy-day", "stations": ["72247953907", "72259003927", "KGKY", "KDFW", "KGPM", "KRBD"], "source": "obs"}], "stations": {"72247953907": {"distance": 8302.0, "latitude": 32.664, "longitude": -97.094, "useCount": 0, "id": "72247953907", "name": "ARLINGTON MUNICIPAL AIRPORT, TX US", "quality": 100, "contribution": 0.0}, "72259003927": {"distance": 19339.0, "latitude": 32.898, "longitude": -97.019, "useCount": 0, "id": "72259003927", "name": "DAL FTW WSCMO AIRPORT, TX US", "quality": 100, "contribution": 0.0}, "KGKY": {"distance": 9841.0, "latitude": 32.65, "longitude": -97.09, "useCount": 0, "id": "KGKY", "name": "KGKY", "quality": 100, "contribution": 0.0}, "KDFW": {"distance": 19186.0, "latitude": 32.9, "longitude": -97.03, "useCount": 0, "id": "KDFW", "name": "KDFW", "quality": 100, "contribution": 0.0}, "KGPM": {"distance": 6311.0, "latitude": 32.7, "longitude": -97.05, "useCount": 0, "id": "KGPM", "name": "KGPM", "quality": 98, "contribution": 0.0}, "KRBD": {"distance": 22490.0, "latitude": 32.68, "longitude": -96.87, "useCount": 0, "id": "KRBD", "name": "KRBD", "quality": 99, "contribution": 0.0}}}