{"queryCost": 1, "latitude": 37.779, "longitude": -122.276, "resolvedAddress": "37.77900,-122.27600", "address": "37.77900,-122.27600", "timezone": "America/Los_Angeles", "tzoffset": -7.0, "days": [{"datetime": "2017-05-12", "datetimeEpoch": 1494572400, "tempmax": 66.1, "tempmin": 53.8, "temp": 59.3, "feelslikemax": 66.1, "feelslikemin": 53.8, "feelslike": 59.3, "dew": 44.4, "humidity": 59.1, "precip": 0.0, "precipprob": 0.0, "precipcover": 0.0, "preciptype": null, "snow": 0.0, "snowdepth": 0.0, "windgust": 38.0, "windspeed": 27.2, "winddir": 290.2, "pressure": 1020.9, "cloudcover": 27.5, "visibility": 9.9, "solarradiation": 350.0, "solarenergy": 30.3, "uvindex": 10.0, "sunrise": "06:01:34", "sunriseEpoch": 1494594094, "sunset": "20:09:51", "sunsetEpoch": 1494644991, "moonphase": 0.52, "conditions": "Partially cloudy", "description": "Partly cloudy throughout the day.", "icon": "partly-cloudy-day", "stations": ["72585093228", "KSFO", "72493023230", "KHWD", "KOAK", "72494023234"], "source": "obs"}], "stations": {"72585093228": {"distance": 19850.0, "latitude": 37.654, "longitude": -122.115, "useCount": 0, "id": "72585093228", "name": "HAYWARD AIR TERMINAL, CA US", "quality": 100, "contribution": 0.0}, "KSFO": {"distance": 20925.0, "latitude": 37.61, "longitude": -122.38, "useCount": 0, "id": "KSFO", "name": "KSFO", "quality": 100, "contribution": 0.0}, "72493023230": {"distance": 8034.0, "latitude": 37.721, "longitude": -122.221, "useCount": 0, "id": "72493023230", "name": "OAKLAND METROPOLITAN, CA US", "quality": 100, "contribution": 0.0}, "KHWD": {"distance": 18328.0, "latitude": 37.67, "longitude": -122.12, "useCount": 0, "id": "KHWD", "name": "KHWD", "quality": 100, "contribution": 0.0}, "KOAK": {"distance": 8212.0, "latitude": 37.72, "longitude": -122.22, "useCount": 0, "id": "KOAK", "name": "KOAK", "quality": 100, "contribution": 0.0}, "72494023234": {"distance": 19389.0, "latitude": 37.62, "longitude": -122.365, "useCount": 0, "id": "72494023234", "name": "SAN FRANCISCO INTERNATIONAL AIRPORT, CA US", "quality": 100, "contribution": 0.0}}}