{"queryCost": 1, "latitude": 35.189, "longitude": -114.053, "resolvedAddress": "35.18900,-114.05300", "address": "35.18900,-114.05300", "timezone": "America/Phoenix", "tzoffset": -7.0, "days": [{"datetime": "2017-05-14", "datetimeEpoch": 1494745200, "tempmax": 81.7, "tempmin": 46.1, "temp": 67.9, "feelslikemax": 79.8, "feelslikemin": 46.1, "feelslike": 67.4, "dew": 22.6, "humidity": 18.6, "precip": 0.0, "precipprob": 0.0, "precipcover": 0.0, "preciptype": null, "snow": 0.0, "snowdepth": 0.0, "windgust": 36.3, "windspeed": 25.9, "winddir": 196.5, "pressure": 1003.6, "cloudcover": 0.1, "visibility": 9.9, "solarradiation": 349.7, "solarenergy": 30.2, "uvindex": 10.0, "sunrise": "05:32:43", "sunriseEpoch": 1494765163, "sunset": "19:32:50", "sunsetEpoch": 1494815570, "moonphase": 0.56, "conditions": "Clear", "description": "Clear conditions throughout the day.", "icon": "clear-day", "stations": ["72370093167", "KIGM", "KEED", "KIFP", "KHII", "72380523179"], "source": "obs"}], "stations": {"72370093167": {"distance": 13326.0, "latitude": 35.258, "longitude": -113.933, "useCount": 0, "id": "72370093167", "name": "KINGMAN AIRPORT, AZ US", "quality": 100, "contribution": 0.0}, "KIGM": {"distance": 13001.0, "latitude": 35.27, "longitude": -113.95, "useCount": 0, "id": "KIGM", "name": "KIGM", "quality": 100, "contribution": 0.0}, "KEED": {"distance": 69643.0, "latitude": 34.77, "longitude": -114.62, "useCount": 0, "id": "KEED", "name": "KEED", "quality": 100, "contribution": 0.0}, "KIFP": {"distance": 46340.0, "latitude": 35.15, "longitude": -114.56, "useCount": 0, "id": "KIFP", "name": "KIFP", "quality": 39, "contribution": 0.0}, "KHII": {"distance": 74392.0, "latitude": 34.57, "longitude": -114.36, "useCount": 0, "id": "KHII", "name": "KHII", "quality": 100, "contribution": 0.0}, "72380523179": {"distance": 69762.0, "latitude": 34.768, "longitude": -114.619, "useCount": 0, "id": "72380523179", "name": "NEEDLES AIRPORT, CA US", "quality": 100, "contribution": 0.0}}}