{"queryCost": 1, "latitude": 35.396, "longitude": -119.003, "resolvedAddress": "35.39600,-119.00300", "address": "35.39600,-119.00300", "timezone": "America/Los_Angeles", "tzoffset": -7.0, "days": [{"datetime": "2015-03-27", "datetimeEpoch": 1427439600, "tempmax": 92.7, "tempmin": 55.8, "temp": 74.1, "feelslikemax": 88.3, "feelslikemin": 55.8, "feelslike": 73.0, "dew": 41.2, "humidity": 34.6, "precip": 0.0, "precipprob": 0.0, "precipcover": 0.0, "preciptype": null, "snow": 0.0, "snowdepth": 0.0, "windgust": 20.8, "windspeed": 12.7, "winddir": 240.0, "pressure": 1017.4, "cloudcover": 0.0, "visibility": 9.9, "solarradiation": 290.1, "solarenergy": 24.9, "uvindex": 9.0, "sunrise": "06:49:50", "sunriseEpoch": 1427464190, "sunset": "19:13:27", "sunsetEpoch": 1427508807, "moonphase": 0.26, "conditions": "Clear", "description": "Clear conditions throughout the day.", "icon": "clear-day", "stations": ["72389523149", "KPTV", "KTSP", "74917100479", "72384023155", "KBFL"], "source": "obs"}], "stations": {"72389523149": {"distance": 70711.0, "latitude": 36.029, "longitude": -119.062, "useCount": 0, "id": "72389523149", "name": "PORTERVILLE MUNICIPAL AIRPORT, CA US", "quality": 100, "contribution": 0.0}, "KPTV": {"distance": 70836.0, "latitude": 36.03, "longitude": -119.07, "useCount": 0, "id": "KPTV", "name": "PORTERVILLE, CA", "quality": 100, "contribution": 0.0}, "KTSP": {"distance": 59366.0, "latitude": 35.14, "longitude": -118.43, "useCount": 0, "id": "KTSP", "name": "KTSP", "quality": 97, "contribution": 0.0}, "74917100479": {"distance": 58929.0, "latitude": 35.135, "longitude": -118.439, "useCount": 0, "id": "74917100479", "name": "TEHACHAPI MUNICIPAL AIRPORT, CA US", "quality": 98, "contribution": 0.0}, "72384023155": {"distance": 6299.0, "latitude": 35.434, "longitude": -119.054, "useCount": 0, "id": "72384023155", "name": "BAKERSFIELD AIRPORT, CA US", "quality": 99, "contribution": 0.0}, "KBFL": {"distance": 5702.0, "latitude": 35.43, "longitude": -119.05, "useCount": 0, "id": "KBFL", "name": "KBFL", "quality": 99, "contribution": 0.0}}}