{"queryCost": 1, "latitude": 38.945, "longitude": -92.339, "resolvedAddress": "38.94500,-92.33900", "address": "38.94500,-92.33900", "timezone": "America/Chicago", "tzoffset": -5.0, "days": [{"datetime": "2017-05-13", "datetimeEpoch": 1494651600, "tempmax": 78.7, "tempmin": 53.5, "temp": 66.4, "feelslikemax": 78.7, "feelslikemin": 53.5, "feelslike": 66.4, "dew": 53.4, "humidity": 66.8, "precip": 0.0, "precipprob": 0.0, "precipcover": 0.0, "preciptype": null, "snow": 0.0, "snowdepth": 0.0, "windgust": null, "windspeed": 8.4, "winddir": 225.6, "pressure": 1013.8, "cloudcover": 2.3, "visibility": 9.6, "solarradiation": 343.3, "solarenergy": 29.6, "uvindex": 10.0, "sunrise": "05:58:16", "sunriseEpoch": 1494673096, "sunset": "20:13:39", "sunsetEpoch": 1494724419, "moonphase": 0.53, "conditions": "Clear", "description": "Clear conditions throughout the day.", "icon": "clear-day", "stations": ["72445803963", "KJEF", "72086900295", "KVER", "72445003945", "KCOU"], "source": "obs"}], "stations": {"72445803963": {"distance": 42484.0, "latitude": 38.591, "longitude": -92.156, "useCount": 0, "id": "72445803963", "name": "JEFFERSON CITY MEMORIAL AIRPORT, MO US", "quality": 100, "contribution": 0.0}, "KJEF": {"distance": 43819.0, "latitude": 38.58, "longitude": -92.15, "useCount": 0, "id": "KJEF", "name": "KJEF", "quality": 100, "contribution": 0.0}, "72086900295": {"distance": 29783.0, "latitude": 38.947, "longitude": -92.683, "useCount": 0, "id": "72086900295", "name": "JESSE VIERTEL MEMORIAL AIRPORT, MO US", "quality": 100, "contribution": 0.0}, "KVER": {"distance": 29530.0, "latitude": 38.94, "longitude": -92.68, "useCount": 0, "id": "KVER", "name": "KVER", "quality": 85, "contribution": 0.0}, "72445003945": {"distance": 17685.0, "latitude": 38.817, "longitude": -92.218, "useCount": 0, "id": "72445003945", "name": "COLUMBIA REGIONAL AIRPORT, MO US", "quality": 100, "contribution": 0.0}, "KCOU": {"distance": 17319.0, "latitude": 38.82, "longitude": -92.22, "useCount": 0, "id": "KCOU", "name": "KCOU", "quality": 100, "contribution": 0.0}}}