{"queryCost": 1, "latitude": 38.822, "longitude": -77.006, "resolvedAddress": "38.82200,-77.00600", "address": "38.82200,-77.00600", "timezone": "America/New_York", "tzoffset": -4.0, "days": [{"datetime": "2017-05-16", "datetimeEpoch": 1494907200, "tempmax": 78.4, "tempmin": 55.2, "temp": 67.5, "feelslikemax": 78.4, "feelslikemin": 55.2, "feelslike": 67.5, "dew": 49.7, "humidity": 54.4, "precip": 0.0, "precipprob": 0.0, "precipcover": 0.0, "preciptype": null, "snow": 0.0, "snowdepth": 0.0, "windgust": null, "windspeed": 12.3, "winddir": 145.1, "pressure": 1017.5, "cloudcover": 38.7, "visibility": 9.9, "solarradiation": 347.4, "solarenergy": 30.0, "uvindex": 10.0, "sunrise": "05:54:37", "sunriseEpoch": 1494928477, "sunset": "20:14:41", "sunsetEpoch": 1494980081, "moonphase": 0.63, "conditions": "Partially cloudy", "description": "Partly cloudy throughout the day.", "icon": "partly-cloudy-day", "stations": ["72405013743", "KDCA", "72403793728", "KADW", "KDAA", "74594013705"], "source": "obs"}], "stations": {"72405013743": {"distance": 3739.0, "latitude": 38.847, "longitude": -77.034, "useCount": 0, "id": "72405013743", "name": "WASHINGTON REAGAN NATIONAL AIRPORT, VA US", "quality": 100, "contribution": 0.0}, "KDCA": {"distance": 3748.0, "latitude": 38.85, "longitude": -77.03, "useCount": 0, "id": "KDCA", "name": "KDCA", "quality": 100, "contribution": 0.0}, "72403793728": {"distance": 19344.0, "latitude": 38.717, "longitude": -77.183, "useCount": 0, "id": "72403793728", "name": "DAVISON ARMY AIR FIELD, VA US", "quality": 100, "contribution": 0.0}, "KADW": {"distance": 11797.0, "latitude": 38.82, "longitude": -76.87, "useCount": 0, "id": "KADW", "name": "KADW", "quality": 100, "contribution": 0.0}, "KDAA": {"distance": 18894.0, "latitude": 38.72, "longitude": -77.18, "useCount": 0, "id": "KDAA", "name": "KDAA", "quality": 100, "contribution": 0.0}, "74594013705": {"distance": 12096.0, "latitude": 38.817, "longitude": -76.867, "useCount": 0, "id": "74594013705", "name": "CAMP SPRINGS ANDREWS AFB, MD US", "quality": 100, "contribution": 0.0}}}