{"queryCost": 1, "latitude": 44.482, "longitude": -69.808, "resolvedAddress": "44.48200,-69.80800", "address": "44.48200,-69.80800", "timezone": "America/New_York", "tzoffset": -4.0, "days": [{"datetime": "2017-05-20", "datetimeEpoch": 1495252800, "tempmax": 65.7, "tempmin": 46.2, "temp": 55.0, "feelslikemax": 65.7, "feelslikemin": 41.2, "feelslike": 53.8, "dew": 29.9, "humidity": 39.9, "precip": 0.0, "precipprob": 0.0, "precipcover": 0.0, "preciptype": null, "snow": 0.0, "snowdepth": 0.0, "windgust": 23.0, "windspeed": 14.7, "winddir": 303.8, "pressure": 1025.3, "cloudcover": 0.0, "visibility": 9.9, "solarradiation": 359.0, "solarenergy": 30.9, "uvindex": 10.0, "sunrise": "05:06:25", "sunriseEpoch": 1495271185, "sunset": "20:05:46", "sunsetEpoch": 1495325146, "moonphase": 0.83, "conditions": "Clear", "description": "Clear conditions throughout the day.", "icon": "clear-day", "stations": ["KWVL", "KIWI", "72713594623", "72618514605", "KAUG", "72607314615"], "source": "obs"}], "stations": {"KWVL": {"distance": 11481.0, "latitude": 44.53, "longitude": -69.68, "useCount": 0, "id": "KWVL", "name": "WATERVILLE, ME", "quality": 100, "contribution": 0.0}, "KIWI": {"distance": 57426.0, "latitude": 43.97, "longitude": -69.72, "useCount": 0, "id": "KIWI", "name": "KIWI", "quality": 100, "contribution": 0.0}, "72713594623": {"distance": 58217.0, "latitude": 43.964, "longitude": -69.712, "useCount": 0, "id": "72713594623", "name": "WISCASSET AIRPORT, ME US", "quality": 100, "contribution": 0.0}, "72618514605": {"distance": 18555.0, "latitude": 44.316, "longitude": -69.797, "useCount": 0, "id": "72618514605", "name": "AUGUSTA STATE AIRPORT, ME US", "quality": 100, "contribution": 0.0}, "KAUG": {"distance": 18045.0, "latitude": 44.32, "longitude": -69.8, "useCount": 0, "id": "KAUG", "name": "KAUG", "quality": 100, "contribution": 0.0}, "72607314615": {"distance": 12588.0, "latitude": 44.533, "longitude": -69.667, "useCount": 0, "id": "72607314615", "name": "WATERVILLE LEFLEUR AIRPORT, ME US", "quality": 99, "contribution": 0.0}}}