{"queryCost": 1, "latitude": 37.663, "longitude": -121.85, "resolvedAddress": "37.66300,-121.85000", "address": "37.66300,-121.85000", "timezone": "America/Los_Angeles", "tzoffset": -7.0, "days": [{"datetime": "2017-05-20", "datetimeEpoch": 1495263600, "tempmax": 91.7, "tempmin": 52.3, "temp": 71.6, "feelslikemax": 88.9, "feelslikemin": 52.3, "feelslike": 70.8, "dew": 45.9, "humidity": 43.5, "precip": 0.0, "precipprob": 0.0, "precipcover": 0.0, "preciptype": null, "snow": 0.0, "snowdepth": 0.0, "windgust": null, "windspeed": 14.9, "winddir": 260.8, "pressure": 1012.8, "cloudcover": 0.2, "visibility": 9.9, "solarradiation": 347.6, "solarenergy": 29.9, "uvindex": 10.0, "sunrise": "05:53:42", "sunriseEpoch": 1495284822, "sunset": "20:14:40", "sunsetEpoch": 1495336480, "moonphase": 0.83, "conditions": "Clear", "description": "Clear conditions throughout the day.", "icon": "clear-day", "stations": ["72585093228", "72493023230", "KLVK", "72492723285", "KHWD", "KOAK"], "source": "obs"}], "stations": {"72585093228": {"distance": 23374.0, "latitude": 37.654, "longitude": -122.115, "useCount": 0, "id": "72585093228", "name": "HAYWARD AIR TERMINAL, CA US", "quality": 100, "contribution": 0.0}, "72493023230": {"distance": 33321.0, "latitude": 37.721, "longitude": -122.221, "useCount": 0, "id": "72493023230", "name": "OAKLAND METROPOLITAN, CA US", "quality": 100, "contribution": 0.0}, "KLVK": {"distance": 4894.0, "latitude": 37.7, "longitude": -121.82, "useCount": 0, "id": "KLVK", "name": "LIVERMORE, CA", "quality": 100, "contribution": 0.0}, "72492723285": {"distance": 4582.0, "latitude": 37.693, "longitude": -121.814, "useCount": 0, "id": "72492723285", "name": "LIVERMORE MUNICIPAL AIRPORT, CA US", "quality": 100, "contribution": 0.0}, "KHWD": {"distance": 23805.0, "latitude": 37.67, "longitude": -122.12, "useCount": 0, "id": "KHWD", "name": "KHWD", "quality": 100, "contribution": 0.0}, "KOAK": {"distance": 33205.0, "latitude": 37.72, "longitude": -122.22, "useCount": 0, "id": "KOAK", "name": "KOAK", "quality": 100, "contribution": 0.0}}}