{"queryCost": 1, "latitude": 33.553, "longitude": -112.152, "resolvedAddress": "33.55300,-112.15200", "address": "33.55300,-112.15200", "timezone": "America/Phoenix", "tzoffset": -7.0, "days": [{"datetime": "2017-05-23", "datetimeEpoch": 1495522800, "tempmax": 102.7, "tempmin": 75.3, "temp": 90.7, "feelslikemax": 96.4, "feelslikemin": 75.3, "feelslike": 86.8, "dew": 25.5, "humidity": 10.7, "precip": 0.0, "precipprob": 0.0, "precipcover": 0.0, "preciptype": null, "snow": 0.0, "snowdepth": 0.0, "windgust": 18.3, "windspeed": 11.4, "winddir": 201.9, "pressure": 1007.4, "cloudcover": 8.8, "visibility": 9.8, "solarradiation": 364.0, "solarenergy": 31.4, "uvindex": 10.0, "sunrise": "05:23:01", "sunriseEpoch": 1495542181, "sunset": "19:28:08", "sunsetEpoch": 1495592888, "moonphase": 0.97, "conditions": "Clear", "description": "Clear conditions throughout the day.", "icon": "clear-day", "stations": ["72278403184", "KLUF", "KDVT", "72278023183", "KPHX", "72278523111"], "source": "obs"}], "stations": {"72278403184": {"distance": 16400.0, "latitude": 33.688, "longitude": -112.082, "useCount": 0, "id": "72278403184", "name": "PHOENIX DEER VALLEY MUNICIPAL AIRPORT, AZ US", "quality": 100, "contribution": 0.0}, "KLUF": {"distance": 21309.0, "latitude": 33.53, "longitude": -112.38, "useCount": 0, "id": "KLUF", "name": "KLUF", "quality": 100, "contribution": 0.0}, "KDVT": {"distance": 16052.0, "latitude": 33.68, "longitude": -112.07, "useCount": 0, "id": "KDVT", "name": "KDVT", "quality": 100, "contribution": 0.0}, "72278023183": {"distance": 19579.0, "latitude": 33.428, "longitude": -112.004, "useCount": 0, "id": "72278023183", "name": "PHOENIX AIRPORT, AZ US", "quality": 100, "contribution": 0.0}, "KPHX": {"distance": 18375.0, "latitude": 33.43, "longitude": -112.02, "useCount": 0, "id": "KPHX", "name": "KPHX", "quality": 100, "contribution": 0.0}, "72278523111": {"distance": 19949.0, "latitude": 33.55, "longitude": -112.367, "useCount": 0, "id": "72278523111", "name": "PHOENIX LUKE AFB, AZ US", "quality": 96, "contribution": 0.0}}}