{"queryCost": 1, "latitude": 36.222, "longitude": -116.052, "resolvedAddress": "36.22200,-116.05200", "address": "36.22200,-116.05200", "timezone": "America/Los_Angeles", "tzoffset": -7.0, "days": [{"datetime": "2017-05-23", "datetimeEpoch": 1495522800, "tempmax": 96.0, "tempmin": 64.7, "temp": 81.3, "feelslikemax": 91.0, "feelslikemin": 64.7, "feelslike": 79.1, "dew": 25.0, "humidity": 14.0, "precip": 0.0, "precipprob": 0.0, "precipcover": 0.0, "preciptype": null, "snow": 0.0, "snowdepth": 0.0, "windgust": 20.8, "windspeed": 11.5, "winddir": 184.5, "pressure": 1011.1, "cloudcover": 1.2, "visibility": 9.9, "solarradiation": 361.6, "solarenergy": 31.2, "uvindex": 10.0, "sunrise": "05:32:13", "sunriseEpoch": 1495542733, "sunset": "19:50:10", "sunsetEpoch": 1495594210, "moonphase": 0.97, "conditions": "Clear", "description": "Clear conditions throughout the day.", "icon": "clear-day", "stations": ["KINS", "72387003160", "74614123141", "99999953136", "KDRA", "KVGT"], "source": "obs"}], "stations": {"KINS": {"distance": 53381.0, "latitude": 36.59, "longitude": -115.67, "useCount": 0, "id": "KINS", "name": "KINS", "quality": 100, "contribution": 0.0}, "72387003160": {"distance": 44424.0, "latitude": 36.621, "longitude": -116.028, "useCount": 0, "id": "72387003160", "name": "MERCURY DESERT ROCK AIRPORT, NV US", "quality": 100, "contribution": 0.0}, "74614123141": {"distance": 52064.0, "latitude": 36.583, "longitude": -115.683, "useCount": 0, "id": "74614123141", "name": "INDIAN SPRINGS, NV US", "quality": 96, "contribution": 0.0}, "99999953136": {"distance": 44831.0, "latitude": 36.624, "longitude": -116.022, "useCount": 0, "id": "99999953136", "name": "MERCURY 3 SSW, NV US", "quality": 100, "contribution": 0.0}, "KDRA": {"distance": 43287.0, "latitude": 36.61, "longitude": -116.02, "useCount": 0, "id": "KDRA", "name": "KDRA", "quality": 90, "contribution": 0.0}, "KVGT": {"distance": 76531.0, "latitude": 36.21, "longitude": -115.2, "useCount": 0, "id": "KVGT", "name": "KVGT", "quality": 100, "contribution": 0.0}}}