{"queryCost": 1, "latitude": 37.647, "longitude": -122.467, "resolvedAddress": "37.64700,-122.46700", "address": "37.64700,-122.46700", "timezone": "America/Los_Angeles", "tzoffset": -7.0, "days": [{"datetime": "2017-05-23", "datetimeEpoch": 1495522800, "tempmax": 64.4, "tempmin": 52.7, "temp": 57.1, "feelslikemax": 64.4, "feelslikemin": 52.7, "feelslike": 57.1, "dew": 51.0, "humidity": 80.6, "precip": 0.0, "precipprob": 0.0, "precipcover": 0.0, "preciptype": null, "snow": 0.0, "snowdepth": 0.0, "windgust": 24.2, "windspeed": 21.1, "winddir": 281.5, "pressure": 1014.1, "cloudcover": 51.2, "visibility": 8.7, "solarradiation": 347.4, "solarenergy": 30.1, "uvindex": 10.0, "sunrise": "05:54:15", "sunriseEpoch": 1495544055, "sunset": "20:19:29", "sunsetEpoch": 1495595969, "moonphase": 0.97, "conditions": "Partially cloudy", "description": "Clearing in the afternoon.", "icon": "partly-cloudy-day", "stations": ["KHAF", "KSFO", "72493023230", "72064600228", "KOAK", "72494023234"], "source": "obs"}], "stations": {"KHAF": {"distance": 16621.0, "latitude": 37.5, "longitude": -122.5, "useCount": 0, "id": "KHAF", "name": "KHAF", "quality": 100, "contribution": 0.0}, "KSFO": {"distance": 8706.0, "latitude": 37.61, "longitude": -122.38, "useCount": 0, "id": "KSFO", "name": "KSFO", "quality": 100, "contribution": 0.0}, "72493023230": {"distance": 23201.0, "latitude": 37.721, "longitude": -122.221, "useCount": 0, "id": "72493023230", "name": "OAKLAND METROPOLITAN, CA US", "quality": 100, "contribution": 0.0}, "72064600228": {"distance": 15215.0, "latitude": 37.513, "longitude": -122.501, "useCount": 0, "id": "72064600228", "name": "HALF MOON BAY AIRPORT, CA US", "quality": 100, "contribution": 0.0}, "KOAK": {"distance": 23228.0, "latitude": 37.72, "longitude": -122.22, "useCount": 0, "id": "KOAK", "name": "KOAK", "quality": 100, "contribution": 0.0}, "72494023234": {"distance": 9492.0, "latitude": 37.62, "longitude": -122.365, "useCount": 0, "id": "72494023234", "name": "SAN FRANCISCO INTERNATIONAL AIRPORT, CA US", "quality": 100, "contribution": 0.0}}}