{"queryCost": 1, "latitude": 35.881, "longitude": -83.89, "resolvedAddress": "35.88100,-83.89000", "address": "35.88100,-83.89000", "timezone": "America/New_York", "tzoffset": -4.0, "days": [{"datetime": "2017-05-23", "datetimeEpoch": 1495512000, "tempmax": 70.9, "tempmin": 62.8, "temp": 66.2, "feelslikemax": 70.9, "feelslikemin": 62.8, "feelslike": 66.2, "dew": 62.0, "humidity": 86.4, "precip": 0.26, "precipprob": 100.0, "precipcover": 33.33, "preciptype": ["rain"], "snow": 0.0, "snowdepth": 0.0, "windgust": null, "windspeed": 9.1, "winddir": 185.3, "pressure": 1007.5, "cloudcover": 66.4, "visibility": 7.3, "solarradiation": 101.4, "solarenergy": 8.8, "uvindex": 3.0, "sunrise": "06:24:28", "sunriseEpoch": 1495535068, "sunset": "20:40:36", "sunsetEpoch": 1495586436, "moonphase": 0.97, "conditions": "Rain, Partially cloudy", "description": "Partly cloudy throughout the day with a chance of rain throughout the day.", "icon": "rain", "stations": ["KTYS", "72326013891", "KOQT", "72427053868", "KMOR", "72090799999"], "source": "obs"}], "stations": {"KTYS": {"distance": 10586.0, "latitude": 35.82, "longitude": -83.98, "useCount": 0, "id": "KTYS", "name": "KTYS", "quality": 100, "contribution": 0.0}, "72326013891": {"distance": 11124.0, "latitude": 35.818, "longitude": -83.986, "useCount": 0, "id": "72326013891", "name": "KNOXVILLE AIRPORT, TN US", "quality": 100, "contribution": 0.0}, "KOQT": {"distance": 34325.0, "latitude": 36.02, "longitude": -84.23, "useCount": 0, "id": "KOQT", "name": "KOQT", "quality": 100, "contribution": 0.0}, "72427053868": {"distance": 34773.0, "latitude": 36.023, "longitude": -84.234, "useCount": 0, "id": "72427053868", "name": "OAK RIDGE ASOS, TN US", "quality": 100, "contribution": 0.0}, "KMOR": {"distance": 58175.0, "latitude": 36.18, "longitude": -83.36, "useCount": 0, "id": "KMOR", "name": "KMOR", "quality": 99, "contribution": 0.0}, "72090799999": {"distance": 56120.0, "latitude": 36.335, "longitude": -84.162, "useCount": 0, "id": "72090799999", "name": "CAMPBELL CO, TN US", "quality": 100, "contribution": 0.0}}}