{"queryCost": 1, "latitude": 33.796, "longitude": -84.622, "resolvedAddress": "33.79600,-84.62200", "address": "33.79600,-84.62200", "timezone": "America/New_York", "tzoffset": -4.0, "days": [{"datetime": "2017-05-27", "datetimeEpoch": 1495857600, "tempmax": 83.9, "tempmin": 64.5, "temp": 74.4, "feelslikemax": 86.9, "feelslikemin": 64.5, "feelslike": 75.2, "dew": 65.5, "humidity": 75.4, "precip": 0.0, "precipprob": 0.0, "precipcover": 0.0, "preciptype": null, "snow": 0.0, "snowdepth": 0.0, "windgust": 21.0, "windspeed": 11.3, "winddir": 183.0, "pressure": 1015.5, "cloudcover": 31.3, "visibility": 9.9, "solarradiation": 298.2, "solarenergy": 25.7, "uvindex": 8.0, "sunrise": "06:30:31", "sunriseEpoch": 1495881031, "sunset": "20:41:11", "sunsetEpoch": 1495932071, "moonphase": 0.02, "conditions": "Partially cloudy", "description": "Becoming cloudy in the afternoon.", "icon": "partly-cloudy-day", "stations": ["KFTY", "KMGE", "KRYY", "74781263813", "72227013864", "72219503888"], "source": "obs"}], "stations": {"KFTY": {"distance": 9603.0, "latitude": 33.78, "longitude": -84.52, "useCount": 0, "id": "KFTY", "name": "KFTY", "quality": 100, "contribution": 0.0}, "KMGE": {"distance": 16717.0, "latitude": 33.92, "longitude": -84.52, "useCount": 0, "id": "KMGE", "name": "KMGE", "quality": 100, "contribution": 0.0}, "KRYY": {"distance": 23909.0, "latitude": 34.01, "longitude": -84.6, "useCount": 0, "id": "KRYY", "name": "MCCOLLUM FLD, GA", "quality": 100, "contribution": 0.0}, "74781263813": {"distance": 24264.0, "latitude": 34.013, "longitude": -84.599, "useCount": 0, "id": "74781263813", "name": "MARIETTA COBB CO MCCOLLUM FIELD AIRPORT, GA US", "quality": 100, "contribution": 0.0}, "72227013864": {"distance": 16592.0, "latitude": 33.917, "longitude": -84.517, "useCount": 0, "id": "72227013864", "name": "MARIETTA DOBBINS AFB, GA US", "quality": 99, "contribution": 0.0}, "72219503888": {"distance": 9493.0, "latitude": 33.779, "longitude": -84.521, "useCount": 0, "id": "72219503888", "name": "ATLANTA FULTON CO AIRPORT, GA US", "quality": 100, "contribution": 0.0}}}