{"queryCost": 1, "latitude": 31.357, "longitude": -89.259, "resolvedAddress": "31.35700,-89.25900", "address": "31.35700,-89.25900", "timezone": "America/Chicago", "tzoffset": -5.0, "days": [{"datetime": "2017-06-02", "datetimeEpoch": 1496379600, "tempmax": 85.4, "tempmin": 68.9, "temp": 76.0, "feelslikemax": 89.4, "feelslikemin": 68.9, "feelslike": 77.1, "dew": 69.7, "humidity": 82.2, "precip": 0.0, "precipprob": 0.0, "precipcover": 0.0, "preciptype": null, "snow": 0.0, "snowdepth": 0.0, "windgust": null, "windspeed": 11.0, "winddir": 112.1, "pressure": 1015.8, "cloudcover": 56.3, "visibility": 8.7, "solarradiation": 272.0, "solarenergy": 23.6, "uvindex": 8.0, "sunrise": "05:53:01", "sunriseEpoch": 1496400781, "sunset": "19:57:24", "sunsetEpoch": 1496451444, "moonphase": 0.3, "conditions": "Partially cloudy", "description": "Partly cloudy throughout the day.", "icon": "partly-cloudy-day", "stations": ["74759013833", "KHBG", "72077699999", "72234853808", "KPIB"], "source": "obs"}], "stations": {"72234853808": {"distance": 14105.0, "latitude": 31.467, "longitude": -89.333, "useCount": 0, "id": "72234853808", "name": "LAUREL HATTIESBURG PINE BELT REGIONAL AIRPORT, MS US", "quality": 99, "contribution": 0.0}, "74759013833": {"distance": 8379.0, "latitude": 31.282, "longitude": -89.253, "useCount": 0, "id": "74759013833", "name": "HATTIESBURG CHAIN MUNICIPAL AIRPORT, MS US", "quality": 100, "contribution": 0.0}, "KHBG": {"distance": 9723.0, "latitude": 31.27, "longitude": -89.25, "useCount": 0, "id": "KHBG", "name": "KHBG", "quality": 100, "contribution": 0.0}, "72077699999": {"distance": 36085.0, "latitude": 31.673, "longitude": -89.172, "useCount": 0, "id": "72077699999", "name": "HESLER NOBLE FIELD, MS US", "quality": 100, "contribution": 0.0}, "KPIB": {"distance": 14273.0, "latitude": 31.47, "longitude": -89.33, "useCount": 0, "id": "KPIB", "name": "PINE BELT RGNL, MS", "quality": 100, "contribution": 0.0}}}