{"queryCost": 1, "latitude": 44.72, "longitude": -68.801, "resolvedAddress": "44.72000,-68.80100", "address": "44.72000,-68.80100", "timezone": "America/New_York", "tzoffset": -4.0, "days": [{"datetime": "2017-06-06", "datetimeEpoch": 1496721600, "tempmax": 64.8, "tempmin": 46.9, "temp": 55.1, "feelslikemax": 64.8, "feelslikemin": 40.8, "feelslike": 53.5, "dew": 41.8, "humidity": 63.0, "precip": 0.0, "precipprob": 0.0, "precipcover": 0.0, "preciptype": null, "snow": 0.0, "snowdepth": 0.0, "windgust": 27.6, "windspeed": 19.4, "winddir": 50.2, "pressure": 1013.4, "cloudcover": 77.0, "visibility": 9.9, "solarradiation": 221.7, "solarenergy": 19.1, "uvindex": 8.0, "sunrise": "04:50:32", "sunriseEpoch": 1496739032, "sunset": "20:17:42", "sunsetEpoch": 1496794662, "moonphase": 0.46, "conditions": "Partially cloudy", "description": "Partly cloudy throughout the day.", "icon": "partly-cloudy-day", "stations": ["KBGR", "KBHB", "99999994644", "72607014606", "72607714616", "72607314615"], "source": "obs"}], "stations": {"KBGR": {"distance": 9196.0, "latitude": 44.8, "longitude": -68.83, "useCount": 0, "id": "KBGR", "name": "KBGR", "quality": 100, "contribution": 0.0}, "KBHB": {"distance": 45508.0, "latitude": 44.45, "longitude": -68.37, "useCount": 0, "id": "KBHB", "name": "BAR HARBOR, ME", "quality": 100, "contribution": 0.0}, "99999994644": {"distance": 24484.0, "latitude": 44.928, "longitude": -68.701, "useCount": 0, "id": "99999994644", "name": "OLD TOWN 2 W, ME US", "quality": 100, "contribution": 0.0}, "72607014606": {"distance": 8770.0, "latitude": 44.798, "longitude": -68.818, "useCount": 0, "id": "72607014606", "name": "BANGOR INTERNATIONAL AIRPORT, ME US", "quality": 100, "contribution": 0.0}, "72607714616": {"distance": 45705.0, "latitude": 44.45, "longitude": -68.367, "useCount": 0, "id": "72607714616", "name": "BAR HARBOR AIRPORT, ME US", "quality": 98, "contribution": 0.0}, "72607314615": {"distance": 71665.0, "latitude": 44.533, "longitude": -69.667, "useCount": 0, "id": "72607314615", "name": "WATERVILLE LEFLEUR AIRPORT, ME US", "quality": 99, "contribution": 0.0}}}