{"queryCost": 1, "latitude": 45.676, "longitude": -122.486, "resolvedAddress": "45.67600,-122.48600", "address": "45.67600,-122.48600", "timezone": "America/Los_Angeles", "tzoffset": -7.0, "days": [{"datetime": "2017-06-06", "datetimeEpoch": 1496732400, "tempmax": 85.2, "tempmin": 54.1, "temp": 69.1, "feelslikemax": 82.6, "feelslikemin": 54.1, "feelslike": 68.6, "dew": 48.4, "humidity": 51.0, "precip": 0.0, "precipprob": 0.0, "precipcover": 0.0, "preciptype": null, "snow": 0.0, "snowdepth": 0.0, "windgust": 17.2, "windspeed": 9.5, "winddir": 248.8, "pressure": 1013.0, "cloudcover": 23.4, "visibility": 9.9, "solarradiation": 318.2, "solarenergy": 27.6, "uvindex": 8.0, "sunrise": "05:21:32", "sunriseEpoch": 1496751692, "sunset": "20:56:15", "sunsetEpoch": 1496807775, "moonphase": 0.46, "conditions": "Partially cloudy", "description": "Partly cloudy throughout the day.", "icon": "partly-cloudy-day", "stations": ["72698524242", "KVUO", "KPDX", "72698024229", "KTTD", "72791894298"], "source": "obs"}], "stations": {"72698524242": {"distance": 15142.0, "latitude": 45.551, "longitude": -122.409, "useCount": 0, "id": "72698524242", "name": "PORTLAND TROUTDALE AIRPORT, OR US", "quality": 100, "contribution": 0.0}, "KVUO": {"distance": 14907.0, "latitude": 45.62, "longitude": -122.66, "useCount": 0, "id": "KVUO", "name": "KVUO", "quality": 100, "contribution": 0.0}, "KPDX": {"distance": 12260.0, "latitude": 45.6, "longitude": -122.6, "useCount": 0, "id": "KPDX", "name": "KPDX", "quality": 100, "contribution": 0.0}, "72698024229": {"distance": 13091.0, "latitude": 45.596, "longitude": -122.609, "useCount": 0, "id": "72698024229", "name": "PORTLAND INTERNATIONAL AIRPORT, OR US", "quality": 100, "contribution": 0.0}, "KTTD": {"distance": 14938.0, "latitude": 45.55, "longitude": -122.42, "useCount": 0, "id": "KTTD", "name": "KTTD", "quality": 100, "contribution": 0.0}, "72791894298": {"distance": 14657.0, "latitude": 45.621, "longitude": -122.657, "useCount": 0, "id": "72791894298", "name": "VANCOUVER PEARSON AIRPORT, WA US", "quality": 100, "contribution": 0.0}}}