{"queryCost": 1, "latitude": 32.431, "longitude": -99.712, "resolvedAddress": "32.43100,-99.71200", "address": "32.43100,-99.71200", "timezone": "America/Chicago", "tzoffset": -5.0, "days": [{"datetime": "2017-06-10", "datetimeEpoch": 1497070800, "tempmax": 91.3, "tempmin": 70.2, "temp": 80.0, "feelslikemax": 94.6, "feelslikemin": 70.2, "feelslike": 81.2, "dew": 66.5, "humidity": 66.1, "precip": 0.0, "precipprob": 0.0, "precipcover": 0.0, "preciptype": null, "snow": 0.0, "snowdepth": 0.0, "windgust": 32.1, "windspeed": 22.3, "winddir": 163.6, "pressure": 1006.9, "cloudcover": 1.4, "visibility": 9.9, "solarradiation": 350.9, "solarenergy": 30.4, "uvindex": 10.0, "sunrise": "06:31:12", "sunriseEpoch": 1497094272, "sunset": "20:45:43", "sunsetEpoch": 1497145543, "moonphase": 0.51, "conditions": "Clear", "description": "Clear conditions throughout the day.", "icon": "clear-day", "stations": ["KDYS", "72266013962", "72219223033", "KSWW", "72096513910", "KABI"], "source": "obs"}], "stations": {"KDYS": {"distance": 13025.0, "latitude": 32.42, "longitude": -99.85, "useCount": 0, "id": "KDYS", "name": "KDYS", "quality": 100, "contribution": 0.0}, "72266013962": {"distance": 3612.0, "latitude": 32.411, "longitude": -99.682, "useCount": 0, "id": "72266013962", "name": "ABILENE REGIONAL AIRPORT, TX US", "quality": 100, "contribution": 0.0}, "72219223033": {"distance": 70984.0, "latitude": 32.473, "longitude": -100.466, "useCount": 0, "id": "72219223033", "name": "SWEETWATER AVENGER FIELD, TX US", "quality": 100, "contribution": 0.0}, "KSWW": {"distance": 71337.0, "latitude": 32.47, "longitude": -100.47, "useCount": 0, "id": "KSWW", "name": "KSWW", "quality": 100, "contribution": 0.0}, "72096513910": {"distance": 12969.0, "latitude": 32.433, "longitude": -99.85, "useCount": 0, "id": "72096513910", "name": "ABILENE DYESS AFB, TX US", "quality": 99, "contribution": 0.0}, "KABI": {"distance": 3247.0, "latitude": 32.42, "longitude": -99.68, "useCount": 0, "id": "KABI", "name": "KABI", "quality": 100, "contribution": 0.0}}}