{"queryCost": 1, "latitude": 47.678, "longitude": -122.262, "resolvedAddress": "47.67800,-122.26200", "address": "47.67800,-122.26200", "timezone": "America/Los_Angeles", "tzoffset": -7.0, "days": [{"datetime": "2017-06-18", "datetimeEpoch": 1497769200, "tempmax": 69.1, "tempmin": 56.0, "temp": 61.6, "feelslikemax": 69.1, "feelslikemin": 56.0, "feelslike": 61.6, "dew": 58.4, "humidity": 89.8, "precip": 0.01, "precipprob": 100.0, "precipcover": 4.17, "preciptype": ["rain"], "snow": 0.0, "snowdepth": 0.0, "windgust": 16.1, "windspeed": 8.1, "winddir": 190.5, "pressure": 1021.0, "cloudcover": 77.8, "visibility": 9.0, "solarradiation": 224.4, "solarenergy": 19.3, "uvindex": 7.0, "sunrise": "05:10:34", "sunriseEpoch": 1497787834, "sunset": "21:10:06", "sunsetEpoch": 1497845406, "moonphase": 0.81, "conditions": "Rain, Partially cloudy", "description": "Partly cloudy throughout the day with early morning rain.", "icon": "rain", "stations": ["KSEA", "KBFI", "72793524234", "72793494248", "72793724222", "KRNT"], "source": "obs"}], "stations": {"KSEA": {"distance": 25541.0, "latitude": 47.45, "longitude": -122.3, "useCount": 0, "id": "KSEA", "name": "KSEA", "quality": 100, "contribution": 0.0}, "KBFI": {"distance": 16720.0, "latitude": 47.53, "longitude": -122.3, "useCount": 0, "id": "KBFI", "name": "KBFI", "quality": 100, "contribution": 0.0}, "72793524234": {"distance": 16700.0, "latitude": 47.53, "longitude": -122.301, "useCount": 0, "id": "72793524234", "name": "SEATTLE BOEING FIELD, WA US", "quality": 100, "contribution": 0.0}, "72793494248": {"distance": 20874.0, "latitude": 47.493, "longitude": -122.214, "useCount": 0, "id": "72793494248", "name": "RENTON MUNICIPAL AIRPORT, WA US", "quality": 100, "contribution": 0.0}, "72793724222": {"distance": 25617.0, "latitude": 47.908, "longitude": -122.28, "useCount": 0, "id": "72793724222", "name": "EVERETT SNOHOMISH CO AIRPORT, WA US", "quality": 100, "contribution": 0.0}, "KRNT": {"distance": 20064.0, "latitude": 47.5, "longitude": -122.22, "useCount": 0, "id": "KRNT", "name": "KRNT", "quality": 100, "contribution": 0.0}}}