{"queryCost": 1, "latitude": 44.129, "longitude": -103.219, "resolvedAddress": "44.12900,-103.21900", "address": "44.12900,-103.21900", "timezone": "America/Denver", "tzoffset": -6.0, "days": [{"datetime": "2017-06-17", "datetimeEpoch": 1497679200, "tempmax": 70.4, "tempmin": 51.8, "temp": 62.9, "feelslikemax": 70.4, "feelslikemin": 51.8, "feelslike": 62.9, "dew": 48.9, "humidity": 62.7, "precip": 0.05, "precipprob": 100.0, "precipcover": 20.83, "preciptype": ["rain"], "snow": 0.0, "snowdepth": 0.0, "windgust": 43.1, "windspeed": 27.9, "winddir": 311.9, "pressure": 1009.9, "cloudcover": 54.5, "visibility": 9.9, "solarradiation": 293.0, "solarenergy": 25.1, "uvindex": 9.0, "sunrise": "05:09:04", "sunriseEpoch": 1497697744, "sunset": "20:38:48", "sunsetEpoch": 1497753528, "moonphase": 0.76, "conditions": "Rain, Partially cloudy", "description": "Partly cloudy throughout the day with a chance of rain throughout the day.", "icon": "rain", "stations": ["KCUT", "KRAP", "KRCA", "72651494032", "72662524006", "72662024090"], "source": "obs"}], "stations": {"KCUT": {"distance": 54830.0, "latitude": 43.73, "longitude": -103.62, "useCount": 0, "id": "KCUT", "name": "KCUT", "quality": 100, "contribution": 0.0}, "KRAP": {"distance": 15458.0, "latitude": 44.05, "longitude": -103.06, "useCount": 0, "id": "KRAP", "name": "KRAP", "quality": 100, "contribution": 0.0}, "KRCA": {"distance": 9790.0, "latitude": 44.15, "longitude": -103.1, "useCount": 0, "id": "KRCA", "name": "KRCA", "quality": 100, "contribution": 0.0}, "72651494032": {"distance": 54128.0, "latitude": 43.733, "longitude": -103.611, "useCount": 0, "id": "72651494032", "name": "CUSTER CO AIRPORT, SD US", "quality": 100, "contribution": 0.0}, "72662524006": {"distance": 9790.0, "latitude": 44.15, "longitude": -103.1, "useCount": 0, "id": "72662524006", "name": "ELLSWORTH AFB, SD US", "quality": 100, "contribution": 0.0}, "72662024090": {"distance": 16120.0, "latitude": 44.046, "longitude": -103.054, "useCount": 0, "id": "72662024090", "name": "RAPID CITY REGIONAL AIRPORT, SD US", "quality": 100, "contribution": 0.0}}}