{"queryCost": 1, "latitude": 36.159, "longitude": -115.271, "resolvedAddress": "36.15900,-115.27100", "address": "36.15900,-115.27100", "timezone": "America/Los_Angeles", "tzoffset": -7.0, "days": [{"datetime": "2017-06-20", "datetimeEpoch": 1497942000, "tempmax": 115.2, "tempmin": 88.6, "temp": 102.2, "feelslikemax": 115.2, "feelslikemin": 84.8, "feelslike": 98.3, "dew": 30.7, "humidity": 9.6, "precip": 0.0, "precipprob": 0.0, "precipcover": 0.0, "preciptype": null, "snow": 0.0, "snowdepth": 0.0, "windgust": 26.4, "windspeed": 12.9, "winddir": 199.5, "pressure": 1007.1, "cloudcover": 5.1, "visibility": 9.9, "solarradiation": 358.8, "solarenergy": 31.1, "uvindex": 10.0, "sunrise": "05:24:08", "sunriseEpoch": 1497961448, "sunset": "20:01:24", "sunsetEpoch": 1498014084, "moonphase": 0.91, "conditions": "Clear", "description": "Clear conditions throughout the day.", "icon": "clear-day", "stations": ["KLAS", "74614023112", "KLSV", "72386023169", "KVGT", "72484653123"], "source": "obs"}], "stations": {"KLAS": {"distance": 12642.0, "latitude": 36.08, "longitude": -115.17, "useCount": 0, "id": "KLAS", "name": "KLAS", "quality": 100, "contribution": 0.0}, "74614023112": {"distance": 23657.0, "latitude": 36.25, "longitude": -115.033, "useCount": 0, "id": "74614023112", "name": "LAS VEGAS NELLIS AFB, NV US", "quality": 96, "contribution": 0.0}, "KLSV": {"distance": 22692.0, "latitude": 36.22, "longitude": -115.03, "useCount": 0, "id": "KLSV", "name": "KLSV", "quality": 99, "contribution": 0.0}, "72386023169": {"distance": 13724.0, "latitude": 36.072, "longitude": -115.163, "useCount": 0, "id": "72386023169", "name": "MCCARRAN INTERNATIONAL AIRPORT, NV US", "quality": 100, "contribution": 0.0}, "KVGT": {"distance": 8540.0, "latitude": 36.21, "longitude": -115.2, "useCount": 0, "id": "KVGT", "name": "KVGT", "quality": 100, "contribution": 0.0}, "72484653123": {"distance": 8934.0, "latitude": 36.212, "longitude": -115.196, "useCount": 0, "id": "72484653123", "name": "LAS VEGAS AIR TERMINAL, NV US", "quality": 100, "contribution": 0.0}}}