{"queryCost": 1, "latitude": 35.858, "longitude": -86.832, "resolvedAddress": "35.85800,-86.83200", "address": "35.85800,-86.83200", "timezone": "America/Chicago", "tzoffset": -5.0, "days": [{"datetime": "2017-06-20", "datetimeEpoch": 1497934800, "tempmax": 87.8, "tempmin": 61.9, "temp": 75.9, "feelslikemax": 86.8, "feelslikemin": 61.9, "feelslike": 75.7, "dew": 61.1, "humidity": 65.2, "precip": 0.0, "precipprob": 0.0, "precipcover": 0.0, "preciptype": null, "snow": 0.0, "snowdepth": 0.0, "windgust": null, "windspeed": 6.3, "winddir": 99.7, "pressure": 1012.3, "cloudcover": 29.8, "visibility": 9.5, "solarradiation": 331.6, "solarenergy": 28.6, "uvindex": 10.0, "sunrise": "05:31:14", "sunriseEpoch": 1497954674, "sunset": "20:06:45", "sunsetEpoch": 1498007205, "moonphase": 0.91, "conditions": "Partially cloudy", "description": "Partly cloudy throughout the day.", "icon": "partly-cloudy-day", "stations": ["72327013897", "72324900463", "KMQY", "KBNA", "72327313827"], "source": "obs"}], "stations": {"72327013897": {"distance": 31764.0, "latitude": 36.119, "longitude": -86.689, "useCount": 0, "id": "72327013897", "name": "NASHVILLE INTERNATIONAL AIRPORT, TN US", "quality": 100, "contribution": 0.0}, "72324900463": {"distance": 46115.0, "latitude": 35.554, "longitude": -87.179, "useCount": 0, "id": "72324900463", "name": "MAURY CO AIRPORT, TN US", "quality": 100, "contribution": 0.0}, "KMQY": {"distance": 33406.0, "latitude": 36.02, "longitude": -86.52, "useCount": 0, "id": "KMQY", "name": "KMQY", "quality": 100, "contribution": 0.0}, "KBNA": {"distance": 33230.0, "latitude": 36.13, "longitude": -86.68, "useCount": 0, "id": "KBNA", "name": "KBNA", "quality": 100, "contribution": 0.0}, "72327313827": {"distance": 32757.0, "latitude": 36.009, "longitude": -86.52, "useCount": 0, "id": "72327313827", "name": "SMYRNA AIRPORT, TN US", "quality": 100, "contribution": 0.0}}}