{"queryCost": 1, "latitude": 35.492, "longitude": -105.672, "resolvedAddress": "35.49200,-105.67200", "address": "35.49200,-105.67200", "timezone": "America/Denver", "tzoffset": -6.0, "days": [{"datetime": "2017-06-26", "datetimeEpoch": 1498456800, "tempmax": 75.9, "tempmin": 53.3, "temp": 63.8, "feelslikemax": 75.9, "feelslikemin": 53.3, "feelslike": 63.8, "dew": 48.6, "humidity": 62.0, "precip": 0.01, "precipprob": 100.0, "precipcover": 4.17, "preciptype": ["rain"], "snow": 0.0, "snowdepth": 0.0, "windgust": 36.4, "windspeed": 19.0, "winddir": 185.0, "pressure": 1018.3, "cloudcover": 18.4, "visibility": 9.7, "solarradiation": 364.7, "solarenergy": 31.5, "uvindex": 10.0, "sunrise": "05:49:16", "sunriseEpoch": 1498477756, "sunset": "20:21:56", "sunsetEpoch": 1498530116, "moonphase": 0.04, "conditions": "Rain", "description": "Clear conditions throughout the day with late afternoon rain.", "icon": "rain", "stations": ["72365623049", "72367723054", "72267703027", "KCQC", "KLVS", "KSAF"], "source": "obs"}], "stations": {"72365623049": {"distance": 40244.0, "latitude": 35.617, "longitude": -106.089, "useCount": 0, "id": "72365623049", "name": "SANTA FE CO MUNICIPAL AIRPORT, NM US", "quality": 100, "contribution": 0.0}, "72367723054": {"distance": 51273.0, "latitude": 35.654, "longitude": -105.142, "useCount": 0, "id": "72367723054", "name": "LAS VEGAS MUNICIPAL AIRPORT, NM US", "quality": 100, "contribution": 0.0}, "72267703027": {"distance": 54464.0, "latitude": 35.003, "longitude": -105.663, "useCount": 0, "id": "72267703027", "name": "CLINES CORNERS, NM US", "quality": 100, "contribution": 0.0}, "KCQC": {"distance": 54769.0, "latitude": 35.0, "longitude": -105.67, "useCount": 0, "id": "KCQC", "name": "KCQC", "quality": 100, "contribution": 0.0}, "KLVS": {"distance": 50432.0, "latitude": 35.65, "longitude": -105.15, "useCount": 0, "id": "KLVS", "name": "KLVS", "quality": 98, "contribution": 0.0}, "KSAF": {"distance": 39218.0, "latitude": 35.61, "longitude": -106.08, "useCount": 0, "id": "KSAF", "name": "KSAF", "quality": 100, "contribution": 0.0}}}