{"queryCost": 1, "latitude": 29.743, "longitude": -81.959, "resolvedAddress": "29.74300,-81.95900", "address": "29.74300,-81.95900", "timezone": "America/New_York", "tzoffset": -5.0, "days": [{"datetime": "2015-03-06", "datetimeEpoch": 1425618000, "tempmax": 65.5, "tempmin": 45.5, "temp": 52.6, "feelslikemax": 65.5, "feelslikemin": 40.8, "feelslike": 51.3, "dew": 50.9, "humidity": 93.6, "precip": 0.0, "precipprob": 0.0, "precipcover": 0.0, "preciptype": null, "snow": 0.0, "snowdepth": 0.0, "windgust": 31.1, "windspeed": 13.4, "winddir": 68.3, "pressure": 1025.0, "cloudcover": 100.0, "visibility": 5.8, "solarradiation": 148.2, "solarenergy": 12.9, "uvindex": 6.0, "sunrise": "06:48:17", "sunriseEpoch": 1425642497, "sunset": "18:30:22", "sunsetEpoch": 1425684622, "moonphase": 0.5, "conditions": "Overcast", "description": "Cloudy skies throughout the day.", "icon": "cloudy", "stations": ["74904800415", "74756012816", "KGNV", "72206593837", "72221292814", "KNIP"], "source": "obs"}], "stations": {"74904800415": {"distance": 14187.0, "latitude": 29.845, "longitude": -82.047, "useCount": 0, "id": "74904800415", "name": "KEYSTONE AIRPARK, FL US", "quality": 50, "contribution": 0.0}, "74756012816": {"distance": 31123.0, "latitude": 29.692, "longitude": -82.275, "useCount": 0, "id": "74756012816", "name": "GAINESVILLE REGIONAL AIRPORT, FL US", "quality": 100, "contribution": 0.0}, "KGNV": {"distance": 31400.0, "latitude": 29.7, "longitude": -82.28, "useCount": 0, "id": "KGNV", "name": "KGNV", "quality": 100, "contribution": 0.0}, "72206593837": {"distance": 61427.0, "latitude": 30.233, "longitude": -81.667, "useCount": 0, "id": "72206593837", "name": "JACKSONVILLE NAS, FL US", "quality": 100, "contribution": 0.0}, "72221292814": {"distance": 64455.0, "latitude": 29.959, "longitude": -81.34, "useCount": 0, "id": "72221292814", "name": "ST AUGUSTINE AIRPORT, FL US", "quality": 100, "contribution": 0.0}, "KNIP": {"distance": 60520.0, "latitude": 30.23, "longitude": -81.68, "useCount": 0, "id": "KNIP", "name": "KNIP", "quality": 100, "contribution": 0.0}}}