{"queryCost": 1, "latitude": 47.383, "longitude": -122.209, "resolvedAddress": "47.38300,-122.20900", "address": "47.38300,-122.20900", "timezone": "America/Los_Angeles", "tzoffset": -7.0, "days": [{"datetime": "2017-06-24", "datetimeEpoch": 1498287600, "tempmax": 87.7, "tempmin": 60.2, "temp": 74.8, "feelslikemax": 85.8, "feelslikemin": 60.2, "feelslike": 74.3, "dew": 53.4, "humidity": 49.2, "precip": 0.0, "precipprob": 0.0, "precipcover": 0.0, "preciptype": null, "snow": 0.0, "snowdepth": 0.0, "windgust": null, "windspeed": 12.7, "winddir": 243.5, "pressure": 1019.0, "cloudcover": 1.7, "visibility": 9.9, "solarradiation": 367.5, "solarenergy": 31.8, "uvindex": 10.0, "sunrise": "05:13:04", "sunriseEpoch": 1498306384, "sunset": "21:09:36", "sunsetEpoch": 1498363776, "moonphase": 0.0, "conditions": "Clear", "description": "Clear conditions throughout the day.", "icon": "clear-day", "stations": ["72793024233", "KSEA", "KBFI", "72793524234", "72793494248", "KRNT"], "source": "obs"}], "stations": {"72793024233": {"distance": 10454.0, "latitude": 47.444, "longitude": -122.314, "useCount": 0, "id": "72793024233", "name": "SEATTLE TACOMA AIRPORT, WA US", "quality": 100, "contribution": 0.0}, "KSEA": {"distance": 10130.0, "latitude": 47.45, "longitude": -122.3, "useCount": 0, "id": "KSEA", "name": "KSEA", "quality": 100, "contribution": 0.0}, "KBFI": {"distance": 17740.0, "latitude": 47.53, "longitude": -122.3, "useCount": 0, "id": "KBFI", "name": "KBFI", "quality": 100, "contribution": 0.0}, "72793524234": {"distance": 17800.0, "latitude": 47.53, "longitude": -122.301, "useCount": 0, "id": "72793524234", "name": "SEATTLE BOEING FIELD, WA US", "quality": 100, "contribution": 0.0}, "72793494248": {"distance": 12284.0, "latitude": 47.493, "longitude": -122.214, "useCount": 0, "id": "72793494248", "name": "RENTON MUNICIPAL AIRPORT, WA US", "quality": 100, "contribution": 0.0}, "KRNT": {"distance": 13051.0, "latitude": 47.5, "longitude": -122.22, "useCount": 0, "id": "KRNT", "name": "KRNT", "quality": 100, "contribution": 0.0}}}