{"queryCost": 1, "latitude": 26.461, "longitude": -80.083, "resolvedAddress": "26.46100,-80.08300", "address": "26.46100,-80.08300", "timezone": "America/New_York", "tzoffset": -4.0, "days": [{"datetime": "2017-03-26", "datetimeEpoch": 1490500800, "tempmax": 79.1, "tempmin": 70.9, "temp": 74.5, "feelslikemax": 79.1, "feelslikemin": 70.9, "feelslike": 74.5, "dew": 61.6, "humidity": 64.7, "precip": 0.07, "precipprob": 100.0, "precipcover": 20.83, "preciptype": ["rain"], "snow": 0.0, "snowdepth": 0.0, "windgust": 24.2, "windspeed": 16.9, "winddir": 81.1, "pressure": 1019.4, "cloudcover": 55.6, "visibility": 9.6, "solarradiation": 271.2, "solarenergy": 23.4, "uvindex": 9.0, "sunrise": "07:17:22", "sunriseEpoch": 1490527042, "sunset": "19:34:42", "sunsetEpoch": 1490571282, "moonphase": 0.99, "conditions": "Rain, Partially cloudy", "description": "Partly cloudy throughout the day with rain clearing later.", "icon": "rain", "stations": ["72203012844", "72204992805", "72203912885", "KFXE", "KPBI"], "source": "obs"}], "stations": {"72203012844": {"distance": 24956.0, "latitude": 26.685, "longitude": -80.099, "useCount": 0, "id": "72203012844", "name": "WEST PALM BEACH INTERNATIONAL AIRPORT, FL US", "quality": 100, "contribution": 0.0}, "72203912885": {"distance": 30677.0, "latitude": 26.197, "longitude": -80.171, "useCount": 0, "id": "72203912885", "name": "FORT LAUDERDALE EXECUTIVE AIRPORT, FL US", "quality": 99, "contribution": 0.0}, "KFXE": {"distance": 30323.0, "latitude": 26.2, "longitude": -80.17, "useCount": 0, "id": "KFXE", "name": "KFXE", "quality": 100, "contribution": 0.0}, "72204992805": {"distance": 23624.0, "latitude": 26.25, "longitude": -80.108, "useCount": 0, "id": "72204992805", "name": "POMPANO BEACH AIRPARK, FL US", "quality": 99, "contribution": 0.0}, "KPBI": {"distance": 24656.0, "latitude": 26.68, "longitude": -80.12, "useCount": 0, "id": "KPBI", "name": "KPBI", "quality": 100, "contribution": 0.0}}}