{"queryCost": 1, "latitude": 39.697, "longitude": -104.992, "resolvedAddress": "39.69700,-104.99200", "address": "39.69700,-104.99200", "timezone": "America/Denver", "tzoffset": -6.0, "days": [{"datetime": "2017-06-30", "datetimeEpoch": 1498802400, "tempmax": 73.4, "tempmin": 52.1, "temp": 61.0, "feelslikemax": 73.4, "feelslikemin": 52.1, "feelslike": 61.0, "dew": 47.8, "humidity": 65.5, "precip": 0.08, "precipprob": 100.0, "precipcover": 12.5, "preciptype": ["rain"], "snow": 0.0, "snowdepth": 0.0, "windgust": null, "windspeed": 17.7, "winddir": 200.8, "pressure": 1018.2, "cloudcover": 60.0, "visibility": 9.8, "solarradiation": 361.4, "solarenergy": 31.1, "uvindex": 10.0, "sunrise": "05:35:34", "sunriseEpoch": 1498822534, "sunset": "20:31:44", "sunsetEpoch": 1498876304, "moonphase": 0.22, "conditions": "Rain, Partially cloudy", "description": "Partly cloudy throughout the day with early morning rain.", "icon": "rain", "stations": ["KBKF", "KDEN", "KAPA", "72469523036", "72565003017", "72466693067"], "source": "obs"}], "stations": {"KBKF": {"distance": 20882.0, "latitude": 39.72, "longitude": -104.75, "useCount": 0, "id": "KBKF", "name": "KBKF", "quality": 100, "contribution": 0.0}, "KDEN": {"distance": 32987.0, "latitude": 39.86, "longitude": -104.67, "useCount": 0, "id": "KDEN", "name": "KDEN", "quality": 100, "contribution": 0.0}, "KAPA": {"distance": 18657.0, "latitude": 39.57, "longitude": -104.85, "useCount": 0, "id": "KAPA", "name": "KAPA", "quality": 100, "contribution": 0.0}, "72469523036": {"distance": 20841.0, "latitude": 39.717, "longitude": -104.75, "useCount": 0, "id": "72469523036", "name": "AURORA BUCKLEY FIELD ANGB, CO US", "quality": 100, "contribution": 0.0}, "72565003017": {"distance": 32332.0, "latitude": 39.833, "longitude": -104.658, "useCount": 0, "id": "72565003017", "name": "DENVER INTERNATIONAL AIRPORT, CO US", "quality": 100, "contribution": 0.0}, "72466693067": {"distance": 18688.0, "latitude": 39.57, "longitude": -104.849, "useCount": 0, "id": "72466693067", "name": "DENVER CENTENNIAL AIRPORT, CO US", "quality": 100, "contribution": 0.0}}}