{"queryCost": 1, "latitude": 33.935, "longitude": -84.504, "resolvedAddress": "33.93500,-84.50400", "address": "33.93500,-84.50400", "timezone": "America/New_York", "tzoffset": -4.0, "days": [{"datetime": "2017-06-29", "datetimeEpoch": 1498708800, "tempmax": 82.2, "tempmin": 70.4, "temp": 74.9, "feelslikemax": 85.4, "feelslikemin": 70.4, "feelslike": 75.6, "dew": 67.8, "humidity": 79.4, "precip": 0.34, "precipprob": 100.0, "precipcover": 16.67, "preciptype": ["rain"], "snow": 0.0, "snowdepth": 0.0, "windgust": 32.2, "windspeed": 10.3, "winddir": 125.4, "pressure": 1019.8, "cloudcover": 58.4, "visibility": 8.5, "solarradiation": 123.2, "solarenergy": 10.7, "uvindex": 4.0, "sunrise": "06:29:57", "sunriseEpoch": 1498732197, "sunset": "20:53:05", "sunsetEpoch": 1498783985, "moonphase": 0.17, "conditions": "Rain, Partially cloudy", "description": "Partly cloudy throughout the day with late afternoon rain.", "icon": "rain", "stations": ["KMGE", "KFTY", "KRYY", "74781263813", "72227013864", "72219503888"], "source": "obs"}], "stations": {"KMGE": {"distance": 2230.0, "latitude": 33.92, "longitude": -84.52, "useCount": 0, "id": "KMGE", "name": "KMGE", "quality": 100, "contribution": 0.0}, "KFTY": {"distance": 17318.0, "latitude": 33.78, "longitude": -84.52, "useCount": 0, "id": "KFTY", "name": "KFTY", "quality": 100, "contribution": 0.0}, "KRYY": {"distance": 12176.0, "latitude": 34.01, "longitude": -84.6, "useCount": 0, "id": "KRYY", "name": "MCCOLLUM FLD, GA", "quality": 100, "contribution": 0.0}, "74781263813": {"distance": 12323.0, "latitude": 34.013, "longitude": -84.599, "useCount": 0, "id": "74781263813", "name": "MARIETTA COBB CO MCCOLLUM FIELD AIRPORT, GA US", "quality": 100, "contribution": 0.0}, "72227013864": {"distance": 2351.0, "latitude": 33.917, "longitude": -84.517, "useCount": 0, "id": "72227013864", "name": "MARIETTA DOBBINS AFB, GA US", "quality": 99, "contribution": 0.0}, "72219503888": {"distance": 17418.0, "latitude": 33.779, "longitude": -84.521, "useCount": 0, "id": "72219503888", "name": "ATLANTA FULTON CO AIRPORT, GA US", "quality": 100, "contribution": 0.0}}}