{"queryCost": 1, "latitude": 39.891, "longitude": -84.191, "resolvedAddress": "39.89100,-84.19100", "address": "39.89100,-84.19100", "timezone": "America/New_York", "tzoffset": -4.0, "days": [{"datetime": "2017-07-04", "datetimeEpoch": 1499140800, "tempmax": 84.8, "tempmin": 65.0, "temp": 75.0, "feelslikemax": 88.1, "feelslikemin": 65.0, "feelslike": 76.0, "dew": 66.8, "humidity": 76.9, "precip": 0.0, "precipprob": 0.0, "precipcover": 0.0, "preciptype": null, "snow": 0.0, "snowdepth": 0.0, "windgust": null, "windspeed": 10.3, "winddir": 84.3, "pressure": 1017.8, "cloudcover": 61.0, "visibility": 9.5, "solarradiation": 333.6, "solarenergy": 29.1, "uvindex": 9.0, "sunrise": "06:13:46", "sunriseEpoch": 1499163226, "sunset": "21:08:30", "sunsetEpoch": 1499216910, "moonphase": 0.41, "conditions": "Partially cloudy", "description": "Partly cloudy throughout the day.", "icon": "partly-cloudy-day", "stations": ["72429093815", "KDAY", "74570013840", "72429563888", "KFFO", "KSGH"], "source": "obs"}], "stations": {"72429093815": {"distance": 2908.0, "latitude": 39.906, "longitude": -84.218, "useCount": 0, "id": "72429093815", "name": "DAYTON INTERNATIONAL AIRPORT, OH US", "quality": 100, "contribution": 0.0}, "KDAY": {"distance": 1263.0, "latitude": 39.9, "longitude": -84.2, "useCount": 0, "id": "KDAY", "name": "KDAY", "quality": 100, "contribution": 0.0}, "74570013840": {"distance": 13653.0, "latitude": 39.833, "longitude": -84.05, "useCount": 0, "id": "74570013840", "name": "DAYTON WRIGHT PATTERSON AFB, OH US", "quality": 100, "contribution": 0.0}, "72429563888": {"distance": 30517.0, "latitude": 39.84, "longitude": -83.84, "useCount": 0, "id": "72429563888", "name": "SPRINGFIELD BECKLEY MUNICIPAL AIRPORT, OH US", "quality": 100, "contribution": 0.0}, "KFFO": {"distance": 13830.0, "latitude": 39.83, "longitude": -84.05, "useCount": 0, "id": "KFFO", "name": "KFFO", "quality": 100, "contribution": 0.0}, "KSGH": {"distance": 31586.0, "latitude": 39.83, "longitude": -83.83, "useCount": 0, "id": "KSGH", "name": "SPRINGFIELD, OH", "quality": 100, "contribution": 0.0}}}