{"queryCost": 1, "latitude": 35.269, "longitude": -82.626, "resolvedAddress": "35.26900,-82.62600", "address": "35.26900,-82.62600", "timezone": "America/New_York", "tzoffset": -4.0, "days": [{"datetime": "2015-03-09", "datetimeEpoch": 1425873600, "tempmax": 58.2, "tempmin": 44.9, "temp": 51.0, "feelslikemax": 58.2, "feelslikemin": 40.6, "feelslike": 49.8, "dew": 37.1, "humidity": 61.2, "precip": 0.11, "precipprob": 100.0, "precipcover": 25.0, "preciptype": ["rain"], "snow": 0.0, "snowdepth": 0.0, "windgust": null, "windspeed": 12.8, "winddir": 229.1, "pressure": 1022.9, "cloudcover": 53.9, "visibility": 9.6, "solarradiation": 136.2, "solarenergy": 11.8, "uvindex": 6.0, "sunrise": "07:49:44", "sunriseEpoch": 1425901784, "sunset": "19:32:53", "sunsetEpoch": 1425943973, "moonphase": 0.56, "conditions": "Rain, Partially cloudy", "description": "Partly cloudy throughout the day with rain in the morning and afternoon.", "icon": "rain", "stations": ["72074400271", "72315003812", "KLQK", "99999953877", "99999953878", "KAVL"], "source": "obs"}], "stations": {"72074400271": {"distance": 50766.0, "latitude": 34.817, "longitude": -82.7, "useCount": 0, "id": "72074400271", "name": "PICKENS CO AIRPORT, SC US", "quality": 100, "contribution": 0.0}, "72315003812": {"distance": 19834.0, "latitude": 35.432, "longitude": -82.537, "useCount": 0, "id": "72315003812", "name": "ASHEVILLE AIRPORT, NC US", "quality": 100, "contribution": 0.0}, "KLQK": {"distance": 51539.0, "latitude": 34.81, "longitude": -82.7, "useCount": 0, "id": "KLQK", "name": "KLQK", "quality": 99, "contribution": 0.0}, "99999953877": {"distance": 25125.0, "latitude": 35.495, "longitude": -82.614, "useCount": 0, "id": "99999953877", "name": "ASHEVILLE 8 SSW, NC US", "quality": 100, "contribution": 0.0}, "99999953878": {"distance": 17792.0, "latitude": 35.419, "longitude": -82.557, "useCount": 0, "id": "99999953878", "name": "ASHEVILLE 13 S, NC US", "quality": 100, "contribution": 0.0}, "KAVL": {"distance": 19205.0, "latitude": 35.43, "longitude": -82.55, "useCount": 0, "id": "KAVL", "name": "KAVL", "quality": 100, "contribution": 0.0}}}