{"queryCost": 1, "latitude": 33.901, "longitude": -84.477, "resolvedAddress": "33.90100,-84.47700", "address": "33.90100,-84.47700", "timezone": "America/New_York", "tzoffset": -4.0, "days": [{"datetime": "2017-07-07", "datetimeEpoch": 1499400000, "tempmax": 88.3, "tempmin": 70.8, "temp": 78.2, "feelslikemax": 95.1, "feelslikemin": 70.8, "feelslike": 80.6, "dew": 70.3, "humidity": 77.9, "precip": 0.76, "precipprob": 100.0, "precipcover": 25.0, "preciptype": ["rain"], "snow": 0.0, "snowdepth": 0.0, "windgust": 25.3, "windspeed": 14.1, "winddir": 269.5, "pressure": 1017.2, "cloudcover": 47.3, "visibility": 9.1, "solarradiation": 202.7, "solarenergy": 17.4, "uvindex": 6.0, "sunrise": "06:33:36", "sunriseEpoch": 1499423616, "sunset": "20:51:59", "sunsetEpoch": 1499475119, "moonphase": 0.49, "conditions": "Rain, Partially cloudy", "description": "Partly cloudy throughout the day with rain.", "icon": "rain", "stations": ["KMGE", "KFTY", "72227013864", "72219503888", "72219653863", "KPDK"], "source": "obs"}], "stations": {"KMGE": {"distance": 4501.0, "latitude": 33.92, "longitude": -84.52, "useCount": 0, "id": "KMGE", "name": "KMGE", "quality": 100, "contribution": 0.0}, "KFTY": {"distance": 14044.0, "latitude": 33.78, "longitude": -84.52, "useCount": 0, "id": "KFTY", "name": "KFTY", "quality": 100, "contribution": 0.0}, "72227013864": {"distance": 4063.0, "latitude": 33.917, "longitude": -84.517, "useCount": 0, "id": "72227013864", "name": "MARIETTA DOBBINS AFB, GA US", "quality": 99, "contribution": 0.0}, "72219503888": {"distance": 14167.0, "latitude": 33.779, "longitude": -84.521, "useCount": 0, "id": "72219503888", "name": "ATLANTA FULTON CO AIRPORT, GA US", "quality": 100, "contribution": 0.0}, "72219653863": {"distance": 16410.0, "latitude": 33.875, "longitude": -84.302, "useCount": 0, "id": "72219653863", "name": "ATLANTA DEKALB PEACHTREE AIRPORT, GA US", "quality": 100, "contribution": 0.0}, "KPDK": {"distance": 16522.0, "latitude": 33.88, "longitude": -84.3, "useCount": 0, "id": "KPDK", "name": "KPDK", "quality": 100, "contribution": 0.0}}}