{"queryCost": 1, "latitude": 28.351, "longitude": -80.749, "resolvedAddress": "28.35100,-80.74900", "address": "28.35100,-80.74900", "timezone": "America/New_York", "tzoffset": -4.0, "days": [{"datetime": "2015-03-09", "datetimeEpoch": 1425873600, "tempmax": 75.8, "tempmin": 60.8, "temp": 69.0, "feelslikemax": 75.8, "feelslikemin": 60.8, "feelslike": 69.0, "dew": 62.3, "humidity": 80.2, "precip": 0.0, "precipprob": 0.0, "precipcover": 0.0, "preciptype": null, "snow": 0.0, "snowdepth": 0.0, "windgust": null, "windspeed": 8.6, "winddir": 67.0, "pressure": 1022.0, "cloudcover": 3.3, "visibility": 9.9, "solarradiation": 236.4, "solarenergy": 20.4, "uvindex": 8.0, "sunrise": "07:39:30", "sunriseEpoch": 1425901170, "sunset": "19:27:59", "sunsetEpoch": 1425943679, "moonphase": 0.56, "conditions": "Clear", "description": "Clear conditions throughout the day.", "icon": "clear-day", "stations": ["72204012838", "KXMR", "74794012868", "KMLB", "KCOF", "74795012867"], "source": "obs"}], "stations": {"72204012838": {"distance": 29667.0, "latitude": 28.101, "longitude": -80.644, "useCount": 0, "id": "72204012838", "name": "MELBOURNE INTERNATIONAL AIRPORT, FL US", "quality": 100, "contribution": 0.0}, "KXMR": {"distance": 22758.0, "latitude": 28.47, "longitude": -80.56, "useCount": 0, "id": "KXMR", "name": "KXMR", "quality": 100, "contribution": 0.0}, "74794012868": {"distance": 23140.0, "latitude": 28.483, "longitude": -80.567, "useCount": 0, "id": "74794012868", "name": "COCOA BEACH CAPE KENNEDY AFS, FL US", "quality": 98, "contribution": 0.0}, "KMLB": {"distance": 29580.0, "latitude": 28.1, "longitude": -80.65, "useCount": 0, "id": "KMLB", "name": "KMLB", "quality": 100, "contribution": 0.0}, "KCOF": {"distance": 20600.0, "latitude": 28.23, "longitude": -80.59, "useCount": 0, "id": "KCOF", "name": "KCOF", "quality": 100, "contribution": 0.0}, "74795012867": {"distance": 19621.0, "latitude": 28.233, "longitude": -80.6, "useCount": 0, "id": "74795012867", "name": "COCOA BEACH PATRICK AFB, FL US", "quality": 99, "contribution": 0.0}}}