{"queryCost": 1, "latitude": 35.442, "longitude": -97.567, "resolvedAddress": "35.44200,-97.56700", "address": "35.44200,-97.56700", "timezone": "America/Chicago", "tzoffset": -5.0, "days": [{"datetime": "2017-07-12", "datetimeEpoch": 1499835600, "tempmax": 95.4, "tempmin": 75.6, "temp": 85.6, "feelslikemax": 99.0, "feelslikemin": 75.6, "feelslike": 87.7, "dew": 67.8, "humidity": 57.8, "precip": 0.0, "precipprob": 0.0, "precipcover": 0.0, "preciptype": null, "snow": 0.0, "snowdepth": 0.0, "windgust": 27.4, "windspeed": 19.3, "winddir": 184.2, "pressure": 1013.4, "cloudcover": 10.2, "visibility": 9.9, "solarradiation": 321.9, "solarenergy": 28.0, "uvindex": 9.0, "sunrise": "06:24:51", "sunriseEpoch": 1499858691, "sunset": "20:46:47", "sunsetEpoch": 1499910407, "moonphase": 0.55, "conditions": "Clear", "description": "Clear conditions throughout the day.", "icon": "clear-day", "stations": ["72354013919", "72353013967", "KTIK", "KPWA", "KOKC", "72354403954"], "source": "obs"}], "stations": {"72354013919": {"distance": 16899.0, "latitude": 35.417, "longitude": -97.383, "useCount": 0, "id": "72354013919", "name": "OKLAHOMA CITY TINKER AFB, OK US", "quality": 99, "contribution": 0.0}, "72353013967": {"distance": 6651.0, "latitude": 35.389, "longitude": -97.601, "useCount": 0, "id": "72353013967", "name": "OKLAHOMA CITY WILL ROGERS WORLD AIRPORT, OK US", "quality": 100, "contribution": 0.0}, "KTIK": {"distance": 17138.0, "latitude": 35.42, "longitude": -97.38, "useCount": 0, "id": "KTIK", "name": "KTIK", "quality": 100, "contribution": 0.0}, "KPWA": {"distance": 12352.0, "latitude": 35.53, "longitude": -97.65, "useCount": 0, "id": "KPWA", "name": "KPWA", "quality": 100, "contribution": 0.0}, "KOKC": {"distance": 5552.0, "latitude": 35.4, "longitude": -97.6, "useCount": 0, "id": "KOKC", "name": "KOKC", "quality": 100, "contribution": 0.0}, "72354403954": {"distance": 12562.0, "latitude": 35.534, "longitude": -97.647, "useCount": 0, "id": "72354403954", "name": "OKLAHOMA CITY WILEY POST AIRPORT, OK US", "quality": 100, "contribution": 0.0}}}