{"queryCost": 1, "latitude": 36.944, "longitude": -76.315, "resolvedAddress": "36.94400,-76.31500", "address": "36.94400,-76.31500", "timezone": "America/New_York", "tzoffset": -4.0, "days": [{"datetime": "2017-07-17", "datetimeEpoch": 1500264000, "tempmax": 85.9, "tempmin": 74.0, "temp": 78.6, "feelslikemax": 90.7, "feelslikemin": 74.0, "feelslike": 80.3, "dew": 70.2, "humidity": 75.9, "precip": 0.0, "precipprob": 0.0, "precipcover": 0.0, "preciptype": null, "snow": 0.0, "snowdepth": 0.0, "windgust": null, "windspeed": 9.3, "winddir": 184.1, "pressure": 1017.0, "cloudcover": 72.1, "visibility": 9.9, "solarradiation": 96.7, "solarenergy": 8.2, "uvindex": 3.0, "sunrise": "05:59:12", "sunriseEpoch": 1500285552, "sunset": "20:23:19", "sunsetEpoch": 1500337399, "moonphase": 0.79, "conditions": "Partially cloudy", "description": "Partly cloudy throughout the day.", "icon": "partly-cloudy-day", "stations": ["KNGU", "74598013702", "72308513750", "KLFI", "KORF", "72308013737"], "source": "obs"}], "stations": {"KNGU": {"distance": 3482.0, "latitude": 36.93, "longitude": -76.28, "useCount": 0, "id": "KNGU", "name": "KNGU", "quality": 100, "contribution": 0.0}, "74598013702": {"distance": 15967.0, "latitude": 37.083, "longitude": -76.36, "useCount": 0, "id": "74598013702", "name": "LANGLEY AIR FORCE BASE, VA US", "quality": 99, "contribution": 0.0}, "72308513750": {"distance": 2398.0, "latitude": 36.938, "longitude": -76.289, "useCount": 0, "id": "72308513750", "name": "NORFOLK NAS, VA US", "quality": 100, "contribution": 0.0}, "KLFI": {"distance": 15909.0, "latitude": 37.08, "longitude": -76.37, "useCount": 0, "id": "KLFI", "name": "KLFI", "quality": 100, "contribution": 0.0}, "KORF": {"distance": 11346.0, "latitude": 36.9, "longitude": -76.2, "useCount": 0, "id": "KORF", "name": "KORF", "quality": 100, "contribution": 0.0}, "72308013737": {"distance": 11830.0, "latitude": 36.903, "longitude": -76.192, "useCount": 0, "id": "72308013737", "name": "NORFOLK INTERNATIONAL AIRPORT, VA US", "quality": 100, "contribution": 0.0}}}