{"queryCost": 1, "latitude": 38.522, "longitude": -78.098, "resolvedAddress": "38.52200,-78.09800", "address": "38.52200,-78.09800", "timezone": "America/New_York", "tzoffset": -4.0, "days": [{"datetime": "2017-07-17", "datetimeEpoch": 1500264000, "tempmax": 89.7, "tempmin": 66.9, "temp": 78.4, "feelslikemax": 93.9, "feelslikemin": 66.9, "feelslike": 80.8, "dew": 69.6, "humidity": 76.4, "precip": 0.02, "precipprob": 100.0, "precipcover": 4.17, "preciptype": ["rain"], "snow": 0.0, "snowdepth": 0.0, "windgust": null, "windspeed": 4.2, "winddir": 43.0, "pressure": null, "cloudcover": 35.4, "visibility": 9.0, "solarradiation": 275.4, "solarenergy": 23.7, "uvindex": 8.0, "sunrise": "06:02:07", "sunriseEpoch": 1500285727, "sunset": "20:34:38", "sunsetEpoch": 1500338078, "moonphase": 0.79, "conditions": "Rain, Partially cloudy", "description": "Partly cloudy throughout the day with late afternoon rain.", "icon": "rain", "stations": ["KCJR", "72269200367", "72309893798", "72216703718", "KOMH", "KHWY"], "source": "obs"}], "stations": {"KCJR": {"distance": 20746.0, "latitude": 38.53, "longitude": -77.86, "useCount": 0, "id": "KCJR", "name": "KCJR", "quality": 99, "contribution": 0.0}, "72269200367": {"distance": 34435.0, "latitude": 38.586, "longitude": -77.711, "useCount": 0, "id": "72269200367", "name": "WARRENTON FAUQUIER AIRPORT, VA US", "quality": 99, "contribution": 0.0}, "72309893798": {"distance": 20856.0, "latitude": 38.527, "longitude": -77.859, "useCount": 0, "id": "72309893798", "name": "CULPEPER REGIONAL AIRPORT, VA US", "quality": 100, "contribution": 0.0}, "72216703718": {"distance": 30963.0, "latitude": 38.247, "longitude": -78.046, "useCount": 0, "id": "72216703718", "name": "ORANGE CO AIRPORT, VA US", "quality": 100, "contribution": 0.0}, "KOMH": {"distance": 30567.0, "latitude": 38.25, "longitude": -78.05, "useCount": 0, "id": "KOMH", "name": "KOMH", "quality": 99, "contribution": 0.0}, "KHWY": {"distance": 33535.0, "latitude": 38.58, "longitude": -77.72, "useCount": 0, "id": "KHWY", "name": "KHWY", "quality": 99, "contribution": 0.0}}}