{"queryCost": 1, "latitude": 33.705, "longitude": -86.613, "resolvedAddress": "33.70500,-86.61300", "address": "33.70500,-86.61300", "timezone": "America/Chicago", "tzoffset": -5.0, "days": [{"datetime": "2017-07-18", "datetimeEpoch": 1500354000, "tempmax": 89.7, "tempmin": 70.6, "temp": 80.2, "feelslikemax": 95.1, "feelslikemin": 70.6, "feelslike": 82.8, "dew": 70.4, "humidity": 74.0, "precip": 0.0, "precipprob": 0.0, "precipcover": 0.0, "preciptype": null, "snow": 0.0, "snowdepth": 0.0, "windgust": null, "windspeed": 7.0, "winddir": 119.8, "pressure": 1018.8, "cloudcover": 26.6, "visibility": 9.7, "solarradiation": 335.7, "solarenergy": 29.0, "uvindex": 10.0, "sunrise": "05:49:07", "sunriseEpoch": 1500374947, "sunset": "19:56:00", "sunsetEpoch": 1500425760, "moonphase": 0.85, "conditions": "Partially cloudy", "description": "Partly cloudy throughout the day.", "icon": "partly-cloudy-day", "stations": ["72228013876", "72050799999", "99999973803", "72228503896", "72050499999", "KBHM"], "source": "obs"}], "stations": {"72228013876": {"distance": 19761.0, "latitude": 33.566, "longitude": -86.745, "useCount": 0, "id": "72228013876", "name": "BIRMINGHAM AIRPORT, AL US", "quality": 100, "contribution": 0.0}, "72050799999": {"distance": 52428.0, "latitude": 33.313, "longitude": -86.926, "useCount": 0, "id": "72050799999", "name": "BESSEMER AIPORT, AL US", "quality": 99, "contribution": 0.0}, "99999973803": {"distance": 53584.0, "latitude": 33.572, "longitude": -86.057, "useCount": 0, "id": "99999973803", "name": "TALLADEGA 10 NNE, AL US", "quality": 100, "contribution": 0.0}, "72228503896": {"distance": 56988.0, "latitude": 33.967, "longitude": -86.083, "useCount": 0, "id": "72228503896", "name": "GADSDEN MUNICIPAL AIRPORT, AL US", "quality": 100, "contribution": 0.0}, "72050499999": {"distance": 54223.0, "latitude": 33.57, "longitude": -86.051, "useCount": 0, "id": "72050499999", "name": "TALLADEGA MUNICIPAL, AL US", "quality": 100, "contribution": 0.0}, "KBHM": {"distance": 19674.0, "latitude": 33.57, "longitude": -86.75, "useCount": 0, "id": "KBHM", "name": "KBHM", "quality": 100, "contribution": 0.0}}}