{"queryCost": 1, "latitude": 33.493, "longitude": -112.299, "resolvedAddress": "33.49300,-112.29900", "address": "33.49300,-112.29900", "timezone": "America/Phoenix", "tzoffset": -7.0, "days": [{"datetime": "2017-07-25", "datetimeEpoch": 1500966000, "tempmax": 99.2, "tempmin": 81.8, "temp": 90.4, "feelslikemax": 100.9, "feelslikemin": 88.2, "feelslike": 94.8, "dew": 68.2, "humidity": 51.8, "precip": 0.0, "precipprob": 0.0, "precipcover": 0.0, "preciptype": null, "snow": 0.0, "snowdepth": 0.0, "windgust": 23.9, "windspeed": 10.6, "winddir": 145.3, "pressure": 1011.1, "cloudcover": 39.4, "visibility": 9.9, "solarradiation": 317.9, "solarenergy": 27.4, "uvindex": 10.0, "sunrise": "05:37:02", "sunriseEpoch": 1500986222, "sunset": "19:34:01", "sunsetEpoch": 1501036441, "moonphase": 0.03, "conditions": "Partially cloudy", "description": "Partly cloudy throughout the day.", "icon": "partly-cloudy-day", "stations": ["72278403184", "KLUF", "KDVT", "72278023183", "KPHX", "72278523111"], "source": "obs"}], "stations": {"72278403184": {"distance": 29624.0, "latitude": 33.688, "longitude": -112.082, "useCount": 0, "id": "72278403184", "name": "PHOENIX DEER VALLEY MUNICIPAL AIRPORT, AZ US", "quality": 100, "contribution": 0.0}, "KLUF": {"distance": 8572.0, "latitude": 33.53, "longitude": -112.38, "useCount": 0, "id": "KLUF", "name": "KLUF", "quality": 100, "contribution": 0.0}, "KDVT": {"distance": 29737.0, "latitude": 33.68, "longitude": -112.07, "useCount": 0, "id": "KDVT", "name": "KDVT", "quality": 100, "contribution": 0.0}, "72278023183": {"distance": 28345.0, "latitude": 33.428, "longitude": -112.004, "useCount": 0, "id": "72278023183", "name": "PHOENIX AIRPORT, AZ US", "quality": 100, "contribution": 0.0}, "KPHX": {"distance": 26843.0, "latitude": 33.43, "longitude": -112.02, "useCount": 0, "id": "KPHX", "name": "KPHX", "quality": 100, "contribution": 0.0}, "72278523111": {"distance": 8949.0, "latitude": 33.55, "longitude": -112.367, "useCount": 0, "id": "72278523111", "name": "PHOENIX LUKE AFB, AZ US", "quality": 96, "contribution": 0.0}}}