{"queryCost": 1, "latitude": 37.119, "longitude": -120.258, "resolvedAddress": "37.11900,-120.25800", "address": "37.11900,-120.25800", "timezone": "America/Los_Angeles", "tzoffset": -7.0, "days": [{"datetime": "2017-07-27", "datetimeEpoch": 1501138800, "tempmax": 100.9, "tempmin": 66.5, "temp": 83.4, "feelslikemax": 98.1, "feelslikemin": 66.5, "feelslike": 82.3, "dew": 53.8, "humidity": 39.6, "precip": 0.0, "precipprob": 0.0, "precipcover": 0.0, "preciptype": null, "snow": 0.0, "snowdepth": 0.0, "windgust": 16.1, "windspeed": 11.5, "winddir": 304.9, "pressure": 1012.0, "cloudcover": 17.6, "visibility": 9.9, "solarradiation": 345.2, "solarenergy": 30.1, "uvindex": 10.0, "sunrise": "06:02:13", "sunriseEpoch": 1501160533, "sunset": "20:12:23", "sunsetEpoch": 1501211543, "moonphase": 0.1, "conditions": "Clear", "description": "Clear conditions throughout the day.", "icon": "clear-day", "stations": ["KMAE", "KMCE", "74504693242", "72481523257", "99999993243", "72389093193"], "source": "obs"}], "stations": {"KMAE": {"distance": 19470.0, "latitude": 36.99, "longitude": -120.11, "useCount": 0, "id": "KMAE", "name": "KMAE", "quality": 100, "contribution": 0.0}, "KMCE": {"distance": 27958.0, "latitude": 37.28, "longitude": -120.5, "useCount": 0, "id": "KMCE", "name": "KMCE", "quality": 100, "contribution": 0.0}, "74504693242": {"distance": 19592.0, "latitude": 36.988, "longitude": -120.111, "useCount": 0, "id": "74504693242", "name": "MADERA MUNICIPAL AIRPORT, CA US", "quality": 100, "contribution": 0.0}, "72481523257": {"distance": 29180.0, "latitude": 37.285, "longitude": -120.513, "useCount": 0, "id": "72481523257", "name": "MERCED MUNICIPAL AIRPORT, CA US", "quality": 100, "contribution": 0.0}, "99999993243": {"distance": 56911.0, "latitude": 37.238, "longitude": -120.882, "useCount": 0, "id": "99999993243", "name": "MERCED 23 WSW, CA US", "quality": 100, "contribution": 0.0}, "72389093193": {"distance": 61019.0, "latitude": 36.78, "longitude": -119.719, "useCount": 0, "id": "72389093193", "name": "FRESNO YOSEMITE INTERNATIONAL, CA US", "quality": 100, "contribution": 0.0}}}