{"queryCost": 1, "latitude": 37.988, "longitude": -122.324, "resolvedAddress": "37.98800,-122.32400", "address": "37.98800,-122.32400", "timezone": "America/Los_Angeles", "tzoffset": -7.0, "days": [{"datetime": "2017-08-02", "datetimeEpoch": 1501657200, "tempmax": 94.5, "tempmin": 56.9, "temp": 73.6, "feelslikemax": 90.9, "feelslikemin": 56.9, "feelslike": 72.8, "dew": 53.5, "humidity": 56.3, "precip": 0.0, "precipprob": 0.0, "precipcover": 0.0, "preciptype": null, "snow": 0.0, "snowdepth": 0.0, "windgust": 20.9, "windspeed": 14.3, "winddir": 284.3, "pressure": 1010.4, "cloudcover": 7.9, "visibility": 9.8, "solarradiation": 290.5, "solarenergy": 25.2, "uvindex": 9.0, "sunrise": "06:13:29", "sunriseEpoch": 1501679609, "sunset": "20:17:00", "sunsetEpoch": 1501730220, "moonphase": 0.38, "conditions": "Clear", "description": "Clear conditions throughout the day.", "icon": "clear-day", "stations": ["KDVO", "KCCR", "72040600135", "72495593227", "72495023254", "KAPC"], "source": "obs"}], "stations": {"KDVO": {"distance": 26723.0, "latitude": 38.14, "longitude": -122.56, "useCount": 0, "id": "KDVO", "name": "KDVO", "quality": 100, "contribution": 0.0}, "KCCR": {"distance": 24126.0, "latitude": 37.97, "longitude": -122.05, "useCount": 0, "id": "KCCR", "name": "KCCR", "quality": 100, "contribution": 0.0}, "72040600135": {"distance": 26786.0, "latitude": 38.15, "longitude": -122.55, "useCount": 0, "id": "72040600135", "name": "GNOSS FIELD AIRPORT, CA US", "quality": 100, "contribution": 0.0}, "72495593227": {"distance": 24970.0, "latitude": 38.21, "longitude": -122.285, "useCount": 0, "id": "72495593227", "name": "NAPA CO AIRPORT, CA US", "quality": 100, "contribution": 0.0}, "72495023254": {"distance": 23604.0, "latitude": 37.992, "longitude": -122.055, "useCount": 0, "id": "72495023254", "name": "CONCORD BUCHANAN FIELD, CA US", "quality": 100, "contribution": 0.0}, "KAPC": {"distance": 26112.0, "latitude": 38.22, "longitude": -122.28, "useCount": 0, "id": "KAPC", "name": "KAPC", "quality": 100, "contribution": 0.0}}}