{"queryCost": 1, "latitude": 41.659, "longitude": -87.587, "resolvedAddress": "41.65900,-87.58700", "address": "41.65900,-87.58700", "timezone": "America/Chicago", "tzoffset": -5.0, "days": [{"datetime": "2017-08-08", "datetimeEpoch": 1502168400, "tempmax": 80.7, "tempmin": 53.9, "temp": 68.5, "feelslikemax": 80.2, "feelslikemin": 53.9, "feelslike": 68.5, "dew": 52.4, "humidity": 59.3, "precip": 0.0, "precipprob": 0.0, "precipcover": 0.0, "preciptype": null, "snow": 0.0, "snowdepth": 0.0, "windgust": 16.1, "windspeed": 7.3, "winddir": 195.3, "pressure": 1020.4, "cloudcover": 22.4, "visibility": 9.9, "solarradiation": 312.3, "solarenergy": 27.1, "uvindex": 9.0, "sunrise": "05:51:57", "sunriseEpoch": 1502189517, "sunset": "19:59:13", "sunsetEpoch": 1502240353, "moonphase": 0.51, "conditions": "Partially cloudy", "description": "Becoming cloudy in the afternoon.", "icon": "partly-cloudy-day", "stations": ["72534014819", "72212604879", "72534804831", "KLOT", "KMDW", "KIGQ"], "source": "obs"}], "stations": {"72534014819": {"distance": 19713.0, "latitude": 41.786, "longitude": -87.752, "useCount": 0, "id": "72534014819", "name": "CHICAGO MIDWAY AIRPORT, IL US", "quality": 100, "contribution": 0.0}, "72212604879": {"distance": 14050.0, "latitude": 41.54, "longitude": -87.532, "useCount": 0, "id": "72212604879", "name": "CHICAGO LANSING MUNICIPAL AIRPORT, IL US", "quality": 100, "contribution": 0.0}, "72534804831": {"distance": 41884.0, "latitude": 41.604, "longitude": -88.085, "useCount": 0, "id": "72534804831", "name": "ROMEOVILLE WEATHER FORECAST OFFICE, IL US", "quality": 100, "contribution": 0.0}, "KLOT": {"distance": 42204.0, "latitude": 41.61, "longitude": -88.09, "useCount": 0, "id": "KLOT", "name": "KLOT", "quality": 99, "contribution": 0.0}, "KMDW": {"distance": 19101.0, "latitude": 41.78, "longitude": -87.75, "useCount": 0, "id": "KMDW", "name": "KMDW", "quality": 100, "contribution": 0.0}, "KIGQ": {"distance": 14071.0, "latitude": 41.54, "longitude": -87.53, "useCount": 0, "id": "KIGQ", "name": "KIGQ", "quality": 100, "contribution": 0.0}}}