{"queryCost": 1, "latitude": 34.062, "longitude": -118.502, "resolvedAddress": "34.06200,-118.50200", "address": "34.06200,-118.50200", "timezone": "America/Los_Angeles", "tzoffset": -7.0, "days": [{"datetime": "2017-08-10", "datetimeEpoch": 1502348400, "tempmax": 76.4, "tempmin": 66.3, "temp": 70.8, "feelslikemax": 76.4, "feelslikemin": 66.3, "feelslike": 70.8, "dew": 63.8, "humidity": 79.3, "precip": 0.0, "precipprob": 0.0, "precipcover": 0.0, "preciptype": null, "snow": 0.0, "snowdepth": 0.0, "windgust": null, "windspeed": 11.1, "winddir": 185.3, "pressure": 1012.3, "cloudcover": 19.1, "visibility": 9.5, "solarradiation": 332.7, "solarenergy": 28.7, "uvindex": 10.0, "sunrise": "06:12:05", "sunriseEpoch": 1502370725, "sunset": "19:45:58", "sunsetEpoch": 1502419558, "moonphase": 0.54, "conditions": "Clear", "description": "Clear conditions throughout the day.", "icon": "clear-day", "stations": ["72288593197", "KVNY", "72295023174", "KSMO", "72288623130", "KLAX"], "source": "obs"}], "stations": {"72288593197": {"distance": 6970.0, "latitude": 34.016, "longitude": -118.451, "useCount": 0, "id": "72288593197", "name": "SANTA MONICA MUNICIPAL AIRPORT, CA US", "quality": 100, "contribution": 0.0}, "KVNY": {"distance": 17705.0, "latitude": 34.22, "longitude": -118.48, "useCount": 0, "id": "KVNY", "name": "KVNY", "quality": 100, "contribution": 0.0}, "72295023174": {"distance": 17300.0, "latitude": 33.938, "longitude": -118.389, "useCount": 0, "id": "72295023174", "name": "LOS ANGELES INTERNATIONAL AIRPORT, CA US", "quality": 100, "contribution": 0.0}, "KSMO": {"distance": 6698.0, "latitude": 34.02, "longitude": -118.45, "useCount": 0, "id": "KSMO", "name": "KSMO", "quality": 97, "contribution": 0.0}, "72288623130": {"distance": 16485.0, "latitude": 34.21, "longitude": -118.489, "useCount": 0, "id": "72288623130", "name": "VAN NUYS AIRPORT, CA US", "quality": 100, "contribution": 0.0}, "KLAX": {"distance": 17451.0, "latitude": 33.93, "longitude": -118.4, "useCount": 0, "id": "KLAX", "name": "KLAX", "quality": 100, "contribution": 0.0}}}