{"queryCost": 1, "latitude": 47.084, "longitude": -122.355, "resolvedAddress": "47.08400,-122.35500", "address": "47.08400,-122.35500", "timezone": "America/Los_Angeles", "tzoffset": -7.0, "days": [{"datetime": "2017-08-12", "datetimeEpoch": 1502521200, "tempmax": 77.9, "tempmin": 57.6, "temp": 64.7, "feelslikemax": 77.9, "feelslikemin": 57.6, "feelslike": 64.7, "dew": 57.5, "humidity": 79.9, "precip": 0.0, "precipprob": 0.0, "precipcover": 0.0, "preciptype": null, "snow": 0.0, "snowdepth": 0.0, "windgust": 18.3, "windspeed": 13.6, "winddir": 231.3, "pressure": 1014.3, "cloudcover": 60.9, "visibility": 9.6, "solarradiation": 225.8, "solarenergy": 19.6, "uvindex": 7.0, "sunrise": "06:02:59", "sunriseEpoch": 1502542979, "sunset": "20:24:51", "sunsetEpoch": 1502594691, "moonphase": 0.62, "conditions": "Partially cloudy", "description": "Clearing in the afternoon.", "icon": "partly-cloudy-day", "stations": ["KTCM", "KGRF", "KTIW", "74206024207", "72793894274", "74207124201"], "source": "obs"}], "stations": {"KTCM": {"distance": 10767.0, "latitude": 47.13, "longitude": -122.48, "useCount": 0, "id": "KTCM", "name": "KTCM", "quality": 100, "contribution": 0.0}, "KGRF": {"distance": 17062.0, "latitude": 47.08, "longitude": -122.58, "useCount": 0, "id": "KGRF", "name": "KGRF", "quality": 100, "contribution": 0.0}, "KTIW": {"distance": 26806.0, "latitude": 47.27, "longitude": -122.58, "useCount": 0, "id": "KTIW", "name": "KTIW", "quality": 100, "contribution": 0.0}, "74206024207": {"distance": 12166.0, "latitude": 47.15, "longitude": -122.483, "useCount": 0, "id": "74206024207", "name": "TACOMA MCCHORD AFB, WA US", "quality": 96, "contribution": 0.0}, "72793894274": {"distance": 26399.0, "latitude": 47.268, "longitude": -122.576, "useCount": 0, "id": "72793894274", "name": "TACOMA NARROWS AIRPORT, WA US", "quality": 100, "contribution": 0.0}, "74207124201": {"distance": 17283.0, "latitude": 47.083, "longitude": -122.583, "useCount": 0, "id": "74207124201", "name": "GRAY ARMY AIR FIELD, WA US", "quality": 96, "contribution": 0.0}}}