{"queryCost": 1, "latitude": 46.212, "longitude": -119.138, "resolvedAddress": "46.21200,-119.13800", "address": "46.21200,-119.13800", "timezone": "America/Los_Angeles", "tzoffset": -7.0, "days": [{"datetime": "2017-08-13", "datetimeEpoch": 1502607600, "tempmax": 84.8, "tempmin": 65.9, "temp": 74.9, "feelslikemax": 83.1, "feelslikemin": 65.9, "feelslike": 74.6, "dew": 53.8, "humidity": 50.0, "precip": 0.05, "precipprob": 100.0, "precipcover": 12.5, "preciptype": ["rain"], "snow": 0.0, "snowdepth": 0.0, "windgust": 34.4, "windspeed": 20.2, "winddir": 227.0, "pressure": 1010.6, "cloudcover": 37.8, "visibility": 9.9, "solarradiation": 185.8, "solarenergy": 15.9, "uvindex": 8.0, "sunrise": "05:53:30", "sunriseEpoch": 1502628810, "sunset": "20:08:16", "sunsetEpoch": 1502680096, "moonphase": 0.67, "conditions": "Rain, Partially cloudy", "description": "Partly cloudy throughout the day with rain clearing later.", "icon": "rain", "stations": ["72688024155", "72784524163", "KPSC", "72788499999", "KHRI", "72688304113"], "source": "obs"}], "stations": {"72688024155": {"distance": 61235.0, "latitude": 45.698, "longitude": -118.855, "useCount": 0, "id": "72688024155", "name": "PENDLETON E OR REGIONAL AIRPORT, OR US", "quality": 100, "contribution": 0.0}, "72784524163": {"distance": 6300.0, "latitude": 46.267, "longitude": -119.117, "useCount": 0, "id": "72784524163", "name": "PASCO TRI CITIES AIRPORT, WA US", "quality": 100, "contribution": 0.0}, "KPSC": {"distance": 6604.0, "latitude": 46.27, "longitude": -119.12, "useCount": 0, "id": "KPSC", "name": "PASCO/TRI-CITIES, WA", "quality": 100, "contribution": 0.0}, "72788499999": {"distance": 16486.0, "latitude": 46.306, "longitude": -119.304, "useCount": 0, "id": "72788499999", "name": "RICHLAND AIRPORT, WA US", "quality": 100, "contribution": 0.0}, "KHRI": {"distance": 43557.0, "latitude": 45.83, "longitude": -119.26, "useCount": 0, "id": "KHRI", "name": "KHRI", "quality": 100, "contribution": 0.0}, "72688304113": {"distance": 44030.0, "latitude": 45.826, "longitude": -119.261, "useCount": 0, "id": "72688304113", "name": "HERMISTON MUNICIPAL AIRPORT, OR US", "quality": 100, "contribution": 0.0}}}