{"queryCost": 1, "latitude": 33.449, "longitude": -86.824, "resolvedAddress": "33.44900,-86.82400", "address": "33.44900,-86.82400", "timezone": "America/Chicago", "tzoffset": -5.0, "days": [{"datetime": "2017-08-19", "datetimeEpoch": 1503118800, "tempmax": 91.5, "tempmin": 70.4, "temp": 81.1, "feelslikemax": 97.0, "feelslikemin": 70.4, "feelslike": 84.5, "dew": 70.9, "humidity": 73.6, "precip": 0.0, "precipprob": 0.0, "precipcover": 0.0, "preciptype": null, "snow": 0.0, "snowdepth": 0.0, "windgust": null, "windspeed": 6.4, "winddir": 108.5, "pressure": 1015.9, "cloudcover": 16.4, "visibility": 9.7, "solarradiation": 250.8, "solarenergy": 21.6, "uvindex": 8.0, "sunrise": "06:12:38", "sunriseEpoch": 1503141158, "sunset": "19:28:28", "sunsetEpoch": 1503188908, "moonphase": 0.97, "conditions": "Clear", "description": "Clear conditions throughout the day.", "icon": "clear-day", "stations": ["72228013876", "72050799999", "72230053864", "72050899999", "KEET", "KBHM"], "source": "obs"}], "stations": {"72228013876": {"distance": 14908.0, "latitude": 33.566, "longitude": -86.745, "useCount": 0, "id": "72228013876", "name": "BIRMINGHAM AIRPORT, AL US", "quality": 100, "contribution": 0.0}, "72050799999": {"distance": 17868.0, "latitude": 33.313, "longitude": -86.926, "useCount": 0, "id": "72050799999", "name": "BESSEMER AIPORT, AL US", "quality": 99, "contribution": 0.0}, "72230053864": {"distance": 30390.0, "latitude": 33.178, "longitude": -86.782, "useCount": 0, "id": "72230053864", "name": "ALABASTER SHELBY CO AIRPORT, AL US", "quality": 100, "contribution": 0.0}, "72050899999": {"distance": 57262.0, "latitude": 33.172, "longitude": -86.305, "useCount": 0, "id": "72050899999", "name": "MERKEL FIELD SYLACAUGA MUNICIPAL, AL US", "quality": 97, "contribution": 0.0}, "KEET": {"distance": 30223.0, "latitude": 33.18, "longitude": -86.78, "useCount": 0, "id": "KEET", "name": "KEET", "quality": 100, "contribution": 0.0}, "KBHM": {"distance": 15120.0, "latitude": 33.57, "longitude": -86.75, "useCount": 0, "id": "KBHM", "name": "KBHM", "quality": 100, "contribution": 0.0}}}