{"queryCost": 1, "latitude": 26.169, "longitude": -80.277, "resolvedAddress": "26.16900,-80.27700", "address": "26.16900,-80.27700", "timezone": "America/New_York", "tzoffset": -4.0, "days": [{"datetime": "2017-08-25", "datetimeEpoch": 1503633600, "tempmax": 84.8, "tempmin": 73.5, "temp": 77.6, "feelslikemax": 96.4, "feelslikemin": 73.5, "feelslike": 80.1, "dew": 74.4, "humidity": 90.5, "precip": 2.28, "precipprob": 100.0, "precipcover": 37.5, "preciptype": ["rain"], "snow": 0.0, "snowdepth": 0.0, "windgust": 31.1, "windspeed": 18.0, "winddir": 180.2, "pressure": 1015.0, "cloudcover": 55.8, "visibility": 8.5, "solarradiation": 88.0, "solarenergy": 7.9, "uvindex": 3.0, "sunrise": "06:58:10", "sunriseEpoch": 1503658690, "sunset": "19:47:36", "sunsetEpoch": 1503704856, "moonphase": 0.08, "conditions": "Rain, Partially cloudy", "description": "Becoming cloudy in the afternoon with rain.", "icon": "rain", "stations": ["74783012849", "72204992805", "KFLL", "72203912885", "KFXE"], "source": "obs"}], "stations": {"KFLL": {"distance": 16810.0, "latitude": 26.07, "longitude": -80.15, "useCount": 0, "id": "KFLL", "name": "KFLL", "quality": 100, "contribution": 0.0}, "72203912885": {"distance": 11054.0, "latitude": 26.197, "longitude": -80.171, "useCount": 0, "id": "72203912885", "name": "FORT LAUDERDALE EXECUTIVE AIRPORT, FL US", "quality": 99, "contribution": 0.0}, "74783012849": {"distance": 15247.0, "latitude": 26.079, "longitude": -80.162, "useCount": 0, "id": "74783012849", "name": "FORT LAUDERDALE INTERNATIONAL AIRPORT, FL US", "quality": 100, "contribution": 0.0}, "KFXE": {"distance": 11232.0, "latitude": 26.2, "longitude": -80.17, "useCount": 0, "id": "KFXE", "name": "KFXE", "quality": 100, "contribution": 0.0}, "72204992805": {"distance": 19110.0, "latitude": 26.25, "longitude": -80.108, "useCount": 0, "id": "72204992805", "name": "POMPANO BEACH AIRPARK, FL US", "quality": 99, "contribution": 0.0}}}