{"queryCost": 1, "latitude": 33.775, "longitude": -85.762, "resolvedAddress": "33.77500,-85.76200", "address": "33.77500,-85.76200", "timezone": "America/Chicago", "tzoffset": -5.0, "days": [{"datetime": "2017-08-29", "datetimeEpoch": 1503982800, "tempmax": 83.9, "tempmin": 64.8, "temp": 74.5, "feelslikemax": 85.4, "feelslikemin": 64.8, "feelslike": 74.9, "dew": 64.6, "humidity": 72.5, "precip": 0.0, "precipprob": 0.0, "precipcover": 0.0, "preciptype": null, "snow": 0.0, "snowdepth": 0.0, "windgust": null, "windspeed": 8.7, "winddir": 108.0, "pressure": 1014.9, "cloudcover": 24.8, "visibility": 9.9, "solarradiation": 158.6, "solarenergy": 13.7, "uvindex": 6.0, "sunrise": "06:14:54", "sunriseEpoch": 1504005294, "sunset": "19:12:15", "sunsetEpoch": 1504051935, "moonphase": 0.26, "conditions": "Partially cloudy", "description": "Partly cloudy throughout the day.", "icon": "partly-cloudy-day", "stations": ["72228713871", "99999973803", "72228503896", "KANB", "KGAD"], "source": "obs"}], "stations": {"KANB": {"distance": 23188.0, "latitude": 33.58, "longitude": -85.85, "useCount": 0, "id": "KANB", "name": "KANB", "quality": 100, "contribution": 0.0}, "72228713871": {"distance": 22632.0, "latitude": 33.587, "longitude": -85.856, "useCount": 0, "id": "72228713871", "name": "ANNISTON METROPOLITAN AIRPORT, AL US", "quality": 100, "contribution": 0.0}, "99999973803": {"distance": 35476.0, "latitude": 33.572, "longitude": -86.057, "useCount": 0, "id": "99999973803", "name": "TALLADEGA 10 NNE, AL US", "quality": 100, "contribution": 0.0}, "KGAD": {"distance": 36539.0, "latitude": 33.97, "longitude": -86.08, "useCount": 0, "id": "KGAD", "name": "GADSEN MUNI, AL", "quality": 100, "contribution": 0.0}, "72228503896": {"distance": 36569.0, "latitude": 33.967, "longitude": -86.083, "useCount": 0, "id": "72228503896", "name": "GADSDEN MUNICIPAL AIRPORT, AL US", "quality": 100, "contribution": 0.0}}}