{"queryCost": 1, "latitude": 36.184, "longitude": -95.94, "resolvedAddress": "36.18400,-95.94000", "address": "36.18400,-95.94000", "timezone": "America/Chicago", "tzoffset": -5.0, "days": [{"datetime": "2015-04-02", "datetimeEpoch": 1427950800, "tempmax": 84.9, "tempmin": 66.9, "temp": 75.4, "feelslikemax": 85.1, "feelslikemin": 66.9, "feelslike": 75.7, "dew": 63.5, "humidity": 68.8, "precip": 0.03, "precipprob": 100.0, "precipcover": 8.33, "preciptype": ["rain"], "snow": 0.0, "snowdepth": 0.0, "windgust": 28.9, "windspeed": 19.4, "winddir": 185.7, "pressure": 1005.8, "cloudcover": 75.9, "visibility": 9.8, "solarradiation": 256.9, "solarenergy": 22.3, "uvindex": 9.0, "sunrise": "07:08:45", "sunriseEpoch": 1427976525, "sunset": "19:46:30", "sunsetEpoch": 1428021990, "moonphase": 0.48, "conditions": "Rain, Partially cloudy", "description": "Partly cloudy throughout the day with early morning rain.", "icon": "rain", "stations": ["72356453908", "KTUL", "KGCM", "KRVS", "72356013968", "72056100467"], "source": "obs"}], "stations": {"72356453908": {"distance": 16585.0, "latitude": 36.039, "longitude": -95.984, "useCount": 0, "id": "72356453908", "name": "TULSA RICHARD L JONES JR AIRPORT, OK US", "quality": 100, "contribution": 0.0}, "KTUL": {"distance": 4011.0, "latitude": 36.2, "longitude": -95.9, "useCount": 0, "id": "KTUL", "name": "KTUL", "quality": 100, "contribution": 0.0}, "KGCM": {"distance": 42955.0, "latitude": 36.29, "longitude": -95.48, "useCount": 0, "id": "KGCM", "name": "KGCM", "quality": 99, "contribution": 0.0}, "KRVS": {"distance": 16429.0, "latitude": 36.04, "longitude": -95.98, "useCount": 0, "id": "KRVS", "name": "KRVS", "quality": 100, "contribution": 0.0}, "72356013968": {"distance": 5044.0, "latitude": 36.199, "longitude": -95.887, "useCount": 0, "id": "72356013968", "name": "TULSA INTERNATIONAL AIRPORT, OK US", "quality": 100, "contribution": 0.0}, "72056100467": {"distance": 19056.0, "latitude": 36.175, "longitude": -96.152, "useCount": 0, "id": "72056100467", "name": "WILLIAM R POGUE MUNICIPAL AIRPORT, OK US", "quality": 100, "contribution": 0.0}}}