{"queryCost": 1, "latitude": 43.097, "longitude": -87.961, "resolvedAddress": "43.09700,-87.96100", "address": "43.09700,-87.96100", "timezone": "America/Chicago", "tzoffset": -5.0, "days": [{"datetime": "2017-09-03", "datetimeEpoch": 1504414800, "tempmax": 81.8, "tempmin": 53.3, "temp": 68.0, "feelslikemax": 80.9, "feelslikemin": 53.3, "feelslike": 67.9, "dew": 53.9, "humidity": 65.1, "precip": 0.01, "precipprob": 100.0, "precipcover": 4.17, "preciptype": ["rain"], "snow": 0.0, "snowdepth": 0.0, "windgust": 19.7, "windspeed": 12.5, "winddir": 274.1, "pressure": 1013.9, "cloudcover": 34.7, "visibility": 9.2, "solarradiation": 255.5, "solarenergy": 22.1, "uvindex": 8.0, "sunrise": "06:18:34", "sunriseEpoch": 1504437514, "sunset": "19:22:47", "sunsetEpoch": 1504484567, "moonphase": 0.46, "conditions": "Rain, Partially cloudy", "description": "Becoming cloudy in the afternoon with morning rain.", "icon": "rain", "stations": ["72640014839", "KETB", "72641304875", "KMWC", "KMKE", "72642494818"], "source": "obs"}], "stations": {"72640014839": {"distance": 16465.0, "latitude": 42.955, "longitude": -87.904, "useCount": 0, "id": "72640014839", "name": "MILWAUKEE MITCHELL INTERNATIONAL AIRPORT, WI US", "quality": 100, "contribution": 0.0}, "KETB": {"distance": 38478.0, "latitude": 43.42, "longitude": -88.13, "useCount": 0, "id": "KETB", "name": "KETB", "quality": 98, "contribution": 0.0}, "72641304875": {"distance": 38232.0, "latitude": 43.417, "longitude": -88.133, "useCount": 0, "id": "72641304875", "name": "WEST BEND MUNICIPAL AIRPORT, WI US", "quality": 100, "contribution": 0.0}, "KMWC": {"distance": 6164.0, "latitude": 43.12, "longitude": -88.03, "useCount": 0, "id": "KMWC", "name": "KMWC", "quality": 73, "contribution": 0.0}, "KMKE": {"distance": 17100.0, "latitude": 42.95, "longitude": -87.9, "useCount": 0, "id": "KMKE", "name": "KMKE", "quality": 100, "contribution": 0.0}, "72642494818": {"distance": 39275.0, "latitude": 42.761, "longitude": -87.814, "useCount": 0, "id": "72642494818", "name": "RACINE BATTEN AIRPORT, WI US", "quality": 100, "contribution": 0.0}}}