{"queryCost": 1, "latitude": 38.682, "longitude": -121.504, "resolvedAddress": "38.68200,-121.50400", "address": "38.68200,-121.50400", "timezone": "America/Los_Angeles", "tzoffset": -7.0, "days": [{"datetime": "2015-03-17", "datetimeEpoch": 1426575600, "tempmax": 73.2, "tempmin": 48.6, "temp": 61.9, "feelslikemax": 73.2, "feelslikemin": 48.6, "feelslike": 61.9, "dew": 51.0, "humidity": 70.3, "precip": 0.0, "precipprob": 0.0, "precipcover": 0.0, "preciptype": null, "snow": 0.0, "snowdepth": 0.0, "windgust": null, "windspeed": 6.8, "winddir": 257.8, "pressure": 1016.7, "cloudcover": 48.8, "visibility": 9.6, "solarradiation": 230.8, "solarenergy": 20.0, "uvindex": 8.0, "sunrise": "07:14:18", "sunriseEpoch": 1426601658, "sunset": "19:15:00", "sunsetEpoch": 1426644900, "moonphase": 0.94, "conditions": "Partially cloudy", "description": "Partly cloudy throughout the day.", "icon": "partly-cloudy-day", "stations": ["KSMF", "72061400205", "72483023232", "72483993225", "KEDU", "KSAC"], "source": "obs"}], "stations": {"KSMF": {"distance": 6901.0, "latitude": 38.7, "longitude": -121.58, "useCount": 0, "id": "KSMF", "name": "SACRAMENTO METRO, CA", "quality": 100, "contribution": 0.0}, "72061400205": {"distance": 28544.0, "latitude": 38.909, "longitude": -121.351, "useCount": 0, "id": "72061400205", "name": "LINCOLN REGIONAL AIRPORT KARL HARDER FIELD, CA US", "quality": 100, "contribution": 0.0}, "72483023232": {"distance": 19508.0, "latitude": 38.507, "longitude": -121.495, "useCount": 0, "id": "72483023232", "name": "SACRAMENTO EXECUTIVE AIRPORT, CA US", "quality": 100, "contribution": 0.0}, "72483993225": {"distance": 7624.0, "latitude": 38.696, "longitude": -121.59, "useCount": 0, "id": "72483993225", "name": "SACRAMENTO METROPOLITAN AIRPORT, CA US", "quality": 100, "contribution": 0.0}, "KEDU": {"distance": 30088.0, "latitude": 38.53, "longitude": -121.79, "useCount": 0, "id": "KEDU", "name": "KEDU", "quality": 97, "contribution": 0.0}, "KSAC": {"distance": 18037.0, "latitude": 38.52, "longitude": -121.5, "useCount": 0, "id": "KSAC", "name": "KSAC", "quality": 100, "contribution": 0.0}}}