{"queryCost": 1, "latitude": 46.151, "longitude": -122.965, "resolvedAddress": "46.15100,-122.96500", "address": "46.15100,-122.96500", "timezone": "America/Los_Angeles", "tzoffset": -7.0, "days": [{"datetime": "2017-09-03", "datetimeEpoch": 1504422000, "tempmax": 94.9, "tempmin": 59.0, "temp": 76.1, "feelslikemax": 94.9, "feelslikemin": 59.0, "feelslike": 76.0, "dew": 58.4, "humidity": 58.8, "precip": 0.0, "precipprob": 0.0, "precipcover": 0.0, "preciptype": null, "snow": 0.0, "snowdepth": 0.0, "windgust": 19.7, "windspeed": 8.0, "winddir": 230.0, "pressure": 1014.8, "cloudcover": 0.2, "visibility": 9.9, "solarradiation": 222.4, "solarenergy": 19.2, "uvindex": 7.0, "sunrise": "06:35:17", "sunriseEpoch": 1504445717, "sunset": "19:45:56", "sunsetEpoch": 1504493156, "moonphase": 0.46, "conditions": "Clear", "description": "Clear conditions throughout the day.", "icon": "clear-day", "stations": ["72683604201", "KKLS", "72025400119", "KSPB", "KCLS", "72792424223"], "source": "obs"}], "stations": {"72683604201": {"distance": 42863.0, "latitude": 45.773, "longitude": -122.861, "useCount": 0, "id": "72683604201", "name": "SCAPPOOSE INDUSTRIAL AIRPORT, OR US", "quality": 100, "contribution": 0.0}, "KKLS": {"distance": 6087.0, "latitude": 46.12, "longitude": -122.9, "useCount": 0, "id": "KKLS", "name": "KKLS", "quality": 100, "contribution": 0.0}, "72025400119": {"distance": 59238.0, "latitude": 46.683, "longitude": -122.983, "useCount": 0, "id": "72025400119", "name": "CHEHALIS CENTRALIA AIRPORT, WA US", "quality": 100, "contribution": 0.0}, "KSPB": {"distance": 43184.0, "latitude": 45.77, "longitude": -122.86, "useCount": 0, "id": "KSPB", "name": "KSPB", "quality": 100, "contribution": 0.0}, "KCLS": {"distance": 58899.0, "latitude": 46.68, "longitude": -122.98, "useCount": 0, "id": "KCLS", "name": "KCLS", "quality": 98, "contribution": 0.0}, "72792424223": {"distance": 6677.0, "latitude": 46.117, "longitude": -122.894, "useCount": 0, "id": "72792424223", "name": "KELSO SOUTHWEST REGIONAL AIRPORT, WA US", "quality": 100, "contribution": 0.0}}}