{"queryCost": 1, "latitude": 34.773, "longitude": -112.455, "resolvedAddress": "34.77300,-112.45500", "address": "34.77300,-112.45500", "timezone": "America/Phoenix", "tzoffset": -7.0, "days": [{"datetime": "2017-07-21", "datetimeEpoch": 1500620400, "tempmax": 82.9, "tempmin": 64.3, "temp": 71.6, "feelslikemax": 82.6, "feelslikemin": 64.3, "feelslike": 71.6, "dew": 60.2, "humidity": 68.7, "precip": 0.01, "precipprob": 100.0, "precipcover": 4.17, "preciptype": ["rain"], "snow": 0.0, "snowdepth": 0.0, "windgust": 29.2, "windspeed": 17.3, "winddir": 185.1, "pressure": 1013.7, "cloudcover": 37.5, "visibility": 9.9, "solarradiation": 240.0, "solarenergy": 20.8, "uvindex": 7.0, "sunrise": "05:32:01", "sunriseEpoch": 1500640321, "sunset": "19:40:07", "sunsetEpoch": 1500691207, "moonphase": 0.98, "conditions": "Rain, Partially cloudy", "description": "Partly cloudy throughout the day with afternoon rain.", "icon": "rain", "stations": ["72376099999", "KPRC", "72372323184", "72375600375", "KCMR", "KSEZ"], "source": "obs"}], "stations": {"72376099999": {"distance": 76319.0, "latitude": 35.217, "longitude": -111.817, "useCount": 0, "id": "72376099999", "name": "FLAGSTAFF, AZ US", "quality": 67, "contribution": 0.0}, "KPRC": {"distance": 14062.0, "latitude": 34.65, "longitude": -112.42, "useCount": 0, "id": "KPRC", "name": "KPRC", "quality": 100, "contribution": 0.0}, "72372323184": {"distance": 13857.0, "latitude": 34.652, "longitude": -112.421, "useCount": 0, "id": "72372323184", "name": "PRESCOTT LOVE FIELD, AZ US", "quality": 100, "contribution": 0.0}, "72375600375": {"distance": 62014.0, "latitude": 34.85, "longitude": -111.783, "useCount": 0, "id": "72375600375", "name": "SEDONA AIRPORT, AZ US", "quality": 100, "contribution": 0.0}, "KCMR": {"distance": 62069.0, "latitude": 35.29, "longitude": -112.2, "useCount": 0, "id": "KCMR", "name": "KCMR", "quality": 99, "contribution": 0.0}, "KSEZ": {"distance": 62286.0, "latitude": 34.85, "longitude": -111.78, "useCount": 0, "id": "KSEZ", "name": "KSEZ", "quality": 100, "contribution": 0.0}}}