{"queryCost": 1, "latitude": 33.902, "longitude": -117.571, "resolvedAddress": "33.90200,-117.57100", "address": "33.90200,-117.57100", "timezone": "America/Los_Angeles", "tzoffset": -7.0, "days": [{"datetime": "2017-07-29", "datetimeEpoch": 1501311600, "tempmax": 91.6, "tempmin": 56.0, "temp": 73.3, "feelslikemax": 92.9, "feelslikemin": 56.0, "feelslike": 73.7, "dew": 61.2, "humidity": 69.3, "precip": 0.0, "precipprob": 0.0, "precipcover": 0.0, "preciptype": null, "snow": 0.0, "snowdepth": 0.0, "windgust": 26.2, "windspeed": 16.8, "winddir": 240.1, "pressure": 1015.4, "cloudcover": 0.8, "visibility": 9.7, "solarradiation": 341.6, "solarenergy": 29.5, "uvindex": 10.0, "sunrise": "06:00:02", "sunriseEpoch": 1501333202, "sunset": "19:53:01", "sunsetEpoch": 1501383181, "moonphase": 0.2, "conditions": "Clear", "description": "Clear conditions throughout the day.", "icon": "clear-day", "stations": ["72033353175", "KRAL", "72289903179", "KAJO", "KCNO", "72286903171"], "source": "obs"}], "stations": {"72033353175": {"distance": 2904.0, "latitude": 33.898, "longitude": -117.602, "useCount": 0, "id": "72033353175", "name": "CORONA MUNICIPAL AIRPORT, CA US", "quality": 99, "contribution": 0.0}, "KRAL": {"distance": 12388.0, "latitude": 33.95, "longitude": -117.45, "useCount": 0, "id": "KRAL", "name": "KRAL", "quality": 100, "contribution": 0.0}, "72289903179": {"distance": 10130.0, "latitude": 33.975, "longitude": -117.636, "useCount": 0, "id": "72289903179", "name": "CHINO AIRPORT, CA US", "quality": 100, "contribution": 0.0}, "KAJO": {"distance": 2689.0, "latitude": 33.9, "longitude": -117.6, "useCount": 0, "id": "KAJO", "name": "CORONA, CA", "quality": 99, "contribution": 0.0}, "KCNO": {"distance": 9327.0, "latitude": 33.97, "longitude": -117.63, "useCount": 0, "id": "KCNO", "name": "KCNO", "quality": 100, "contribution": 0.0}, "72286903171": {"distance": 13398.0, "latitude": 33.952, "longitude": -117.439, "useCount": 0, "id": "72286903171", "name": "RIVERSIDE MUNICIPAL AIRPORT, CA US", "quality": 100, "contribution": 0.0}}}