{"queryCost": 1, "latitude": 34.05, "longitude": -118.247, "resolvedAddress": "34.05000,-118.24700", "address": "34.05000,-118.24700", "timezone": "America/Los_Angeles", "tzoffset": -7.0, "days": [{"datetime": "2017-09-06", "datetimeEpoch": 1504681200, "tempmax": 80.0, "tempmin": 70.6, "temp": 74.5, "feelslikemax": 82.0, "feelslikemin": 70.6, "feelslike": 74.6, "dew": 64.1, "humidity": 70.7, "precip": 0.0, "precipprob": 0.0, "precipcover": 0.0, "preciptype": null, "snow": 0.0, "snowdepth": 0.0, "windgust": 25.5, "windspeed": 14.0, "winddir": 233.4, "pressure": 1013.3, "cloudcover": 2.5, "visibility": 9.2, "solarradiation": 289.6, "solarenergy": 24.9, "uvindex": 9.0, "sunrise": "06:30:10", "sunriseEpoch": 1504704610, "sunset": "19:11:38", "sunsetEpoch": 1504750298, "moonphase": 0.5, "conditions": "Clear", "description": "Clear conditions throughout the day.", "icon": "clear-day", "stations": ["KHHR", "72295023174", "KSMO", "72295603167", "72287493134"], "source": "obs"}], "stations": {"KSMO": {"distance": 19022.0, "latitude": 34.02, "longitude": -118.45, "useCount": 0, "id": "KSMO", "name": "KSMO", "quality": 97, "contribution": 0.0}, "72295603167": {"distance": 16278.0, "latitude": 33.923, "longitude": -118.334, "useCount": 0, "id": "72295603167", "name": "HAWTHORNE MUNICIPAL AIRPORT, CA US", "quality": 100, "contribution": 0.0}, "KHHR": {"distance": 16374.0, "latitude": 33.92, "longitude": -118.33, "useCount": 0, "id": "KHHR", "name": "KHHR", "quality": 100, "contribution": 0.0}, "72287493134": {"distance": 5011.0, "latitude": 34.024, "longitude": -118.291, "useCount": 0, "id": "72287493134", "name": "LOS ANGELES DOWNTOWN USC, CA US", "quality": 100, "contribution": 0.0}, "72295023174": {"distance": 18089.0, "latitude": 33.938, "longitude": -118.389, "useCount": 0, "id": "72295023174", "name": "LOS ANGELES INTERNATIONAL AIRPORT, CA US", "quality": 100, "contribution": 0.0}}}