{"queryCost": 1, "latitude": 33.056, "longitude": -96.726, "resolvedAddress": "33.05600,-96.72600", "address": "33.05600,-96.72600", "timezone": "America/Chicago", "tzoffset": -5.0, "days": [{"datetime": "2017-09-10", "datetimeEpoch": 1505019600, "tempmax": 83.8, "tempmin": 60.0, "temp": 72.3, "feelslikemax": 82.2, "feelslikemin": 60.0, "feelslike": 72.0, "dew": 56.3, "humidity": 60.3, "precip": 0.0, "precipprob": 0.0, "precipcover": 0.0, "preciptype": null, "snow": 0.0, "snowdepth": 0.0, "windgust": 20.8, "windspeed": 10.9, "winddir": 55.5, "pressure": 1021.2, "cloudcover": 7.2, "visibility": 9.9, "solarradiation": 282.0, "solarenergy": 24.3, "uvindex": 9.0, "sunrise": "07:07:19", "sunriseEpoch": 1505045239, "sunset": "19:39:36", "sunsetEpoch": 1505090376, "moonphase": 0.61, "conditions": "Clear", "description": "Clear conditions throughout the day.", "icon": "clear-day", "stations": ["KTKI", "KDAL", "72254153914", "72104400448", "72258013960", "KF46"], "source": "obs"}], "stations": {"KTKI": {"distance": 18744.0, "latitude": 33.18, "longitude": -96.59, "useCount": 0, "id": "KTKI", "name": "KTKI", "quality": 100, "contribution": 0.0}, "KDAL": {"distance": 25691.0, "latitude": 32.85, "longitude": -96.85, "useCount": 0, "id": "KDAL", "name": "KDAL", "quality": 100, "contribution": 0.0}, "72254153914": {"distance": 19519.0, "latitude": 33.19, "longitude": -96.591, "useCount": 0, "id": "72254153914", "name": "MCKINNEY MUNICIPAL AIRPORT, TX US", "quality": 100, "contribution": 0.0}, "72104400448": {"distance": 30505.0, "latitude": 32.931, "longitude": -96.435, "useCount": 0, "id": "72104400448", "name": "RALPH M HALL ROCKWALL MUNICIPAL AIRPORT, TX US", "quality": 100, "contribution": 0.0}, "72258013960": {"distance": 25740.0, "latitude": 32.852, "longitude": -96.855, "useCount": 0, "id": "72258013960", "name": "DALLAS FAA AIRPORT, TX US", "quality": 100, "contribution": 0.0}, "KF46": {"distance": 30992.0, "latitude": 32.93, "longitude": -96.43, "useCount": 0, "id": "KF46", "name": "KF46", "quality": 100, "contribution": 0.0}}}