{"queryCost": 1, "latitude": 41.919, "longitude": -87.756, "resolvedAddress": "41.91900,-87.75600", "address": "41.91900,-87.75600", "timezone": "America/Chicago", "tzoffset": -5.0, "days": [{"datetime": "2017-09-10", "datetimeEpoch": 1505019600, "tempmax": 69.4, "tempmin": 51.9, "temp": 61.3, "feelslikemax": 69.4, "feelslikemin": 51.9, "feelslike": 61.3, "dew": 47.0, "humidity": 60.5, "precip": 0.0, "precipprob": 0.0, "precipcover": 0.0, "preciptype": null, "snow": 0.0, "snowdepth": 0.0, "windgust": 16.1, "windspeed": 11.1, "winddir": 110.3, "pressure": 1029.3, "cloudcover": 3.7, "visibility": 9.9, "solarradiation": 260.0, "solarenergy": 22.4, "uvindex": 8.0, "sunrise": "06:26:11", "sunriseEpoch": 1505042771, "sunset": "19:08:48", "sunsetEpoch": 1505088528, "moonphase": 0.61, "conditions": "Clear", "description": "Clear conditions throughout the day.", "icon": "clear-day", "stations": ["72534014819", "KORD", "KMDW", "72530094846", "74466504838", "KPWK"], "source": "obs"}], "stations": {"72534014819": {"distance": 14798.0, "latitude": 41.786, "longitude": -87.752, "useCount": 0, "id": "72534014819", "name": "CHICAGO MIDWAY AIRPORT, IL US", "quality": 100, "contribution": 0.0}, "KORD": {"distance": 13720.0, "latitude": 41.98, "longitude": -87.9, "useCount": 0, "id": "KORD", "name": "KORD", "quality": 100, "contribution": 0.0}, "KMDW": {"distance": 15481.0, "latitude": 41.78, "longitude": -87.75, "useCount": 0, "id": "KMDW", "name": "KMDW", "quality": 100, "contribution": 0.0}, "72530094846": {"distance": 15247.0, "latitude": 41.96, "longitude": -87.932, "useCount": 0, "id": "72530094846", "name": "CHICAGO OHARE INTERNATIONAL AIRPORT, IL US", "quality": 100, "contribution": 0.0}, "74466504838": {"distance": 25610.0, "latitude": 42.121, "longitude": -87.905, "useCount": 0, "id": "74466504838", "name": "CHICAGO PALWAUKEE AIRPORT, IL US", "quality": 100, "contribution": 0.0}, "KPWK": {"distance": 26165.0, "latitude": 42.12, "longitude": -87.92, "useCount": 0, "id": "KPWK", "name": "KPWK", "quality": 100, "contribution": 0.0}}}