{"queryCost": 1, "latitude": 33.668, "longitude": -78.907, "resolvedAddress": "33.66800,-78.90700", "address": "33.66800,-78.90700", "timezone": "America/New_York", "tzoffset": -4.0, "days": [{"datetime": "2017-09-03", "datetimeEpoch": 1504411200, "tempmax": 84.8, "tempmin": 69.1, "temp": 76.3, "feelslikemax": 86.2, "feelslikemin": 69.1, "feelslike": 76.7, "dew": 66.7, "humidity": 74.8, "precip": 0.0, "precipprob": 0.0, "precipcover": 0.0, "preciptype": null, "snow": 0.0, "snowdepth": 0.0, "windgust": 20.8, "windspeed": 11.3, "winddir": 229.3, "pressure": 1018.0, "cloudcover": 2.1, "visibility": 9.9, "solarradiation": 282.2, "solarenergy": 24.5, "uvindex": 9.0, "sunrise": "06:50:58", "sunriseEpoch": 1504435858, "sunset": "19:38:11", "sunsetEpoch": 1504481891, "moonphase": 0.46, "conditions": "Clear", "description": "Clear conditions throughout the day.", "icon": "clear-day", "stations": ["74791593718", "72061300204", "74791013717", "KMYR", "KCRE", "KHYW"], "source": "obs"}], "stations": {"74791593718": {"distance": 23879.0, "latitude": 33.816, "longitude": -78.72, "useCount": 0, "id": "74791593718", "name": "NORTH MYRTLE BEACH, SC US", "quality": 100, "contribution": 0.0}, "72061300204": {"distance": 26707.0, "latitude": 33.828, "longitude": -79.122, "useCount": 0, "id": "72061300204", "name": "CONWAY HORRY CO AIRPORT, SC US", "quality": 100, "contribution": 0.0}, "74791013717": {"distance": 2973.0, "latitude": 33.683, "longitude": -78.933, "useCount": 0, "id": "74791013717", "name": "MYRTLE BEACH AFB, SC US", "quality": 100, "contribution": 0.0}, "KMYR": {"distance": 2515.0, "latitude": 33.68, "longitude": -78.93, "useCount": 0, "id": "KMYR", "name": "KMYR", "quality": 100, "contribution": 0.0}, "KCRE": {"distance": 24206.0, "latitude": 33.82, "longitude": -78.72, "useCount": 0, "id": "KCRE", "name": "KCRE", "quality": 100, "contribution": 0.0}, "KHYW": {"distance": 26719.0, "latitude": 33.83, "longitude": -79.12, "useCount": 0, "id": "KHYW", "name": "KHYW", "quality": 99, "contribution": 0.0}}}