{"queryCost": 1, "latitude": 35.222, "longitude": -101.882, "resolvedAddress": "35.22200,-101.88200", "address": "35.22200,-101.88200", "timezone": "America/Chicago", "tzoffset": -5.0, "days": [{"datetime": "2017-09-08", "datetimeEpoch": 1504846800, "tempmax": 83.3, "tempmin": 58.3, "temp": 71.2, "feelslikemax": 81.3, "feelslikemin": 58.3, "feelslike": 70.7, "dew": 45.9, "humidity": 42.3, "precip": 0.0, "precipprob": 0.0, "precipcover": 0.0, "preciptype": null, "snow": 0.0, "snowdepth": 0.0, "windgust": 31.7, "windspeed": 21.3, "winddir": 180.4, "pressure": 1016.2, "cloudcover": 4.3, "visibility": 9.9, "solarradiation": 271.0, "solarenergy": 23.3, "uvindex": 9.0, "sunrise": "07:25:20", "sunriseEpoch": 1504873520, "sunset": "20:04:11", "sunsetEpoch": 1504919051, "moonphase": 0.53, "conditions": "Clear", "description": "Clear conditions throughout the day.", "icon": "clear-day", "stations": ["KHRX", "72039300129", "KBGD", "72363503024", "KAMA", "72363023047"], "source": "obs"}], "stations": {"KHRX": {"distance": 57368.0, "latitude": 34.86, "longitude": -102.33, "useCount": 0, "id": "KHRX", "name": "KHRX", "quality": 100, "contribution": 0.0}, "72039300129": {"distance": 58350.0, "latitude": 34.85, "longitude": -102.333, "useCount": 0, "id": "72039300129", "name": "HEREFORD MUNICIPAL AIRPORT, TX US", "quality": 100, "contribution": 0.0}, "KBGD": {"distance": 68857.0, "latitude": 35.7, "longitude": -101.4, "useCount": 0, "id": "KBGD", "name": "KBGD", "quality": 100, "contribution": 0.0}, "72363503024": {"distance": 68719.0, "latitude": 35.695, "longitude": -101.395, "useCount": 0, "id": "72363503024", "name": "BORGER HUTCHINSON CO AIRPORT, TX US", "quality": 100, "contribution": 0.0}, "KAMA": {"distance": 16553.0, "latitude": 35.22, "longitude": -101.7, "useCount": 0, "id": "KAMA", "name": "KAMA", "quality": 100, "contribution": 0.0}, "72363023047": {"distance": 16208.0, "latitude": 35.23, "longitude": -101.704, "useCount": 0, "id": "72363023047", "name": "AMARILLO AIRPORT, TX US", "quality": 100, "contribution": 0.0}}}