{"queryCost": 1, "latitude": 47.515, "longitude": -111.254, "resolvedAddress": "47.51500,-111.25400", "address": "47.51500,-111.25400", "timezone": "America/Denver", "tzoffset": -6.0, "days": [{"datetime": "2017-09-11", "datetimeEpoch": 1505109600, "tempmax": 89.9, "tempmin": 53.2, "temp": 70.4, "feelslikemax": 85.8, "feelslikemin": 53.2, "feelslike": 69.3, "dew": 32.3, "humidity": 30.1, "precip": 0.0, "precipprob": 0.0, "precipcover": 0.0, "preciptype": null, "snow": 0.0, "snowdepth": 0.0, "windgust": 27.7, "windspeed": 17.9, "winddir": 223.8, "pressure": 1018.1, "cloudcover": 16.6, "visibility": 9.7, "solarradiation": 234.7, "solarenergy": 20.2, "uvindex": 8.0, "sunrise": "06:57:24", "sunriseEpoch": 1505134644, "sunset": "19:44:39", "sunsetEpoch": 1505180679, "moonphase": 0.66, "conditions": "Clear", "description": "Clear conditions throughout the day.", "icon": "clear-day", "stations": ["72100399999", "72775024143", "KGFA", "72775524112", "K1IM", "KGTF"], "source": "obs"}], "stations": {"72100399999": {"distance": 27290.0, "latitude": 47.317, "longitude": -111.467, "useCount": 0, "id": "72100399999", "name": "INDIA ULM, MT US", "quality": 94, "contribution": 0.0}, "72775024143": {"distance": 10688.0, "latitude": 47.473, "longitude": -111.382, "useCount": 0, "id": "72775024143", "name": "GREAT FALLS AIRPORT, MT US", "quality": 100, "contribution": 0.0}, "KGFA": {"distance": 5810.0, "latitude": 47.5, "longitude": -111.18, "useCount": 0, "id": "KGFA", "name": "KGFA", "quality": 100, "contribution": 0.0}, "72775524112": {"distance": 5341.0, "latitude": 47.517, "longitude": -111.183, "useCount": 0, "id": "72775524112", "name": "MALMSTROM AFB, MT US", "quality": 96, "contribution": 0.0}, "K1IM": {"distance": 27128.0, "latitude": 47.32, "longitude": -111.47, "useCount": 0, "id": "K1IM", "name": "K1IM", "quality": 97, "contribution": 0.0}, "KGTF": {"distance": 9555.0, "latitude": 47.48, "longitude": -111.37, "useCount": 0, "id": "KGTF", "name": "KGTF", "quality": 100, "contribution": 0.0}}}