{"queryCost": 1, "latitude": 39.201, "longitude": -80.404, "resolvedAddress": "39.20100,-80.40400", "address": "39.20100,-80.40400", "timezone": "America/New_York", "tzoffset": -4.0, "days": [{"datetime": "2017-09-17", "datetimeEpoch": 1505620800, "tempmax": 81.6, "tempmin": 57.1, "temp": 68.5, "feelslikemax": 81.7, "feelslikemin": 57.1, "feelslike": 68.5, "dew": 59.9, "humidity": 76.9, "precip": 0.0, "precipprob": 0.0, "precipcover": 0.0, "preciptype": null, "snow": 0.0, "snowdepth": 0.0, "windgust": null, "windspeed": 4.7, "winddir": 72.3, "pressure": 1019.6, "cloudcover": 44.9, "visibility": 6.8, "solarradiation": 215.1, "solarenergy": 18.6, "uvindex": 7.0, "sunrise": "07:04:52", "sunriseEpoch": 1505646292, "sunset": "19:26:26", "sunsetEpoch": 1505690786, "moonphase": 0.96, "conditions": "Partially cloudy", "description": "Partly cloudy throughout the day.", "icon": "partly-cloudy-day", "stations": ["72417613736", "KMGW", "KCKB", "KEKN", "72417503802", "72417013729"], "source": "obs"}], "stations": {"72417613736": {"distance": 64629.0, "latitude": 39.643, "longitude": -79.916, "useCount": 0, "id": "72417613736", "name": "MORGANTOWN HART FIELD, WV US", "quality": 100, "contribution": 0.0}, "KMGW": {"distance": 65041.0, "latitude": 39.65, "longitude": -79.92, "useCount": 0, "id": "KMGW", "name": "KMGW", "quality": 100, "contribution": 0.0}, "KCKB": {"distance": 18702.0, "latitude": 39.29, "longitude": -80.22, "useCount": 0, "id": "KCKB", "name": "KCKB", "quality": 100, "contribution": 0.0}, "KEKN": {"distance": 60455.0, "latitude": 38.88, "longitude": -79.84, "useCount": 0, "id": "KEKN", "name": "KEKN", "quality": 100, "contribution": 0.0}, "72417503802": {"distance": 18405.0, "latitude": 39.296, "longitude": -80.229, "useCount": 0, "id": "72417503802", "name": "CLARKSBURG BENEDUM AIRPORT, WV US", "quality": 99, "contribution": 0.0}, "72417013729": {"distance": 58727.0, "latitude": 38.89, "longitude": -79.855, "useCount": 0, "id": "72417013729", "name": "ELKINS RANDOLPH CO AIRPORT, WV US", "quality": 100, "contribution": 0.0}}}