{"queryCost": 1, "latitude": 40.724, "longitude": -89.636, "resolvedAddress": "40.72400,-89.63600", "address": "40.72400,-89.63600", "timezone": "America/Chicago", "tzoffset": -5.0, "days": [{"datetime": "2017-09-20", "datetimeEpoch": 1505883600, "tempmax": 92.9, "tempmin": 69.0, "temp": 80.1, "feelslikemax": 99.0, "feelslikemin": 69.0, "feelslike": 82.7, "dew": 68.1, "humidity": 69.0, "precip": 0.0, "precipprob": 0.0, "precipcover": 0.0, "preciptype": null, "snow": 0.0, "snowdepth": 0.0, "windgust": 25.3, "windspeed": 18.2, "winddir": 164.0, "pressure": 1010.9, "cloudcover": 1.7, "visibility": 9.7, "solarradiation": 211.6, "solarenergy": 18.3, "uvindex": 7.0, "sunrise": "06:44:17", "sunriseEpoch": 1505907857, "sunset": "18:58:41", "sunsetEpoch": 1505951921, "moonphase": 0.0, "conditions": "Clear", "description": "Clear conditions throughout the day.", "icon": "clear-day", "stations": ["72532014842", "KBMI", "72439754831", "KC75", "A0001704868", "KPIA"], "source": "obs"}], "stations": {"72532014842": {"distance": 7477.0, "latitude": 40.668, "longitude": -89.684, "useCount": 0, "id": "72532014842", "name": "PEORIA INTERNATIONAL AIRPORT, IL US", "quality": 100, "contribution": 0.0}, "KBMI": {"distance": 66332.0, "latitude": 40.48, "longitude": -88.92, "useCount": 0, "id": "KBMI", "name": "BLOOMINGTON/NRML, IL", "quality": 100, "contribution": 0.0}, "72439754831": {"distance": 63871.0, "latitude": 40.483, "longitude": -88.95, "useCount": 0, "id": "72439754831", "name": "BLOOMINGTON NORMAL AIRPORT, IL US", "quality": 100, "contribution": 0.0}, "KC75": {"distance": 39371.0, "latitude": 41.02, "longitude": -89.38, "useCount": 0, "id": "KC75", "name": "KC75", "quality": 100, "contribution": 0.0}, "A0001704868": {"distance": 39004.0, "latitude": 41.019, "longitude": -89.386, "useCount": 0, "id": "A0001704868", "name": "LACON MARSHALL CO AIRPORT, IL US", "quality": 97, "contribution": 0.0}, "KPIA": {"distance": 7066.0, "latitude": 40.67, "longitude": -89.68, "useCount": 0, "id": "KPIA", "name": "KPIA", "quality": 100, "contribution": 0.0}}}