{"queryCost": 1, "latitude": 34.03, "longitude": -95.875, "resolvedAddress": "34.03000,-95.87500", "address": "34.03000,-95.87500", "timezone": "America/Chicago", "tzoffset": -5.0, "days": [{"datetime": "2017-09-21", "datetimeEpoch": 1505970000, "tempmax": 92.8, "tempmin": 72.9, "temp": 82.0, "feelslikemax": 96.9, "feelslikemin": 72.9, "feelslike": 84.1, "dew": 69.8, "humidity": 69.0, "precip": 0.0, "precipprob": 0.0, "precipcover": 0.0, "preciptype": null, "snow": 0.0, "snowdepth": 0.0, "windgust": 21.4, "windspeed": 14.2, "winddir": 153.5, "pressure": 1014.7, "cloudcover": 16.3, "visibility": 9.4, "solarradiation": 127.9, "solarenergy": 10.8, "uvindex": 5.0, "sunrise": "07:11:00", "sunriseEpoch": 1505995860, "sunset": "19:21:18", "sunsetEpoch": 1506039678, "moonphase": 0.01, "conditions": "Clear", "description": "Clear conditions throughout the day.", "icon": "clear-day", "stations": ["KAQR", "KDUA", "KPRX", "74251353937", "72258793955", "72205153932"], "source": "obs"}], "stations": {"KAQR": {"distance": 48346.0, "latitude": 34.4, "longitude": -96.15, "useCount": 0, "id": "KAQR", "name": "KAQR", "quality": 85, "contribution": 0.0}, "KDUA": {"distance": 48581.0, "latitude": 33.94, "longitude": -96.39, "useCount": 0, "id": "KDUA", "name": "KDUA", "quality": 46, "contribution": 0.0}, "KPRX": {"distance": 59391.0, "latitude": 33.63, "longitude": -95.45, "useCount": 0, "id": "KPRX", "name": "PARIS/COX, TX", "quality": 100, "contribution": 0.0}, "74251353937": {"distance": 48928.0, "latitude": 33.942, "longitude": -96.394, "useCount": 0, "id": "74251353937", "name": "DURANT EAKER FIELD AIRPORT, OK US", "quality": 50, "contribution": 0.0}, "72258793955": {"distance": 59115.0, "latitude": 33.633, "longitude": -95.45, "useCount": 0, "id": "72258793955", "name": "PARIS, TX US", "quality": 99, "contribution": 0.0}, "72205153932": {"distance": 48093.0, "latitude": 34.398, "longitude": -96.148, "useCount": 0, "id": "72205153932", "name": "ATOKA MUNICIPAL AIRPORT, OK US", "quality": 84, "contribution": 0.0}}}