{"queryCost": 1, "latitude": 39.569, "longitude": -105.109, "resolvedAddress": "39.56900,-105.10900", "address": "39.56900,-105.10900", "timezone": "America/Denver", "tzoffset": -6.0, "days": [{"datetime": "2017-09-21", "datetimeEpoch": 1505973600, "tempmax": 87.3, "tempmin": 56.0, "temp": 73.3, "feelslikemax": 83.7, "feelslikemin": 56.0, "feelslike": 72.3, "dew": 23.6, "humidity": 17.8, "precip": 0.0, "precipprob": 0.0, "precipcover": 0.0, "preciptype": null, "snow": 0.0, "snowdepth": 0.0, "windgust": 33.3, "windspeed": 21.6, "winddir": 189.3, "pressure": 1000.7, "cloudcover": 14.8, "visibility": 9.9, "solarradiation": 273.0, "solarenergy": 23.6, "uvindex": 9.0, "sunrise": "06:47:21", "sunriseEpoch": 1505998041, "sunset": "18:58:41", "sunsetEpoch": 1506041921, "moonphase": 0.01, "conditions": "Clear", "description": "Clear conditions throughout the day.", "icon": "clear-day", "stations": ["KBKF", "KDEN", "KAPA", "72469523036", "72565003017", "72466693067"], "source": "obs"}], "stations": {"KBKF": {"distance": 35064.0, "latitude": 39.72, "longitude": -104.75, "useCount": 0, "id": "KBKF", "name": "KBKF", "quality": 100, "contribution": 0.0}, "KDEN": {"distance": 49624.0, "latitude": 39.86, "longitude": -104.67, "useCount": 0, "id": "KDEN", "name": "KDEN", "quality": 100, "contribution": 0.0}, "KAPA": {"distance": 22225.0, "latitude": 39.57, "longitude": -104.85, "useCount": 0, "id": "KAPA", "name": "KAPA", "quality": 100, "contribution": 0.0}, "72469523036": {"distance": 34890.0, "latitude": 39.717, "longitude": -104.75, "useCount": 0, "id": "72469523036", "name": "AURORA BUCKLEY FIELD ANGB, CO US", "quality": 100, "contribution": 0.0}, "72565003017": {"distance": 48522.0, "latitude": 39.833, "longitude": -104.658, "useCount": 0, "id": "72565003017", "name": "DENVER INTERNATIONAL AIRPORT, CO US", "quality": 100, "contribution": 0.0}, "72466693067": {"distance": 22311.0, "latitude": 39.57, "longitude": -104.849, "useCount": 0, "id": "72466693067", "name": "DENVER CENTENNIAL AIRPORT, CO US", "quality": 100, "contribution": 0.0}}}