{"queryCost": 1, "latitude": 39.857, "longitude": -104.911, "resolvedAddress": "39.85700,-104.91100", "address": "39.85700,-104.91100", "timezone": "America/Denver", "tzoffset": -6.0, "days": [{"datetime": "2017-09-22", "datetimeEpoch": 1506060000, "tempmax": 80.9, "tempmin": 49.1, "temp": 65.7, "feelslikemax": 80.0, "feelslikemin": 46.0, "feelslike": 65.5, "dew": 34.4, "humidity": 34.4, "precip": 0.0, "precipprob": 0.0, "precipcover": 0.0, "preciptype": null, "snow": 0.0, "snowdepth": 0.0, "windgust": 35.6, "windspeed": 20.5, "winddir": 224.1, "pressure": 1002.2, "cloudcover": 43.4, "visibility": 9.9, "solarradiation": 245.8, "solarenergy": 21.1, "uvindex": 8.0, "sunrise": "06:47:28", "sunriseEpoch": 1506084448, "sunset": "18:56:17", "sunsetEpoch": 1506128177, "moonphase": 0.03, "conditions": "Partially cloudy", "description": "Becoming cloudy in the afternoon.", "icon": "partly-cloudy-day", "stations": ["KBKF", "KDEN", "72469523036", "KAPA", "72565003017", "72466693067"], "source": "obs"}], "stations": {"KBKF": {"distance": 20549.0, "latitude": 39.72, "longitude": -104.75, "useCount": 0, "id": "KBKF", "name": "KBKF", "quality": 100, "contribution": 0.0}, "KDEN": {"distance": 20597.0, "latitude": 39.86, "longitude": -104.67, "useCount": 0, "id": "KDEN", "name": "KDEN", "quality": 100, "contribution": 0.0}, "72469523036": {"distance": 20823.0, "latitude": 39.717, "longitude": -104.75, "useCount": 0, "id": "72469523036", "name": "AURORA BUCKLEY FIELD ANGB, CO US", "quality": 100, "contribution": 0.0}, "KAPA": {"distance": 32373.0, "latitude": 39.57, "longitude": -104.85, "useCount": 0, "id": "KAPA", "name": "KAPA", "quality": 100, "contribution": 0.0}, "72565003017": {"distance": 21791.0, "latitude": 39.833, "longitude": -104.658, "useCount": 0, "id": "72565003017", "name": "DENVER INTERNATIONAL AIRPORT, CO US", "quality": 100, "contribution": 0.0}, "72466693067": {"distance": 32354.0, "latitude": 39.57, "longitude": -104.849, "useCount": 0, "id": "72466693067", "name": "DENVER CENTENNIAL AIRPORT, CO US", "quality": 100, "contribution": 0.0}}}