{"queryCost": 1, "latitude": 39.681, "longitude": -86.273, "resolvedAddress": "39.68100,-86.27300", "address": "39.68100,-86.27300", "timezone": "America/Indiana/Indianapolis", "tzoffset": -4.0, "days": [{"datetime": "2015-04-06", "datetimeEpoch": 1428292800, "tempmax": 60.9, "tempmin": 47.7, "temp": 56.1, "feelslikemax": 60.9, "feelslikemin": 44.2, "feelslike": 55.7, "dew": 38.5, "humidity": 53.8, "precip": 0.0, "precipprob": 0.0, "precipcover": 0.0, "preciptype": null, "snow": 0.0, "snowdepth": 0.0, "windgust": 19.7, "windspeed": 14.9, "winddir": 181.5, "pressure": 1017.0, "cloudcover": 91.9, "visibility": 9.9, "solarradiation": 100.7, "solarenergy": 8.8, "uvindex": 3.0, "sunrise": "07:21:41", "sunriseEpoch": 1428319301, "sunset": "20:14:02", "sunsetEpoch": 1428365642, "moonphase": 0.52, "conditions": "Overcast", "description": "Cloudy skies throughout the day.", "icon": "cloudy", "stations": ["72435653866", "KEYE", "KIND", "72438093819", "72438453842", "72057500173"], "source": "obs"}], "stations": {"72435653866": {"distance": 41868.0, "latitude": 39.578, "longitude": -85.803, "useCount": 0, "id": "72435653866", "name": "SHELBYVILLE MUNICIPAL AIRPORT, IN US", "quality": 100, "contribution": 0.0}, "KEYE": {"distance": 16650.0, "latitude": 39.83, "longitude": -86.29, "useCount": 0, "id": "KEYE", "name": "KEYE", "quality": 100, "contribution": 0.0}, "KIND": {"distance": 4349.0, "latitude": 39.72, "longitude": -86.27, "useCount": 0, "id": "KIND", "name": "KIND", "quality": 100, "contribution": 0.0}, "72438093819": {"distance": 4976.0, "latitude": 39.725, "longitude": -86.282, "useCount": 0, "id": "72438093819", "name": "INDIANAPOLIS INTERNATIONAL AIRPORT, IN US", "quality": 100, "contribution": 0.0}, "72438453842": {"distance": 16148.0, "latitude": 39.825, "longitude": -86.296, "useCount": 0, "id": "72438453842", "name": "INDIANAPOLIS EAGLE CREEK AIRPORT, IN US", "quality": 100, "contribution": 0.0}, "72057500173": {"distance": 39007.0, "latitude": 40.031, "longitude": -86.251, "useCount": 0, "id": "72057500173", "name": "INDIANAPOLIS EXECUTIVE AIRPORT, IN US", "quality": 100, "contribution": 0.0}}}