{"queryCost": 1, "latitude": 40.194, "longitude": -80.291, "resolvedAddress": "40.19400,-80.29100", "address": "40.19400,-80.29100", "timezone": "America/New_York", "tzoffset": -4.0, "days": [{"datetime": "2017-10-01", "datetimeEpoch": 1506830400, "tempmax": 69.0, "tempmin": 35.0, "temp": 50.7, "feelslikemax": 69.0, "feelslikemin": 35.0, "feelslike": 50.7, "dew": 38.9, "humidity": 69.0, "precip": 0.0, "precipprob": 0.0, "precipcover": 0.0, "preciptype": null, "snow": 0.0, "snowdepth": 0.0, "windgust": null, "windspeed": 8.9, "winddir": 41.4, "pressure": 1028.4, "cloudcover": 5.6, "visibility": 9.6, "solarradiation": 235.5, "solarenergy": 20.5, "uvindex": 8.0, "sunrise": "07:17:41", "sunriseEpoch": 1506856661, "sunset": "19:03:03", "sunsetEpoch": 1506898983, "moonphase": 0.4, "conditions": "Clear", "description": "Clear conditions throughout the day.", "icon": "clear-day", "stations": ["KPIT", "72427514894", "KAFJ", "72520094823", "KHLG"], "source": "obs"}], "stations": {"KAFJ": {"distance": 7186.0, "latitude": 40.13, "longitude": -80.28, "useCount": 0, "id": "KAFJ", "name": "WASHINGTON, PA", "quality": 99, "contribution": 0.0}, "72520094823": {"distance": 32996.0, "latitude": 40.485, "longitude": -80.214, "useCount": 0, "id": "72520094823", "name": "PITTSBURGH ASOS, PA US", "quality": 100, "contribution": 0.0}, "KPIT": {"distance": 34592.0, "latitude": 40.5, "longitude": -80.22, "useCount": 0, "id": "KPIT", "name": "KPIT", "quality": 100, "contribution": 0.0}, "KHLG": {"distance": 30570.0, "latitude": 40.18, "longitude": -80.65, "useCount": 0, "id": "KHLG", "name": "KHLG", "quality": 100, "contribution": 0.0}, "72427514894": {"distance": 30356.0, "latitude": 40.176, "longitude": -80.647, "useCount": 0, "id": "72427514894", "name": "WHEELING OHIO CO AIRPORT, WV US", "quality": 100, "contribution": 0.0}}}