{"queryCost": 1, "latitude": 38.571, "longitude": -92.175, "resolvedAddress": "38.57100,-92.17500", "address": "38.57100,-92.17500", "timezone": "America/Chicago", "tzoffset": -5.0, "days": [{"datetime": "2017-10-03", "datetimeEpoch": 1507006800, "tempmax": 77.0, "tempmin": 70.1, "temp": 73.4, "feelslikemax": 77.0, "feelslikemin": 70.1, "feelslike": 73.4, "dew": 65.7, "humidity": 77.2, "precip": 1.36, "precipprob": 100.0, "precipcover": 20.83, "preciptype": ["rain"], "snow": 0.0, "snowdepth": 0.0, "windgust": 25.3, "windspeed": 13.9, "winddir": 152.3, "pressure": 1021.6, "cloudcover": 81.1, "visibility": 8.8, "solarradiation": 172.9, "solarenergy": 14.9, "uvindex": 6.0, "sunrise": "07:06:34", "sunriseEpoch": 1507032394, "sunset": "18:48:00", "sunsetEpoch": 1507074480, "moonphase": 0.47, "conditions": "Rain, Partially cloudy", "description": "Partly cloudy throughout the day with late afternoon rain.", "icon": "rain", "stations": ["72445803963", "KJEF", "72442013997", "KVIH", "72445003945", "KCOU"], "source": "obs"}], "stations": {"72445803963": {"distance": 2793.0, "latitude": 38.591, "longitude": -92.156, "useCount": 0, "id": "72445803963", "name": "JEFFERSON CITY MEMORIAL AIRPORT, MO US", "quality": 100, "contribution": 0.0}, "KJEF": {"distance": 2395.0, "latitude": 38.58, "longitude": -92.15, "useCount": 0, "id": "KJEF", "name": "KJEF", "quality": 100, "contribution": 0.0}, "72442013997": {"distance": 60613.0, "latitude": 38.132, "longitude": -91.765, "useCount": 0, "id": "72442013997", "name": "VICHY ROLLA NATIONAL AIRPORT, MO US", "quality": 100, "contribution": 0.0}, "KVIH": {"distance": 60499.0, "latitude": 38.13, "longitude": -91.77, "useCount": 0, "id": "KVIH", "name": "KVIH", "quality": 100, "contribution": 0.0}, "72445003945": {"distance": 27631.0, "latitude": 38.817, "longitude": -92.218, "useCount": 0, "id": "72445003945", "name": "COLUMBIA REGIONAL AIRPORT, MO US", "quality": 100, "contribution": 0.0}, "KCOU": {"distance": 27993.0, "latitude": 38.82, "longitude": -92.22, "useCount": 0, "id": "KCOU", "name": "KCOU", "quality": 100, "contribution": 0.0}}}