{"queryCost": 1, "latitude": 33.379, "longitude": -111.849, "resolvedAddress": "33.37900,-111.84900", "address": "33.37900,-111.84900", "timezone": "America/Phoenix", "tzoffset": -7.0, "days": [{"datetime": "2017-10-08", "datetimeEpoch": 1507446000, "tempmax": 92.3, "tempmin": 64.4, "temp": 78.9, "feelslikemax": 87.9, "feelslikemin": 64.4, "feelslike": 77.0, "dew": 25.0, "humidity": 15.0, "precip": 0.0, "precipprob": 0.0, "precipcover": 0.0, "preciptype": null, "snow": 0.0, "snowdepth": 0.0, "windgust": null, "windspeed": 10.0, "winddir": 158.3, "pressure": 1003.4, "cloudcover": 3.2, "visibility": 15.0, "solarradiation": 249.1, "solarenergy": 21.6, "uvindex": 9.0, "sunrise": "06:26:53", "sunriseEpoch": 1507469213, "sunset": "18:02:13", "sunsetEpoch": 1507510933, "moonphase": 0.55, "conditions": "Clear", "description": "Clear conditions throughout the day.", "icon": "clear-day", "stations": ["72278903192", "KSDL", "72278023183", "KPHX", "72278303185", "KFFZ"], "source": "obs"}], "stations": {"72278903192": {"distance": 27743.0, "latitude": 33.623, "longitude": -111.911, "useCount": 0, "id": "72278903192", "name": "SCOTTSDALE MUNICIPAL AIRPORT, AZ US", "quality": 100, "contribution": 0.0}, "KSDL": {"distance": 26546.0, "latitude": 33.61, "longitude": -111.92, "useCount": 0, "id": "KSDL", "name": "KSDL", "quality": 100, "contribution": 0.0}, "72278023183": {"distance": 15391.0, "latitude": 33.428, "longitude": -112.004, "useCount": 0, "id": "72278023183", "name": "PHOENIX AIRPORT, AZ US", "quality": 100, "contribution": 0.0}, "KPHX": {"distance": 16875.0, "latitude": 33.43, "longitude": -112.02, "useCount": 0, "id": "KPHX", "name": "KPHX", "quality": 100, "contribution": 0.0}, "72278303185": {"distance": 14542.0, "latitude": 33.467, "longitude": -111.733, "useCount": 0, "id": "72278303185", "name": "MESA FALCON FIELD, AZ US", "quality": 100, "contribution": 0.0}, "KFFZ": {"distance": 14995.0, "latitude": 33.47, "longitude": -111.73, "useCount": 0, "id": "KFFZ", "name": "FALCON FLD MESA, AZ", "quality": 100, "contribution": 0.0}}}