{"queryCost": 1, "latitude": 28.514, "longitude": -81.332, "resolvedAddress": "28.51400,-81.33200", "address": "28.51400,-81.33200", "timezone": "America/New_York", "tzoffset": -4.0, "days": [{"datetime": "2017-10-06", "datetimeEpoch": 1507262400, "tempmax": 89.4, "tempmin": 74.3, "temp": 79.8, "feelslikemax": 102.2, "feelslikemin": 74.3, "feelslike": 83.3, "dew": 75.8, "humidity": 88.8, "precip": 0.02, "precipprob": 100.0, "precipcover": 8.33, "preciptype": ["rain"], "snow": 0.0, "snowdepth": 0.0, "windgust": 19.7, "windspeed": 13.4, "winddir": 72.5, "pressure": 1014.5, "cloudcover": 40.9, "visibility": 9.8, "solarradiation": 181.7, "solarenergy": 15.8, "uvindex": 7.0, "sunrise": "07:21:02", "sunriseEpoch": 1507288862, "sunset": "19:05:11", "sunsetEpoch": 1507331111, "moonphase": 0.51, "conditions": "Rain, Partially cloudy", "description": "Partly cloudy throughout the day with late afternoon rain.", "icon": "rain", "stations": ["72205312841", "72201192813", "72205012815", "KISM", "KMCO", "KORL"], "source": "obs"}], "stations": {"72205312841": {"distance": 3486.0, "latitude": 28.545, "longitude": -81.333, "useCount": 0, "id": "72205312841", "name": "ORLANDO EXECUTIVE AIRPORT, FL US", "quality": 100, "contribution": 0.0}, "72201192813": {"distance": 26999.0, "latitude": 28.29, "longitude": -81.437, "useCount": 0, "id": "72201192813", "name": "ORLANDO KISSIMMEE MUNICIPAL AIRPORT, FL US", "quality": 99, "contribution": 0.0}, "72205012815": {"distance": 8943.0, "latitude": 28.434, "longitude": -81.325, "useCount": 0, "id": "72205012815", "name": "ORLANDO INTERNATIONAL AIRPORT, FL US", "quality": 100, "contribution": 0.0}, "KISM": {"distance": 27085.0, "latitude": 28.29, "longitude": -81.44, "useCount": 0, "id": "KISM", "name": "KISSIMMEE AIRPORT, FL", "quality": 100, "contribution": 0.0}, "KMCO": {"distance": 9595.0, "latitude": 28.43, "longitude": -81.31, "useCount": 0, "id": "KMCO", "name": "KMCO", "quality": 100, "contribution": 0.0}, "KORL": {"distance": 4012.0, "latitude": 28.55, "longitude": -81.33, "useCount": 0, "id": "KORL", "name": "KORL", "quality": 100, "contribution": 0.0}}}