{"queryCost": 1, "latitude": 46.827, "longitude": -123.161, "resolvedAddress": "46.82700,-123.16100", "address": "46.82700,-123.16100", "timezone": "America/Los_Angeles", "tzoffset": -7.0, "days": [{"datetime": "2017-10-10", "datetimeEpoch": 1507618800, "tempmax": 58.8, "tempmin": 40.2, "temp": 47.9, "feelslikemax": 58.8, "feelslikemin": 37.2, "feelslike": 46.5, "dew": 42.3, "humidity": 83.1, "precip": 0.0, "precipprob": 0.0, "precipcover": 0.0, "preciptype": null, "snow": 0.0, "snowdepth": 0.0, "windgust": 32.2, "windspeed": 11.2, "winddir": 203.2, "pressure": 1012.8, "cloudcover": 25.0, "visibility": 9.7, "solarradiation": 120.5, "solarenergy": 10.3, "uvindex": 5.0, "sunrise": "07:24:00", "sunriseEpoch": 1507645440, "sunset": "18:34:12", "sunsetEpoch": 1507685652, "moonphase": 0.64, "conditions": "Partially cloudy", "description": "Partly cloudy throughout the day.", "icon": "partly-cloudy-day", "stations": ["72792024227", "KOLM", "72025400119", "72792594227", "KCLS", "KSHN"], "source": "obs"}], "stations": {"72792024227": {"distance": 25502.0, "latitude": 46.973, "longitude": -122.903, "useCount": 0, "id": "72792024227", "name": "OLYMPIA AIRPORT, WA US", "quality": 100, "contribution": 0.0}, "KOLM": {"distance": 25447.0, "latitude": 46.97, "longitude": -122.9, "useCount": 0, "id": "KOLM", "name": "KOLM", "quality": 100, "contribution": 0.0}, "72025400119": {"distance": 21006.0, "latitude": 46.683, "longitude": -122.983, "useCount": 0, "id": "72025400119", "name": "CHEHALIS CENTRALIA AIRPORT, WA US", "quality": 100, "contribution": 0.0}, "72792594227": {"distance": 45777.0, "latitude": 47.238, "longitude": -123.141, "useCount": 0, "id": "72792594227", "name": "SHELTON AIRPORT, WA US", "quality": 100, "contribution": 0.0}, "KCLS": {"distance": 21409.0, "latitude": 46.68, "longitude": -122.98, "useCount": 0, "id": "KCLS", "name": "KCLS", "quality": 98, "contribution": 0.0}, "KSHN": {"distance": 44870.0, "latitude": 47.23, "longitude": -123.15, "useCount": 0, "id": "KSHN", "name": "KSHN", "quality": 100, "contribution": 0.0}}}