{"queryCost": 1, "latitude": 32.35, "longitude": -111.098, "resolvedAddress": "32.35000,-111.09800", "address": "32.35000,-111.09800", "timezone": "America/Phoenix", "tzoffset": -7.0, "days": [{"datetime": "2017-10-11", "datetimeEpoch": 1507705200, "tempmax": 94.9, "tempmin": 69.1, "temp": 80.9, "feelslikemax": 90.3, "feelslikemin": 69.1, "feelslike": 79.1, "dew": 35.8, "humidity": 20.5, "precip": 0.0, "precipprob": 0.0, "precipcover": 0.0, "preciptype": null, "snow": 0.0, "snowdepth": 0.0, "windgust": 27.5, "windspeed": 17.7, "winddir": 156.8, "pressure": 1009.2, "cloudcover": 0.9, "visibility": 9.9, "solarradiation": 239.7, "solarenergy": 20.9, "uvindex": 8.0, "sunrise": "06:25:24", "sunriseEpoch": 1507728324, "sunset": "17:56:06", "sunsetEpoch": 1507769766, "moonphase": 0.7, "conditions": "Clear", "description": "Clear conditions throughout the day.", "icon": "clear-day", "stations": ["KAVQ", "72274023160", "KTUS", "99999953131", "KDMA", "72274523109"], "source": "obs"}], "stations": {"KAVQ": {"distance": 11910.0, "latitude": 32.4, "longitude": -111.21, "useCount": 0, "id": "KAVQ", "name": "KAVQ", "quality": 99, "contribution": 0.0}, "72274023160": {"distance": 27821.0, "latitude": 32.131, "longitude": -110.955, "useCount": 0, "id": "72274023160", "name": "TUCSON INTERNATIONAL AIRPORT, AZ US", "quality": 100, "contribution": 0.0}, "KTUS": {"distance": 27724.0, "latitude": 32.13, "longitude": -110.96, "useCount": 0, "id": "KTUS", "name": "KTUS", "quality": 100, "contribution": 0.0}, "99999953131": {"distance": 14043.0, "latitude": 32.24, "longitude": -111.17, "useCount": 0, "id": "99999953131", "name": "TUCSON 11 W, AZ US", "quality": 100, "contribution": 0.0}, "KDMA": {"distance": 28682.0, "latitude": 32.17, "longitude": -110.88, "useCount": 0, "id": "KDMA", "name": "KDMA", "quality": 100, "contribution": 0.0}, "72274523109": {"distance": 28740.0, "latitude": 32.167, "longitude": -110.883, "useCount": 0, "id": "72274523109", "name": "DAVIS MONTHAN AFB, AZ US", "quality": 97, "contribution": 0.0}}}