{"queryCost": 1, "latitude": 35.2, "longitude": -111.614, "resolvedAddress": "35.20000,-111.61400", "address": "35.20000,-111.61400", "timezone": "America/Phoenix", "tzoffset": -7.0, "days": [{"datetime": "2017-10-12", "datetimeEpoch": 1507791600, "tempmax": 69.2, "tempmin": 37.0, "temp": 54.6, "feelslikemax": 69.2, "feelslikemin": 33.3, "feelslike": 53.8, "dew": 20.3, "humidity": 28.2, "precip": 0.0, "precipprob": 0.0, "precipcover": 0.0, "preciptype": null, "snow": 0.0, "snowdepth": 0.0, "windgust": 36.5, "windspeed": 23.8, "winddir": 233.0, "pressure": 1014.2, "cloudcover": 0.0, "visibility": 9.9, "solarradiation": 240.2, "solarenergy": 20.9, "uvindex": 8.0, "sunrise": "06:30:16", "sunriseEpoch": 1507815016, "sunset": "17:54:49", "sunsetEpoch": 1507856089, "moonphase": 0.75, "conditions": "Clear", "description": "Clear conditions throughout the day.", "icon": "clear-day", "stations": ["72376099999", "KFLG", "72375600375", "72375003103", "KSEZ", "KCMR"], "source": "obs"}], "stations": {"72376099999": {"distance": 18557.0, "latitude": 35.217, "longitude": -111.817, "useCount": 0, "id": "72376099999", "name": "FLAGSTAFF, AZ US", "quality": 67, "contribution": 0.0}, "KFLG": {"distance": 9311.0, "latitude": 35.13, "longitude": -111.67, "useCount": 0, "id": "KFLG", "name": "KFLG", "quality": 100, "contribution": 0.0}, "72375600375": {"distance": 41897.0, "latitude": 34.85, "longitude": -111.783, "useCount": 0, "id": "72375600375", "name": "SEDONA AIRPORT, AZ US", "quality": 100, "contribution": 0.0}, "72375003103": {"distance": 7817.0, "latitude": 35.144, "longitude": -111.666, "useCount": 0, "id": "72375003103", "name": "FLAGSTAFF PULLIAM AIRPORT, AZ US", "quality": 100, "contribution": 0.0}, "KSEZ": {"distance": 41797.0, "latitude": 34.85, "longitude": -111.78, "useCount": 0, "id": "KSEZ", "name": "KSEZ", "quality": 100, "contribution": 0.0}, "KCMR": {"distance": 54209.0, "latitude": 35.29, "longitude": -112.2, "useCount": 0, "id": "KCMR", "name": "KCMR", "quality": 99, "contribution": 0.0}}}