{"queryCost": 1, "latitude": 32.345, "longitude": -111.199, "resolvedAddress": "32.34500,-111.19900", "address": "32.34500,-111.19900", "timezone": "America/Phoenix", "tzoffset": -7.0, "days": [{"datetime": "2017-10-16", "datetimeEpoch": 1508137200, "tempmax": 93.5, "tempmin": 68.4, "temp": 80.1, "feelslikemax": 89.0, "feelslikemin": 68.4, "feelslike": 78.5, "dew": 30.9, "humidity": 17.0, "precip": 0.0, "precipprob": 0.0, "precipcover": 0.0, "preciptype": null, "snow": 0.0, "snowdepth": 0.0, "windgust": 33.4, "windspeed": 12.2, "winddir": 136.2, "pressure": 1016.1, "cloudcover": 0.0, "visibility": 9.9, "solarradiation": 231.0, "solarenergy": 20.0, "uvindex": 8.0, "sunrise": "06:29:27", "sunriseEpoch": 1508160567, "sunset": "17:50:33", "sunsetEpoch": 1508201433, "moonphase": 0.95, "conditions": "Clear", "description": "Clear conditions throughout the day.", "icon": "clear-day", "stations": ["KAVQ", "72274023160", "KTUS", "99999953131", "72274523109", "KDMA"], "source": "obs"}], "stations": {"KAVQ": {"distance": 6209.0, "latitude": 32.4, "longitude": -111.21, "useCount": 0, "id": "KAVQ", "name": "KAVQ", "quality": 99, "contribution": 0.0}, "72274023160": {"distance": 33072.0, "latitude": 32.131, "longitude": -110.955, "useCount": 0, "id": "72274023160", "name": "TUCSON INTERNATIONAL AIRPORT, AZ US", "quality": 100, "contribution": 0.0}, "KTUS": {"distance": 32852.0, "latitude": 32.13, "longitude": -110.96, "useCount": 0, "id": "KTUS", "name": "KTUS", "quality": 100, "contribution": 0.0}, "99999953131": {"distance": 12057.0, "latitude": 32.24, "longitude": -111.17, "useCount": 0, "id": "99999953131", "name": "TUCSON 11 W, AZ US", "quality": 100, "contribution": 0.0}, "72274523109": {"distance": 35762.0, "latitude": 32.167, "longitude": -110.883, "useCount": 0, "id": "72274523109", "name": "DAVIS MONTHAN AFB, AZ US", "quality": 97, "contribution": 0.0}, "KDMA": {"distance": 35795.0, "latitude": 32.17, "longitude": -110.88, "useCount": 0, "id": "KDMA", "name": "KDMA", "quality": 100, "contribution": 0.0}}}