{"queryCost": 1, "latitude": 37.356, "longitude": -120.583, "resolvedAddress": "37.35600,-120.58300", "address": "37.35600,-120.58300", "timezone": "America/Los_Angeles", "tzoffset": -7.0, "days": [{"datetime": "2017-10-16", "datetimeEpoch": 1508137200, "tempmax": 82.3, "tempmin": 42.8, "temp": 60.9, "feelslikemax": 80.0, "feelslikemin": 41.4, "feelslike": 60.5, "dew": 38.3, "humidity": 49.9, "precip": 0.0, "precipprob": 0.0, "precipcover": 0.0, "preciptype": null, "snow": 0.0, "snowdepth": 0.0, "windgust": null, "windspeed": 5.8, "winddir": 134.4, "pressure": 1019.3, "cloudcover": 0.0, "visibility": 7.0, "solarradiation": 182.8, "solarenergy": 15.8, "uvindex": 7.0, "sunrise": "07:11:32", "sunriseEpoch": 1508163092, "sunset": "18:23:26", "sunsetEpoch": 1508203406, "moonphase": 0.95, "conditions": "Clear", "description": "Clear conditions throughout the day.", "icon": "clear-day", "stations": ["KMOD", "KMAE", "KMCE", "72492623258", "72481523257", "99999993243"], "source": "obs"}], "stations": {"KMOD": {"distance": 44509.0, "latitude": 37.63, "longitude": -120.95, "useCount": 0, "id": "KMOD", "name": "KMOD", "quality": 100, "contribution": 0.0}, "KMAE": {"distance": 58483.0, "latitude": 36.99, "longitude": -120.11, "useCount": 0, "id": "KMAE", "name": "KMAE", "quality": 100, "contribution": 0.0}, "KMCE": {"distance": 11206.0, "latitude": 37.28, "longitude": -120.5, "useCount": 0, "id": "KMCE", "name": "KMCE", "quality": 100, "contribution": 0.0}, "72492623258": {"distance": 44128.0, "latitude": 37.624, "longitude": -120.951, "useCount": 0, "id": "72492623258", "name": "MODESTO CITY CO AIRPORT, CA US", "quality": 100, "contribution": 0.0}, "72481523257": {"distance": 10070.0, "latitude": 37.285, "longitude": -120.513, "useCount": 0, "id": "72481523257", "name": "MERCED MUNICIPAL AIRPORT, CA US", "quality": 100, "contribution": 0.0}, "99999993243": {"distance": 29552.0, "latitude": 37.238, "longitude": -120.882, "useCount": 0, "id": "99999993243", "name": "MERCED 23 WSW, CA US", "quality": 100, "contribution": 0.0}}}