{"queryCost": 1, "latitude": 41.221, "longitude": -76.019, "resolvedAddress": "41.22100,-76.01900", "address": "41.22100,-76.01900", "timezone": "America/New_York", "tzoffset": -4.0, "days": [{"datetime": "2017-10-24", "datetimeEpoch": 1508817600, "tempmax": 71.0, "tempmin": 58.5, "temp": 65.8, "feelslikemax": 71.0, "feelslikemin": 58.5, "feelslike": 65.8, "dew": 57.5, "humidity": 75.7, "precip": 0.45, "precipprob": 100.0, "precipcover": 41.67, "preciptype": ["rain"], "snow": 0.0, "snowdepth": 0.0, "windgust": 31.1, "windspeed": 15.7, "winddir": 171.8, "pressure": 1006.8, "cloudcover": 58.7, "visibility": 9.3, "solarradiation": 141.9, "solarenergy": 12.2, "uvindex": 6.0, "sunrise": "07:26:09", "sunriseEpoch": 1508844369, "sunset": "18:09:38", "sunsetEpoch": 1508882978, "moonphase": 0.1, "conditions": "Rain, Partially cloudy", "description": "Partly cloudy throughout the day with rain clearing later.", "icon": "rain", "stations": ["72513014777", "72543454789", "KIPT", "KMPO", "KAVP", "KHZL"], "source": "obs"}], "stations": {"72513014777": {"distance": 27464.0, "latitude": 41.334, "longitude": -75.727, "useCount": 0, "id": "72513014777", "name": "WILKES BARRE SCRANTON INTERNATIONAL AIRPORT, PA US", "quality": 100, "contribution": 0.0}, "72543454789": {"distance": 54362.0, "latitude": 41.139, "longitude": -75.379, "useCount": 0, "id": "72543454789", "name": "MOUNT POCONO POCONO MOUNTAINS MUNICIPAL AIRPORT, PA US", "quality": 100, "contribution": 0.0}, "KIPT": {"distance": 75494.0, "latitude": 41.25, "longitude": -76.92, "useCount": 0, "id": "KIPT", "name": "KIPT", "quality": 100, "contribution": 0.0}, "KMPO": {"distance": 54291.0, "latitude": 41.14, "longitude": -75.38, "useCount": 0, "id": "KMPO", "name": "KMPO", "quality": 100, "contribution": 0.0}, "KAVP": {"distance": 27052.0, "latitude": 41.33, "longitude": -75.73, "useCount": 0, "id": "KAVP", "name": "KAVP", "quality": 100, "contribution": 0.0}, "KHZL": {"distance": 26875.0, "latitude": 40.98, "longitude": -76.0, "useCount": 0, "id": "KHZL", "name": "KHZL", "quality": 100, "contribution": 0.0}}}