{"queryCost": 1, "latitude": 40.434, "longitude": -104.722, "resolvedAddress": "40.43400,-104.72200", "address": "40.43400,-104.72200", "timezone": "America/Denver", "tzoffset": -6.0, "days": [{"datetime": "2017-10-28", "datetimeEpoch": 1509170400, "tempmax": 61.0, "tempmin": 35.6, "temp": 45.7, "feelslikemax": 61.0, "feelslikemin": 32.6, "feelslike": 44.5, "dew": 28.9, "humidity": 53.1, "precip": 0.0, "precipprob": 0.0, "precipcover": 0.0, "preciptype": null, "snow": 0.0, "snowdepth": 0.0, "windgust": 29.9, "windspeed": 18.3, "winddir": 232.6, "pressure": 1020.1, "cloudcover": 71.5, "visibility": 9.6, "solarradiation": 163.5, "solarenergy": 14.2, "uvindex": 6.0, "sunrise": "07:24:27", "sunriseEpoch": 1509197067, "sunset": "18:00:11", "sunsetEpoch": 1509235211, "moonphase": 0.28, "conditions": "Partially cloudy", "description": "Partly cloudy throughout the day.", "icon": "partly-cloudy-day", "stations": ["72476824051", "72476994035", "KFNL", "99999994074", "KGXY", "72053800164"], "source": "obs"}], "stations": {"72476824051": {"distance": 7628.0, "latitude": 40.436, "longitude": -104.632, "useCount": 0, "id": "72476824051", "name": "GREELEY WELD CO AIRPORT, CO US", "quality": 99, "contribution": 0.0}, "72476994035": {"distance": 25056.0, "latitude": 40.45, "longitude": -105.017, "useCount": 0, "id": "72476994035", "name": "FORT COLLINS LOVELAND AIRPORT, CO US", "quality": 100, "contribution": 0.0}, "KFNL": {"distance": 25310.0, "latitude": 40.45, "longitude": -105.02, "useCount": 0, "id": "KFNL", "name": "LOVELAND/FT CLNS, CO", "quality": 100, "contribution": 0.0}, "99999994074": {"distance": 41571.0, "latitude": 40.807, "longitude": -104.755, "useCount": 0, "id": "99999994074", "name": "NUNN 7 NNE, CO US", "quality": 100, "contribution": 0.0}, "KGXY": {"distance": 7808.0, "latitude": 40.43, "longitude": -104.63, "useCount": 0, "id": "KGXY", "name": "GREELEY, CO", "quality": 100, "contribution": 0.0}, "72053800164": {"distance": 48070.0, "latitude": 40.167, "longitude": -105.167, "useCount": 0, "id": "72053800164", "name": "VANCE BRAND AIRPORT, CO US", "quality": 96, "contribution": 0.0}}}