{"queryCost": 1, "latitude": 28.089, "longitude": -81.965, "resolvedAddress": "28.08900,-81.96500", "address": "28.08900,-81.96500", "timezone": "America/New_York", "tzoffset": -4.0, "days": [{"datetime": "2017-11-02", "datetimeEpoch": 1509595200, "tempmax": 83.0, "tempmin": 57.7, "temp": 70.2, "feelslikemax": 83.5, "feelslikemin": 57.7, "feelslike": 70.4, "dew": 59.6, "humidity": 71.6, "precip": 0.0, "precipprob": 0.0, "precipcover": 0.0, "preciptype": null, "snow": 0.0, "snowdepth": 0.0, "windgust": null, "windspeed": 8.2, "winddir": 60.3, "pressure": 1020.7, "cloudcover": 10.3, "visibility": 9.8, "solarradiation": 206.2, "solarenergy": 17.7, "uvindex": 7.0, "sunrise": "07:40:03", "sunriseEpoch": 1509622803, "sunset": "18:42:21", "sunsetEpoch": 1509662541, "moonphase": 0.48, "conditions": "Clear", "description": "Clear conditions throughout the day.", "icon": "clear-day", "stations": ["74793112876", "KZPH", "72037392824", "72104200486", "KGIF", "KPCM"], "source": "obs"}], "stations": {"74793112876": {"distance": 20919.0, "latitude": 28.062, "longitude": -81.754, "useCount": 0, "id": "74793112876", "name": "WINTER HAVEN GILBERT AIRPORT, FL US", "quality": 100, "contribution": 0.0}, "KZPH": {"distance": 23288.0, "latitude": 28.22, "longitude": -82.15, "useCount": 0, "id": "KZPH", "name": "KZPH", "quality": 100, "contribution": 0.0}, "72037392824": {"distance": 21921.0, "latitude": 28.0, "longitude": -82.164, "useCount": 0, "id": "72037392824", "name": "PLANT CITY MUNICIPAL AIRPORT, FL US", "quality": 99, "contribution": 0.0}, "72104200486": {"distance": 24306.0, "latitude": 28.228, "longitude": -82.156, "useCount": 0, "id": "72104200486", "name": "ZEPHYRHILLS MUNICIPAL AIRPORT, FL US", "quality": 100, "contribution": 0.0}, "KGIF": {"distance": 21560.0, "latitude": 28.05, "longitude": -81.75, "useCount": 0, "id": "KGIF", "name": "KGIF", "quality": 100, "contribution": 0.0}, "KPCM": {"distance": 21569.0, "latitude": 28.0, "longitude": -82.16, "useCount": 0, "id": "KPCM", "name": "KPCM", "quality": 99, "contribution": 0.0}}}