{"queryCost": 1, "latitude": 29.12, "longitude": -81.023, "resolvedAddress": "29.12000,-81.02300", "address": "29.12000,-81.02300", "timezone": "America/New_York", "tzoffset": -4.0, "days": [{"datetime": "2017-11-03", "datetimeEpoch": 1509681600, "tempmax": 79.1, "tempmin": 65.9, "temp": 71.3, "feelslikemax": 79.1, "feelslikemin": 65.9, "feelslike": 71.3, "dew": 67.8, "humidity": 89.8, "precip": 0.0, "precipprob": 0.0, "precipcover": 0.0, "preciptype": null, "snow": 0.0, "snowdepth": 0.0, "windgust": 19.7, "windspeed": 18.8, "winddir": 212.5, "pressure": 1019.6, "cloudcover": 30.0, "visibility": 9.9, "solarradiation": 197.7, "solarenergy": 17.2, "uvindex": 7.0, "sunrise": "07:38:26", "sunriseEpoch": 1509709106, "sunset": "18:36:26", "sunsetEpoch": 1509748586, "moonphase": 0.5, "conditions": "Partially cloudy", "description": "Partly cloudy throughout the day.", "icon": "partly-cloudy-day", "stations": ["KFIN", "KSFB", "KDAB", "KDED", "74787012834", "72090400299"], "source": "obs"}], "stations": {"KFIN": {"distance": 41567.0, "latitude": 29.46, "longitude": -81.2, "useCount": 0, "id": "KFIN", "name": "KFIN", "quality": 98, "contribution": 0.0}, "KSFB": {"distance": 42885.0, "latitude": 28.78, "longitude": -81.23, "useCount": 0, "id": "KSFB", "name": "KSFB", "quality": 100, "contribution": 0.0}, "KDAB": {"distance": 7176.0, "latitude": 29.18, "longitude": -81.05, "useCount": 0, "id": "KDAB", "name": "KDAB", "quality": 100, "contribution": 0.0}, "KDED": {"distance": 25877.0, "latitude": 29.06, "longitude": -81.28, "useCount": 0, "id": "KDED", "name": "KDED", "quality": 96, "contribution": 0.0}, "74787012834": {"distance": 7411.0, "latitude": 29.183, "longitude": -81.048, "useCount": 0, "id": "74787012834", "name": "DAYTONA BEACH INTERNATIONAL AIRPORT, FL US", "quality": 100, "contribution": 0.0}, "72090400299": {"distance": 25970.0, "latitude": 29.067, "longitude": -81.283, "useCount": 0, "id": "72090400299", "name": "DELAND MUNICIPAL AIRPORT SYDNEY H TAYLOR FIELD, FL US", "quality": 100, "contribution": 0.0}}}