{"queryCost": 1, "latitude": 42.264, "longitude": -89.025, "resolvedAddress": "42.26400,-89.02500", "address": "42.26400,-89.02500", "timezone": "America/Chicago", "tzoffset": -5.0, "days": [{"datetime": "2017-11-05", "datetimeEpoch": 1509858000, "tempmax": 50.9, "tempmin": 39.8, "temp": 46.5, "feelslikemax": 50.9, "feelslikemin": 32.1, "feelslike": 43.9, "dew": 43.3, "humidity": 89.0, "precip": 0.0, "precipprob": 0.0, "precipcover": 0.0, "preciptype": null, "snow": 0.0, "snowdepth": 0.0, "windgust": 17.2, "windspeed": 13.8, "winddir": 282.4, "pressure": 1011.3, "cloudcover": 89.3, "visibility": 5.4, "solarradiation": 64.2, "solarenergy": 5.8, "uvindex": 3.0, "sunrise": "06:34:32", "sunriseEpoch": 1509885272, "sunset": "16:44:16", "sunsetEpoch": 1509921856, "moonphase": 0.52, "conditions": "Partially cloudy", "description": "Partly cloudy throughout the day.", "icon": "partly-cloudy-day", "stations": ["72543094822", "KRPJ", "72207504871", "KDKB", "KRFD", "72218204890"], "source": "obs"}], "stations": {"72543094822": {"distance": 9717.0, "latitude": 42.193, "longitude": -89.093, "useCount": 0, "id": "72543094822", "name": "ROCKFORD GREATER ROCKFORD AIRPORT, IL US", "quality": 100, "contribution": 0.0}, "KRPJ": {"distance": 41881.0, "latitude": 41.89, "longitude": -89.08, "useCount": 0, "id": "KRPJ", "name": "KRPJ", "quality": 100, "contribution": 0.0}, "72207504871": {"distance": 45316.0, "latitude": 41.932, "longitude": -88.708, "useCount": 0, "id": "72207504871", "name": "DE KALB TAYLOR MUNICIPAL AIRPORT, IL US", "quality": 100, "contribution": 0.0}, "KDKB": {"distance": 45381.0, "latitude": 41.93, "longitude": -88.71, "useCount": 0, "id": "KDKB", "name": "KDKB", "quality": 100, "contribution": 0.0}, "KRFD": {"distance": 9433.0, "latitude": 42.2, "longitude": -89.1, "useCount": 0, "id": "KRFD", "name": "KRFD", "quality": 100, "contribution": 0.0}, "72218204890": {"distance": 41554.0, "latitude": 41.893, "longitude": -89.078, "useCount": 0, "id": "72218204890", "name": "ROCHELLE MUNICIPAL KORITZ FIELD AIRPORT, IL US", "quality": 100, "contribution": 0.0}}}