{"queryCost": 1, "latitude": 39.748, "longitude": -104.995, "resolvedAddress": "39.74800,-104.99500", "address": "39.74800,-104.99500", "timezone": "America/Denver", "tzoffset": -7.0, "days": [{"datetime": "2017-11-10", "datetimeEpoch": 1510297200, "tempmax": 61.7, "tempmin": 25.3, "temp": 39.7, "feelslikemax": 61.7, "feelslikemin": 19.0, "feelslike": 38.1, "dew": 27.7, "humidity": 68.1, "precip": 0.0, "precipprob": 0.0, "precipcover": 0.0, "preciptype": null, "snow": 0.0, "snowdepth": 0.0, "windgust": null, "windspeed": 10.9, "winddir": 151.8, "pressure": 1014.9, "cloudcover": 53.5, "visibility": 9.0, "solarradiation": 129.9, "solarenergy": 11.2, "uvindex": 5.0, "sunrise": "06:39:13", "sunriseEpoch": 1510321153, "sunset": "16:48:09", "sunsetEpoch": 1510357689, "moonphase": 0.73, "conditions": "Partially cloudy", "description": "Partly cloudy throughout the day.", "icon": "partly-cloudy-day", "stations": ["KBKF", "KDEN", "72469523036", "KAPA", "72565003017", "72466693067"], "source": "obs"}], "stations": {"KBKF": {"distance": 21204.0, "latitude": 39.72, "longitude": -104.75, "useCount": 0, "id": "KBKF", "name": "KBKF", "quality": 100, "contribution": 0.0}, "KDEN": {"distance": 30462.0, "latitude": 39.86, "longitude": -104.67, "useCount": 0, "id": "KDEN", "name": "KDEN", "quality": 100, "contribution": 0.0}, "72469523036": {"distance": 21262.0, "latitude": 39.717, "longitude": -104.75, "useCount": 0, "id": "72469523036", "name": "AURORA BUCKLEY FIELD ANGB, CO US", "quality": 100, "contribution": 0.0}, "KAPA": {"distance": 23389.0, "latitude": 39.57, "longitude": -104.85, "useCount": 0, "id": "KAPA", "name": "KAPA", "quality": 100, "contribution": 0.0}, "72565003017": {"distance": 30332.0, "latitude": 39.833, "longitude": -104.658, "useCount": 0, "id": "72565003017", "name": "DENVER INTERNATIONAL AIRPORT, CO US", "quality": 100, "contribution": 0.0}, "72466693067": {"distance": 23406.0, "latitude": 39.57, "longitude": -104.849, "useCount": 0, "id": "72466693067", "name": "DENVER CENTENNIAL AIRPORT, CO US", "quality": 100, "contribution": 0.0}}}