{"queryCost": 1, "latitude": 30.421, "longitude": -89.782, "resolvedAddress": "30.42100,-89.78200", "address": "30.42100,-89.78200", "timezone": "America/Chicago", "tzoffset": -6.0, "days": [{"datetime": "2017-11-11", "datetimeEpoch": 1510380000, "tempmax": 73.1, "tempmin": 42.7, "temp": 57.2, "feelslikemax": 73.1, "feelslikemin": 38.9, "feelslike": 56.7, "dew": 49.8, "humidity": 78.1, "precip": 0.0, "precipprob": 0.0, "precipcover": 0.0, "preciptype": null, "snow": 0.0, "snowdepth": 0.0, "windgust": null, "windspeed": 11.5, "winddir": 34.9, "pressure": 1022.2, "cloudcover": 31.9, "visibility": 9.9, "solarradiation": 189.2, "solarenergy": 16.2, "uvindex": 7.0, "sunrise": "06:21:51", "sunriseEpoch": 1510402911, "sunset": "17:04:09", "sunsetEpoch": 1510441449, "moonphase": 0.79, "conditions": "Partially cloudy", "description": "Partly cloudy throughout the day.", "icon": "partly-cloudy-day", "stations": ["KBXA", "KASD", "KNEW", "72046700148", "72231553917", "72233053865"], "source": "obs"}], "stations": {"KBXA": {"distance": 43943.0, "latitude": 30.81, "longitude": -89.86, "useCount": 0, "id": "KBXA", "name": "KBXA", "quality": 100, "contribution": 0.0}, "KASD": {"distance": 8705.0, "latitude": 30.35, "longitude": -89.82, "useCount": 0, "id": "KASD", "name": "KASD", "quality": 100, "contribution": 0.0}, "KNEW": {"distance": 47692.0, "latitude": 30.05, "longitude": -90.03, "useCount": 0, "id": "KNEW", "name": "KNEW", "quality": 94, "contribution": 0.0}, "72046700148": {"distance": 44828.0, "latitude": 30.817, "longitude": -89.867, "useCount": 0, "id": "72046700148", "name": "GEORGE R CARR MEMORIAL AIR FIELD, LA US", "quality": 100, "contribution": 0.0}, "72231553917": {"distance": 47693.0, "latitude": 30.049, "longitude": -90.029, "useCount": 0, "id": "72231553917", "name": "NEW ORLEANS LAKEFRONT AIRPORT, LA US", "quality": 94, "contribution": 0.0}, "72233053865": {"distance": 9472.0, "latitude": 30.343, "longitude": -89.822, "useCount": 0, "id": "72233053865", "name": "SLIDELL AIRPORT, LA US", "quality": 100, "contribution": 0.0}}}