{"queryCost": 1, "latitude": 35.444, "longitude": -97.541, "resolvedAddress": "35.44400,-97.54100", "address": "35.44400,-97.54100", "timezone": "America/Chicago", "tzoffset": -6.0, "days": [{"datetime": "2017-11-15", "datetimeEpoch": 1510725600, "tempmax": 66.3, "tempmin": 47.2, "temp": 60.8, "feelslikemax": 66.3, "feelslikemin": 43.5, "feelslike": 60.5, "dew": 47.6, "humidity": 65.5, "precip": 0.0, "precipprob": 0.0, "precipcover": 0.0, "preciptype": null, "snow": 0.0, "snowdepth": 0.0, "windgust": 29.9, "windspeed": 19.8, "winddir": 130.5, "pressure": 1016.8, "cloudcover": 47.1, "visibility": 9.4, "solarradiation": 164.4, "solarenergy": 14.2, "uvindex": 6.0, "sunrise": "07:05:50", "sunriseEpoch": 1510751150, "sunset": "17:23:25", "sunsetEpoch": 1510788205, "moonphase": 0.96, "conditions": "Partially cloudy", "description": "Clearing in the afternoon.", "icon": "partly-cloudy-day", "stations": ["72353013967", "KTIK", "KPWA", "KOKC", "72354403954"], "source": "obs"}], "stations": {"KTIK": {"distance": 14846.0, "latitude": 35.42, "longitude": -97.38, "useCount": 0, "id": "KTIK", "name": "KTIK", "quality": 100, "contribution": 0.0}, "KPWA": {"distance": 13757.0, "latitude": 35.53, "longitude": -97.65, "useCount": 0, "id": "KPWA", "name": "KPWA", "quality": 100, "contribution": 0.0}, "72353013967": {"distance": 8177.0, "latitude": 35.389, "longitude": -97.601, "useCount": 0, "id": "72353013967", "name": "OKLAHOMA CITY WILL ROGERS WORLD AIRPORT, OK US", "quality": 100, "contribution": 0.0}, "KOKC": {"distance": 7255.0, "latitude": 35.4, "longitude": -97.6, "useCount": 0, "id": "KOKC", "name": "KOKC", "quality": 100, "contribution": 0.0}, "72354403954": {"distance": 13891.0, "latitude": 35.534, "longitude": -97.647, "useCount": 0, "id": "72354403954", "name": "OKLAHOMA CITY WILEY POST AIRPORT, OK US", "quality": 100, "contribution": 0.0}}}