{"queryCost": 1, "latitude": 30.735, "longitude": -88.102, "resolvedAddress": "30.73500,-88.10200", "address": "30.73500,-88.10200", "timezone": "America/Chicago", "tzoffset": -6.0, "days": [{"datetime": "2017-11-18", "datetimeEpoch": 1510984800, "tempmax": 79.3, "tempmin": 61.9, "temp": 70.7, "feelslikemax": 79.3, "feelslikemin": 61.9, "feelslike": 70.7, "dew": 64.5, "humidity": 82.3, "precip": 0.03, "precipprob": 100.0, "precipcover": 4.17, "preciptype": ["rain"], "snow": 0.0, "snowdepth": 0.0, "windgust": 34.7, "windspeed": 22.8, "winddir": 193.1, "pressure": 1013.2, "cloudcover": 38.8, "visibility": 8.7, "solarradiation": 168.8, "solarenergy": 14.4, "uvindex": 6.0, "sunrise": "06:21:37", "sunriseEpoch": 1511007697, "sunset": "16:53:23", "sunsetEpoch": 1511045603, "moonphase": 0.0, "conditions": "Rain, Partially cloudy", "description": "Partly cloudy throughout the day with late afternoon rain.", "icon": "rain", "stations": ["99999963869", "72223513838", "KMOB", "72223013894", "KBFM", "KCQF"], "source": "obs"}], "stations": {"99999963869": {"distance": 30013.0, "latitude": 30.549, "longitude": -87.876, "useCount": 0, "id": "99999963869", "name": "FAIRHOPE 3 NE, AL US", "quality": 99, "contribution": 0.0}, "72223513838": {"distance": 12517.0, "latitude": 30.626, "longitude": -88.068, "useCount": 0, "id": "72223513838", "name": "MOBILE DOWNTOWN AIRPORT, AL US", "quality": 100, "contribution": 0.0}, "KMOB": {"distance": 15432.0, "latitude": 30.68, "longitude": -88.25, "useCount": 0, "id": "KMOB", "name": "KMOB", "quality": 100, "contribution": 0.0}, "72223013894": {"distance": 14694.0, "latitude": 30.688, "longitude": -88.246, "useCount": 0, "id": "72223013894", "name": "MOBILE REGIONAL AIRPORT, AL US", "quality": 100, "contribution": 0.0}, "KBFM": {"distance": 12083.0, "latitude": 30.63, "longitude": -88.07, "useCount": 0, "id": "KBFM", "name": "KBFM", "quality": 100, "contribution": 0.0}, "KCQF": {"distance": 36740.0, "latitude": 30.46, "longitude": -87.89, "useCount": 0, "id": "KCQF", "name": "KCQF", "quality": 97, "contribution": 0.0}}}