{"queryCost": 1, "latitude": 34.769, "longitude": -86.527, "resolvedAddress": "34.76900,-86.52700", "address": "34.76900,-86.52700", "timezone": "America/Chicago", "tzoffset": -6.0, "days": [{"datetime": "2017-11-26", "datetimeEpoch": 1511676000, "tempmax": 61.8, "tempmin": 35.4, "temp": 47.7, "feelslikemax": 61.8, "feelslikemin": 31.0, "feelslike": 46.6, "dew": 32.6, "humidity": 58.5, "precip": 0.0, "precipprob": 0.0, "precipcover": 0.0, "preciptype": null, "snow": 0.0, "snowdepth": 0.0, "windgust": 19.7, "windspeed": 12.6, "winddir": 128.7, "pressure": 1023.1, "cloudcover": 1.6, "visibility": 9.7, "solarradiation": 155.5, "solarenergy": 13.4, "uvindex": 6.0, "sunrise": "06:30:56", "sunriseEpoch": 1511699456, "sunset": "16:35:52", "sunsetEpoch": 1511735752, "moonphase": 0.24, "conditions": "Clear", "description": "Clear conditions throughout the day.", "icon": "clear-day", "stations": ["KHSV", "72323003856", "KHUA", "72227953852", "KFYM", "72323163883"], "source": "obs"}], "stations": {"KHSV": {"distance": 25884.0, "latitude": 34.65, "longitude": -86.77, "useCount": 0, "id": "KHSV", "name": "KHSV", "quality": 100, "contribution": 0.0}, "72323003856": {"distance": 27498.0, "latitude": 34.644, "longitude": -86.786, "useCount": 0, "id": "72323003856", "name": "HUNTSVILLE INTERNATIONAL AIRPORT JONES FIELD, AL US", "quality": 100, "contribution": 0.0}, "KHUA": {"distance": 17150.0, "latitude": 34.68, "longitude": -86.68, "useCount": 0, "id": "KHUA", "name": "KHUA", "quality": 95, "contribution": 0.0}, "72227953852": {"distance": 40415.0, "latitude": 34.653, "longitude": -86.945, "useCount": 0, "id": "72227953852", "name": "DECATUR PRYOR FIELD, AL US", "quality": 100, "contribution": 0.0}, "KFYM": {"distance": 33736.0, "latitude": 35.07, "longitude": -86.57, "useCount": 0, "id": "KFYM", "name": "KFYM", "quality": 93, "contribution": 0.0}, "72323163883": {"distance": 17591.0, "latitude": 34.679, "longitude": -86.685, "useCount": 0, "id": "72323163883", "name": "REDSTONE ARSENAL ARMY AIRFIELD, AL US", "quality": 95, "contribution": 0.0}}}