{"queryCost": 1, "latitude": 38.747, "longitude": -77.058, "resolvedAddress": "38.74700,-77.05800", "address": "38.74700,-77.05800", "timezone": "America/New_York", "tzoffset": -5.0, "days": [{"datetime": "2017-11-17", "datetimeEpoch": 1510894800, "tempmax": 53.0, "tempmin": 36.6, "temp": 45.6, "feelslikemax": 53.0, "feelslikemin": 33.3, "feelslike": 42.7, "dew": 29.2, "humidity": 53.9, "precip": 0.0, "precipprob": 0.0, "precipcover": 0.0, "preciptype": null, "snow": 0.0, "snowdepth": 0.0, "windgust": 21.9, "windspeed": 15.0, "winddir": 299.9, "pressure": 1021.5, "cloudcover": 44.3, "visibility": 9.9, "solarradiation": 145.8, "solarenergy": 12.5, "uvindex": 6.0, "sunrise": "06:53:03", "sunriseEpoch": 1510919583, "sunset": "16:53:04", "sunsetEpoch": 1510955584, "moonphase": 1.0, "conditions": "Partially cloudy", "description": "Partly cloudy throughout the day.", "icon": "partly-cloudy-day", "stations": ["72403603710", "KNYG", "72405013743", "KDCA", "72403093738", "KDAA", "KADW", "72403513773"], "source": "obs"}], "stations": {"72403603710": {"distance": 39812.0, "latitude": 38.721, "longitude": -77.515, "useCount": 0, "id": "72403603710", "name": "MANASSAS REGIONAL DAVIS FIELD AIRPORT, VA US", "quality": 100, "contribution": 0.0}, "KNYG": {"distance": 34626.0, "latitude": 38.5, "longitude": -77.3, "useCount": 0, "id": "KNYG", "name": "KNYG", "quality": 99, "contribution": 0.0}, "72405013743": {"distance": 11339.0, "latitude": 38.847, "longitude": -77.034, "useCount": 0, "id": "72405013743", "name": "WASHINGTON REAGAN NATIONAL AIRPORT, VA US", "quality": 100, "contribution": 0.0}, "KDCA": {"distance": 11720.0, "latitude": 38.85, "longitude": -77.03, "useCount": 0, "id": "KDCA", "name": "KDCA", "quality": 100, "contribution": 0.0}, "72403093738": {"distance": 39710.0, "latitude": 38.935, "longitude": -77.447, "useCount": 0, "id": "72403093738", "name": "WASHINGTON DULLES INTERNATIONAL AIRPORT, VA US", "quality": 100, "contribution": 0.0}, "KDAA": {"distance": 11012.0, "latitude": 38.72, "longitude": -77.18, "useCount": 0, "id": "KDAA", "name": "KDAA", "quality": 100, "contribution": 0.0}, "KADW": {"distance": 18226.0, "latitude": 38.82, "longitude": -76.87, "useCount": 0, "id": "KADW", "name": "KADW", "quality": 100, "contribution": 0.0}, "72403513773": {"distance": 34577.0, "latitude": 38.504, "longitude": -77.305, "useCount": 0, "id": "72403513773", "name": "QUANTICO MCAS, VA US", "quality": 100, "contribution": 0.0}}}