{"queryCost": 1, "latitude": 41.784, "longitude": -87.616, "resolvedAddress": "41.78400,-87.61600", "address": "41.78400,-87.61600", "timezone": "America/Chicago", "tzoffset": -6.0, "days": [{"datetime": "2017-11-29", "datetimeEpoch": 1511935200, "tempmax": 47.2, "tempmin": 36.2, "temp": 42.4, "feelslikemax": 44.0, "feelslikemin": 31.5, "feelslike": 38.2, "dew": 28.0, "humidity": 57.3, "precip": 0.0, "precipprob": 0.0, "precipcover": 0.0, "preciptype": null, "snow": 0.0, "snowdepth": 0.0, "windgust": null, "windspeed": 11.0, "winddir": 169.4, "pressure": 1024.7, "cloudcover": 26.8, "visibility": 9.9, "solarradiation": 112.5, "solarenergy": 9.6, "uvindex": 5.0, "sunrise": "06:56:29", "sunriseEpoch": 1511960189, "sunset": "16:21:04", "sunsetEpoch": 1511994064, "moonphase": 0.39, "conditions": "Partially cloudy", "description": "Partly cloudy throughout the day.", "icon": "partly-cloudy-day", "stations": ["72534014819", "72212604879", "KORD", "KMDW", "72530094846", "KIGQ"], "source": "obs"}], "stations": {"72534014819": {"distance": 11308.0, "latitude": 41.786, "longitude": -87.752, "useCount": 0, "id": "72534014819", "name": "CHICAGO MIDWAY AIRPORT, IL US", "quality": 100, "contribution": 0.0}, "72212604879": {"distance": 28080.0, "latitude": 41.54, "longitude": -87.532, "useCount": 0, "id": "72212604879", "name": "CHICAGO LANSING MUNICIPAL AIRPORT, IL US", "quality": 100, "contribution": 0.0}, "KORD": {"distance": 32095.0, "latitude": 41.98, "longitude": -87.9, "useCount": 0, "id": "KORD", "name": "KORD", "quality": 100, "contribution": 0.0}, "KMDW": {"distance": 11132.0, "latitude": 41.78, "longitude": -87.75, "useCount": 0, "id": "KMDW", "name": "KMDW", "quality": 100, "contribution": 0.0}, "72530094846": {"distance": 32697.0, "latitude": 41.96, "longitude": -87.932, "useCount": 0, "id": "72530094846", "name": "CHICAGO OHARE INTERNATIONAL AIRPORT, IL US", "quality": 100, "contribution": 0.0}, "KIGQ": {"distance": 28088.0, "latitude": 41.54, "longitude": -87.53, "useCount": 0, "id": "KIGQ", "name": "KIGQ", "quality": 100, "contribution": 0.0}}}