{"queryCost": 1, "latitude": 45.054, "longitude": -87.749, "resolvedAddress": "45.05400,-87.74900", "address": "45.05400,-87.74900", "timezone": "America/Chicago", "tzoffset": -6.0, "days": [{"datetime": "2017-12-07", "datetimeEpoch": 1512626400, "tempmax": 23.0, "tempmin": 19.1, "temp": 20.7, "feelslikemax": 13.7, "feelslikemin": 7.4, "feelslike": 10.4, "dew": 10.1, "humidity": 63.9, "precip": 0.0, "precipprob": 0.0, "precipcover": 0.0, "preciptype": null, "snow": 0.0, "snowdepth": 0.0, "windgust": 24.2, "windspeed": 15.0, "winddir": 283.9, "pressure": 1017.4, "cloudcover": 84.4, "visibility": 8.9, "solarradiation": 75.9, "solarenergy": 6.6, "uvindex": 4.0, "sunrise": "07:15:57", "sunriseEpoch": 1512652557, "sunset": "16:09:09", "sunsetEpoch": 1512684549, "moonphase": 0.61, "conditions": "Partially cloudy", "description": "Partly cloudy throughout the day.", "icon": "partly-cloudy-day", "stations": ["KOCQ", "KMNM", "A0705600464", "72645804824", "72648794896", "KSUE"], "source": "obs"}], "stations": {"KOCQ": {"distance": 24515.0, "latitude": 44.87, "longitude": -87.92, "useCount": 0, "id": "KOCQ", "name": "KOCQ", "quality": 98, "contribution": 0.0}, "KMNM": {"distance": 12611.0, "latitude": 45.13, "longitude": -87.63, "useCount": 0, "id": "KMNM", "name": "MENOMINEE, MI", "quality": 100, "contribution": 0.0}, "A0705600464": {"distance": 23695.0, "latitude": 44.874, "longitude": -87.91, "useCount": 0, "id": "A0705600464", "name": "J DOUGLAS BAKE MEMORIAL AIRPORT, WI US", "quality": 100, "contribution": 0.0}, "72645804824": {"distance": 34656.0, "latitude": 44.85, "longitude": -87.417, "useCount": 0, "id": "72645804824", "name": "STURGEON BAY DOOR CO CHERRYLAND AIRPORT, WI US", "quality": 100, "contribution": 0.0}, "72648794896": {"distance": 11464.0, "latitude": 45.117, "longitude": -87.633, "useCount": 0, "id": "72648794896", "name": "MENOMINEE, MI US", "quality": 99, "contribution": 0.0}, "KSUE": {"distance": 34460.0, "latitude": 44.85, "longitude": -87.42, "useCount": 0, "id": "KSUE", "name": "STURGEON BAY, WI", "quality": 100, "contribution": 0.0}}}