{"queryCost": 1, "latitude": 32.237, "longitude": -110.88, "resolvedAddress": "32.23700,-110.88000", "address": "32.23700,-110.88000", "timezone": "America/Phoenix", "tzoffset": -7.0, "days": [{"datetime": "2017-12-07", "datetimeEpoch": 1512630000, "tempmax": 60.4, "tempmin": 42.1, "temp": 51.1, "feelslikemax": 60.4, "feelslikemin": 36.6, "feelslike": 49.4, "dew": 7.7, "humidity": 21.0, "precip": 0.0, "precipprob": 0.0, "precipcover": 0.0, "preciptype": null, "snow": 0.0, "snowdepth": 0.0, "windgust": 26.4, "windspeed": 14.9, "winddir": 156.5, "pressure": 1022.0, "cloudcover": 0.9, "visibility": 9.9, "solarradiation": 173.2, "solarenergy": 15.0, "uvindex": 7.0, "sunrise": "07:11:51", "sunriseEpoch": 1512655911, "sunset": "17:18:25", "sunsetEpoch": 1512692305, "moonphase": 0.61, "conditions": "Clear", "description": "Clear conditions throughout the day.", "icon": "clear-day", "stations": ["KAVQ", "72274023160", "KTUS", "KDMA", "72274523109", "99999953131"], "source": "obs"}], "stations": {"KAVQ": {"distance": 35959.0, "latitude": 32.4, "longitude": -111.21, "useCount": 0, "id": "KAVQ", "name": "KAVQ", "quality": 99, "contribution": 0.0}, "72274023160": {"distance": 13725.0, "latitude": 32.131, "longitude": -110.955, "useCount": 0, "id": "72274023160", "name": "TUCSON INTERNATIONAL AIRPORT, AZ US", "quality": 100, "contribution": 0.0}, "KTUS": {"distance": 14096.0, "latitude": 32.13, "longitude": -110.96, "useCount": 0, "id": "KTUS", "name": "KTUS", "quality": 100, "contribution": 0.0}, "KDMA": {"distance": 7458.0, "latitude": 32.17, "longitude": -110.88, "useCount": 0, "id": "KDMA", "name": "KDMA", "quality": 100, "contribution": 0.0}, "72274523109": {"distance": 7831.0, "latitude": 32.167, "longitude": -110.883, "useCount": 0, "id": "72274523109", "name": "DAVIS MONTHAN AFB, AZ US", "quality": 97, "contribution": 0.0}, "99999953131": {"distance": 27307.0, "latitude": 32.24, "longitude": -111.17, "useCount": 0, "id": "99999953131", "name": "TUCSON 11 W, AZ US", "quality": 100, "contribution": 0.0}}}