{"queryCost": 1, "latitude": 39.163, "longitude": -75.558, "resolvedAddress": "39.16300,-75.55800", "address": "39.16300,-75.55800", "timezone": "America/New_York", "tzoffset": -5.0, "days": [{"datetime": "2017-12-09", "datetimeEpoch": 1512795600, "tempmax": 34.3, "tempmin": 30.0, "temp": 31.7, "feelslikemax": 33.8, "feelslikemin": 19.4, "feelslike": 24.8, "dew": 27.9, "humidity": 86.2, "precip": 0.41, "precipprob": 100.0, "precipcover": 25.0, "preciptype": ["rain", "snow"], "snow": 0.0, "snowdepth": 0.0, "windgust": 16.1, "windspeed": 14.8, "winddir": 248.3, "pressure": 1011.3, "cloudcover": 80.3, "visibility": 4.9, "solarradiation": 39.6, "solarenergy": 3.3, "uvindex": 2.0, "sunrise": "07:10:08", "sunriseEpoch": 1512821408, "sunset": "16:39:14", "sunsetEpoch": 1512855554, "moonphase": 0.71, "conditions": "Snow, Rain, Partially cloudy", "description": "Partly cloudy throughout the day with rain or snow.", "icon": "rain", "stations": ["KDOV", "72408813707", "KGED", "72407513735", "KMIV", "72409313764"], "source": "obs"}], "stations": {"KDOV": {"distance": 8439.0, "latitude": 39.13, "longitude": -75.47, "useCount": 0, "id": "KDOV", "name": "KDOV", "quality": 100, "contribution": 0.0}, "72408813707": {"distance": 8547.0, "latitude": 39.133, "longitude": -75.467, "useCount": 0, "id": "72408813707", "name": "DOVER AFB, DE US", "quality": 99, "contribution": 0.0}, "KGED": {"distance": 56179.0, "latitude": 38.68, "longitude": -75.37, "useCount": 0, "id": "KGED", "name": "KGED", "quality": 98, "contribution": 0.0}, "72407513735": {"distance": 47165.0, "latitude": 39.366, "longitude": -75.078, "useCount": 0, "id": "72407513735", "name": "MILLVILLE MUNICIPAL AIRPORT, NJ US", "quality": 100, "contribution": 0.0}, "KMIV": {"distance": 48201.0, "latitude": 39.36, "longitude": -75.06, "useCount": 0, "id": "KMIV", "name": "KMIV", "quality": 100, "contribution": 0.0}, "72409313764": {"distance": 55341.0, "latitude": 38.69, "longitude": -75.362, "useCount": 0, "id": "72409313764", "name": "GEORGETOWN DELAWARE COASTAL AIRPORT, DE US", "quality": 99, "contribution": 0.0}}}