{"queryCost": 1, "latitude": 47.68, "longitude": -122.253, "resolvedAddress": "47.68000,-122.25300", "address": "47.68000,-122.25300", "timezone": "America/Los_Angeles", "tzoffset": -8.0, "days": [{"datetime": "2017-12-11", "datetimeEpoch": 1512979200, "tempmax": 48.2, "tempmin": 30.2, "temp": 37.0, "feelslikemax": 45.8, "feelslikemin": 24.4, "feelslike": 34.0, "dew": 30.8, "humidity": 79.3, "precip": 0.0, "precipprob": 0.0, "precipcover": 0.0, "preciptype": null, "snow": 0.0, "snowdepth": 0.0, "windgust": null, "windspeed": 7.3, "winddir": 109.9, "pressure": 1028.4, "cloudcover": 13.3, "visibility": 8.0, "solarradiation": 71.1, "solarenergy": 6.2, "uvindex": 3.0, "sunrise": "07:47:52", "sunriseEpoch": 1513007272, "sunset": "16:17:00", "sunsetEpoch": 1513037820, "moonphase": 0.82, "conditions": "Clear", "description": "Clear conditions throughout the day.", "icon": "clear-day", "stations": ["KSEA", "KBFI", "72793524234", "72793494248", "72793724222", "KRNT"], "source": "obs"}], "stations": {"KSEA": {"distance": 25846.0, "latitude": 47.45, "longitude": -122.3, "useCount": 0, "id": "KSEA", "name": "KSEA", "quality": 100, "contribution": 0.0}, "KBFI": {"distance": 17066.0, "latitude": 47.53, "longitude": -122.3, "useCount": 0, "id": "KBFI", "name": "KBFI", "quality": 100, "contribution": 0.0}, "72793524234": {"distance": 17050.0, "latitude": 47.53, "longitude": -122.301, "useCount": 0, "id": "72793524234", "name": "SEATTLE BOEING FIELD, WA US", "quality": 100, "contribution": 0.0}, "72793494248": {"distance": 20989.0, "latitude": 47.493, "longitude": -122.214, "useCount": 0, "id": "72793494248", "name": "RENTON MUNICIPAL AIRPORT, WA US", "quality": 100, "contribution": 0.0}, "72793724222": {"distance": 25439.0, "latitude": 47.908, "longitude": -122.28, "useCount": 0, "id": "72793724222", "name": "EVERETT SNOHOMISH CO AIRPORT, WA US", "quality": 100, "contribution": 0.0}, "KRNT": {"distance": 20190.0, "latitude": 47.5, "longitude": -122.22, "useCount": 0, "id": "KRNT", "name": "KRNT", "quality": 100, "contribution": 0.0}}}