{"queryCost": 1, "latitude": 39.888, "longitude": -104.968, "resolvedAddress": "39.88800,-104.96800", "address": "39.88800,-104.96800", "timezone": "America/Denver", "tzoffset": -7.0, "days": [{"datetime": "2017-12-13", "datetimeEpoch": 1513148400, "tempmax": 50.6, "tempmin": 36.9, "temp": 42.5, "feelslikemax": 50.6, "feelslikemin": 29.8, "feelslike": 38.6, "dew": 9.6, "humidity": 26.4, "precip": 0.0, "precipprob": 0.0, "precipcover": 0.0, "preciptype": null, "snow": 0.8, "snowdepth": 0.2, "windgust": 19.9, "windspeed": 11.2, "winddir": 131.7, "pressure": 1017.0, "cloudcover": 66.8, "visibility": 9.8, "solarradiation": 117.6, "solarenergy": 10.4, "uvindex": 5.0, "sunrise": "07:13:07", "sunriseEpoch": 1513174387, "sunset": "16:35:21", "sunsetEpoch": 1513208121, "moonphase": 0.91, "conditions": "Partially cloudy", "description": "Partly cloudy throughout the day.", "icon": "snow", "stations": ["KLMO", "KBKF", "KDEN", "72469523036", "72565003017", "72053800164"], "source": "obs"}], "stations": {"KLMO": {"distance": 33445.0, "latitude": 40.15, "longitude": -105.16, "useCount": 0, "id": "KLMO", "name": "KLMO", "quality": 96, "contribution": 0.0}, "KBKF": {"distance": 26407.0, "latitude": 39.72, "longitude": -104.75, "useCount": 0, "id": "KBKF", "name": "KBKF", "quality": 100, "contribution": 0.0}, "KDEN": {"distance": 25649.0, "latitude": 39.86, "longitude": -104.67, "useCount": 0, "id": "KDEN", "name": "KDEN", "quality": 100, "contribution": 0.0}, "72469523036": {"distance": 26669.0, "latitude": 39.717, "longitude": -104.75, "useCount": 0, "id": "72469523036", "name": "AURORA BUCKLEY FIELD ANGB, CO US", "quality": 100, "contribution": 0.0}, "72565003017": {"distance": 27193.0, "latitude": 39.833, "longitude": -104.658, "useCount": 0, "id": "72565003017", "name": "DENVER INTERNATIONAL AIRPORT, CO US", "quality": 100, "contribution": 0.0}, "72053800164": {"distance": 35389.0, "latitude": 40.167, "longitude": -105.167, "useCount": 0, "id": "72053800164", "name": "VANCE BRAND AIRPORT, CO US", "quality": 96, "contribution": 0.0}}}