{"queryCost": 1, "latitude": 38.369, "longitude": -81.62, "resolvedAddress": "38.36900,-81.62000", "address": "38.36900,-81.62000", "timezone": "America/New_York", "tzoffset": -5.0, "days": [{"datetime": "2017-11-17", "datetimeEpoch": 1510894800, "tempmax": 53.9, "tempmin": 34.1, "temp": 41.5, "feelslikemax": 53.9, "feelslikemin": 33.4, "feelslike": 40.5, "dew": 28.5, "humidity": 61.6, "precip": 0.0, "precipprob": 0.0, "precipcover": 0.0, "preciptype": null, "snow": 0.0, "snowdepth": 0.0, "windgust": 15.6, "windspeed": 4.7, "winddir": 111.3, "pressure": 1022.0, "cloudcover": 62.0, "visibility": 9.9, "solarradiation": 123.3, "solarenergy": 10.7, "uvindex": 5.0, "sunrise": "07:10:27", "sunriseEpoch": 1510920627, "sunset": "17:12:10", "sunsetEpoch": 1510956730, "moonphase": 1.0, "conditions": "Partially cloudy", "description": "Partly cloudy throughout the day.", "icon": "partly-cloudy-day", "stations": ["KBKW", "K6L4", "74207963876", "72414013866", "72412003872", "KCRW"], "source": "obs"}], "stations": {"KBKW": {"distance": 78860.0, "latitude": 37.78, "longitude": -81.12, "useCount": 0, "id": "KBKW", "name": "KBKW", "quality": 100, "contribution": 0.0}, "K6L4": {"distance": 63112.0, "latitude": 37.85, "longitude": -81.91, "useCount": 0, "id": "K6L4", "name": "K6L4", "quality": 49, "contribution": 0.0}, "74207963876": {"distance": 73633.0, "latitude": 38.915, "longitude": -82.099, "useCount": 0, "id": "74207963876", "name": "POINT PLAESANT MASON CO AIRPORT, WV US", "quality": 50, "contribution": 0.0}, "72414013866": {"distance": 2863.0, "latitude": 38.379, "longitude": -81.59, "useCount": 0, "id": "72414013866", "name": "CHARLESTON YEAGER AIRPORT, WV US", "quality": 100, "contribution": 0.0}, "72412003872": {"distance": 78380.0, "latitude": 37.784, "longitude": -81.123, "useCount": 0, "id": "72412003872", "name": "BECKLEY RALEIGH CO AIRPORT, WV US", "quality": 100, "contribution": 0.0}, "KCRW": {"distance": 2804.0, "latitude": 38.36, "longitude": -81.59, "useCount": 0, "id": "KCRW", "name": "KCRW", "quality": 100, "contribution": 0.0}}}