{"queryCost": 1, "latitude": 41.673, "longitude": -72.761, "resolvedAddress": "41.67300,-72.76100", "address": "41.67300,-72.76100", "timezone": "America/New_York", "tzoffset": -5.0, "days": [{"datetime": "2017-12-14", "datetimeEpoch": 1513227600, "tempmax": 28.6, "tempmin": 16.6, "temp": 22.8, "feelslikemax": 23.0, "feelslikemin": 8.6, "feelslike": 16.0, "dew": 10.6, "humidity": 61.2, "precip": 0.04, "precipprob": 100.0, "precipcover": 12.5, "preciptype": ["snow"], "snow": 0.6, "snowdepth": 2.3, "windgust": 27.7, "windspeed": 15.8, "winddir": 226.4, "pressure": 1007.9, "cloudcover": 44.0, "visibility": 8.0, "solarradiation": 75.0, "solarenergy": 6.5, "uvindex": 4.0, "sunrise": "07:10:31", "sunriseEpoch": 1513253431, "sunset": "16:21:10", "sunsetEpoch": 1513286470, "moonphase": 0.94, "conditions": "Snow, Partially cloudy", "description": "Clearing in the afternoon with morning snow.", "icon": "snow", "stations": ["KMMK", "KHFD", "72508714752", "KBDL", "72508014740", "72502754788"], "source": "obs"}], "stations": {"KMMK": {"distance": 19033.0, "latitude": 41.51, "longitude": -72.83, "useCount": 0, "id": "KMMK", "name": "KMMK", "quality": 98, "contribution": 0.0}, "KHFD": {"distance": 11197.0, "latitude": 41.73, "longitude": -72.65, "useCount": 0, "id": "KHFD", "name": "KHFD", "quality": 100, "contribution": 0.0}, "72508714752": {"distance": 11555.0, "latitude": 41.736, "longitude": -72.651, "useCount": 0, "id": "72508714752", "name": "HARTFORD BRAINARD FIELD, CT US", "quality": 100, "contribution": 0.0}, "KBDL": {"distance": 29388.0, "latitude": 41.93, "longitude": -72.68, "useCount": 0, "id": "KBDL", "name": "KBDL", "quality": 100, "contribution": 0.0}, "72508014740": {"distance": 30167.0, "latitude": 41.938, "longitude": -72.682, "useCount": 0, "id": "72508014740", "name": "HARTFORD BRADLEY INTERNATIONAL AIRPORT, CT US", "quality": 100, "contribution": 0.0}, "72502754788": {"distance": 19010.0, "latitude": 41.51, "longitude": -72.828, "useCount": 0, "id": "72502754788", "name": "MERIDEN MARKHAM MUNICIPAL AIRPORT, CT US", "quality": 100, "contribution": 0.0}}}