{"queryCost": 1, "latitude": 33.951, "longitude": -116.481, "resolvedAddress": "33.95100,-116.48100", "address": "33.95100,-116.48100", "timezone": "America/Los_Angeles", "tzoffset": -8.0, "days": [{"datetime": "2017-12-26", "datetimeEpoch": 1514275200, "tempmax": 69.4, "tempmin": 44.0, "temp": 55.3, "feelslikemax": 69.4, "feelslikemin": 42.2, "feelslike": 54.6, "dew": 15.9, "humidity": 22.4, "precip": 0.0, "precipprob": 0.0, "precipcover": 0.0, "preciptype": null, "snow": 0.0, "snowdepth": 0.0, "windgust": null, "windspeed": 6.7, "winddir": 232.6, "pressure": 1020.3, "cloudcover": 0.0, "visibility": 9.9, "solarradiation": 84.0, "solarenergy": 7.4, "uvindex": 3.0, "sunrise": "06:49:44", "sunriseEpoch": 1514299784, "sunset": "16:43:48", "sunsetEpoch": 1514335428, "moonphase": 0.26, "conditions": "Clear", "description": "Clear conditions throughout the day.", "icon": "clear-day", "stations": ["KPSP", "74718703104", "69015093121", "KNXP", "72286893138", "A0685400115"], "source": "obs"}], "stations": {"KPSP": {"distance": 13584.0, "latitude": 33.83, "longitude": -116.5, "useCount": 0, "id": "KPSP", "name": "KPSP", "quality": 100, "contribution": 0.0}, "74718703104": {"distance": 46805.0, "latitude": 33.627, "longitude": -116.159, "useCount": 0, "id": "74718703104", "name": "DESERT RESORTS REGIONAL AIRPORT, CA US", "quality": 96, "contribution": 0.0}, "69015093121": {"distance": 48442.0, "latitude": 34.3, "longitude": -116.167, "useCount": 0, "id": "69015093121", "name": "TWENTYNINE PALMS MC, CA US", "quality": 100, "contribution": 0.0}, "KNXP": {"distance": 48260.0, "latitude": 34.28, "longitude": -116.14, "useCount": 0, "id": "KNXP", "name": "KNXP", "quality": 100, "contribution": 0.0}, "72286893138": {"distance": 14495.0, "latitude": 33.822, "longitude": -116.504, "useCount": 0, "id": "72286893138", "name": "PALM SPRINGS ASOS, CA US", "quality": 100, "contribution": 0.0}, "A0685400115": {"distance": 48949.0, "latitude": 34.264, "longitude": -116.854, "useCount": 0, "id": "A0685400115", "name": "BIG BEAR CITY AIRPORT, CA US", "quality": 100, "contribution": 0.0}}}