{"queryCost": 1, "latitude": 32.924, "longitude": -96.889, "resolvedAddress": "32.92400,-96.88900", "address": "32.92400,-96.88900", "timezone": "America/Chicago", "tzoffset": -6.0, "days": [{"datetime": "2017-12-26", "datetimeEpoch": 1514268000, "tempmax": 44.7, "tempmin": 38.3, "temp": 40.8, "feelslikemax": 39.7, "feelslikemin": 31.6, "feelslike": 34.9, "dew": 32.1, "humidity": 72.7, "precip": 0.03, "precipprob": 100.0, "precipcover": 12.5, "preciptype": ["rain"], "snow": 0.0, "snowdepth": 0.0, "windgust": null, "windspeed": 11.7, "winddir": 65.3, "pressure": 1026.2, "cloudcover": 95.2, "visibility": 6.8, "solarradiation": 35.1, "solarenergy": 2.9, "uvindex": 1.0, "sunrise": "07:28:45", "sunriseEpoch": 1514294925, "sunset": "17:27:59", "sunsetEpoch": 1514330879, "moonphase": 0.26, "conditions": "Rain, Overcast", "description": "Cloudy skies throughout the day with afternoon rain.", "icon": "rain", "stations": ["KDAL", "72259003927", "72259903971", "KDFW", "KRBD", "72258013960"], "source": "obs"}], "stations": {"KDAL": {"distance": 9008.0, "latitude": 32.85, "longitude": -96.85, "useCount": 0, "id": "KDAL", "name": "KDAL", "quality": 100, "contribution": 0.0}, "72259003927": {"distance": 12485.0, "latitude": 32.898, "longitude": -97.019, "useCount": 0, "id": "72259003927", "name": "DAL FTW WSCMO AIRPORT, TX US", "quality": 100, "contribution": 0.0}, "72259903971": {"distance": 27143.0, "latitude": 32.681, "longitude": -96.868, "useCount": 0, "id": "72259903971", "name": "DALLAS REDBIRD AIRPORT, TX US", "quality": 99, "contribution": 0.0}, "KDFW": {"distance": 13445.0, "latitude": 32.9, "longitude": -97.03, "useCount": 0, "id": "KDFW", "name": "KDFW", "quality": 100, "contribution": 0.0}, "KRBD": {"distance": 27220.0, "latitude": 32.68, "longitude": -96.87, "useCount": 0, "id": "KRBD", "name": "KRBD", "quality": 99, "contribution": 0.0}, "72258013960": {"distance": 8615.0, "latitude": 32.852, "longitude": -96.855, "useCount": 0, "id": "72258013960", "name": "DALLAS FAA AIRPORT, TX US", "quality": 100, "contribution": 0.0}}}