{"queryCost": 1, "latitude": 39.985, "longitude": -76.844, "resolvedAddress": "39.98500,-76.84400", "address": "39.98500,-76.84400", "timezone": "America/New_York", "tzoffset": -5.0, "days": [{"datetime": "2017-12-28", "datetimeEpoch": 1514437200, "tempmax": 20.3, "tempmin": 7.9, "temp": 13.2, "feelslikemax": 11.8, "feelslikemin": -1.1, "feelslike": 3.9, "dew": 0.5, "humidity": 58.4, "precip": 0.0, "precipprob": 0.0, "precipcover": 0.0, "preciptype": null, "snow": 0.0, "snowdepth": 0.0, "windgust": 23.0, "windspeed": 12.8, "winddir": 310.5, "pressure": 1036.1, "cloudcover": 2.5, "visibility": 9.9, "solarradiation": 114.1, "solarenergy": 9.9, "uvindex": 5.0, "sunrise": "07:28:33", "sunriseEpoch": 1514464113, "sunset": "16:49:46", "sunsetEpoch": 1514497786, "moonphase": 0.36, "conditions": "Clear", "description": "Clear conditions throughout the day.", "icon": "clear-day", "stations": ["KMDT", "72511493778", "KTHV", "72511814751", "72399014711", "KCXY"], "source": "obs"}], "stations": {"KMDT": {"distance": 24749.0, "latitude": 40.2, "longitude": -76.77, "useCount": 0, "id": "KMDT", "name": "KMDT", "quality": 100, "contribution": 0.0}, "72511493778": {"distance": 7881.0, "latitude": 39.918, "longitude": -76.874, "useCount": 0, "id": "72511493778", "name": "YORK AIRPORT, PA US", "quality": 100, "contribution": 0.0}, "KTHV": {"distance": 7568.0, "latitude": 39.92, "longitude": -76.87, "useCount": 0, "id": "KTHV", "name": "KTHV", "quality": 100, "contribution": 0.0}, "72511814751": {"distance": 25856.0, "latitude": 40.217, "longitude": -76.851, "useCount": 0, "id": "72511814751", "name": "HARRISBURG CAPITAL CITY AIRPORT, PA US", "quality": 100, "contribution": 0.0}, "72399014711": {"distance": 24289.0, "latitude": 40.196, "longitude": -76.772, "useCount": 0, "id": "72399014711", "name": "MIDDLETOWN HARRISBURG INTERNATIONAL AIRPORT, PA US", "quality": 100, "contribution": 0.0}, "KCXY": {"distance": 26162.0, "latitude": 40.22, "longitude": -76.84, "useCount": 0, "id": "KCXY", "name": "KCXY", "quality": 100, "contribution": 0.0}}}