{"queryCost": 1, "latitude": 37.487, "longitude": -122.226, "resolvedAddress": "37.48700,-122.22600", "address": "37.48700,-122.22600", "timezone": "America/Los_Angeles", "tzoffset": -8.0, "days": [{"datetime": "2017-12-30", "datetimeEpoch": 1514620800, "tempmax": 57.2, "tempmin": 42.9, "temp": 49.5, "feelslikemax": 57.2, "feelslikemin": 41.9, "feelslike": 49.2, "dew": 42.3, "humidity": 76.7, "precip": 0.0, "precipprob": 0.0, "precipcover": 0.0, "preciptype": null, "snow": 0.0, "snowdepth": 0.0, "windgust": null, "windspeed": 4.7, "winddir": 74.0, "pressure": 1019.3, "cloudcover": 29.2, "visibility": 7.2, "solarradiation": 95.4, "solarenergy": 8.2, "uvindex": 4.0, "sunrise": "07:23:19", "sunriseEpoch": 1514647399, "sunset": "17:00:08", "sunsetEpoch": 1514682008, "moonphase": 0.45, "conditions": "Partially cloudy", "description": "Partly cloudy throughout the day.", "icon": "partly-cloudy-day", "stations": ["72585093228", "KHAF", "KSFO", "72064600228", "KHWD", "72494023234"], "source": "obs"}], "stations": {"72585093228": {"distance": 21032.0, "latitude": 37.654, "longitude": -122.115, "useCount": 0, "id": "72585093228", "name": "HAYWARD AIR TERMINAL, CA US", "quality": 100, "contribution": 0.0}, "KHAF": {"distance": 24244.0, "latitude": 37.5, "longitude": -122.5, "useCount": 0, "id": "KHAF", "name": "KHAF", "quality": 100, "contribution": 0.0}, "KSFO": {"distance": 19293.0, "latitude": 37.61, "longitude": -122.38, "useCount": 0, "id": "KSFO", "name": "KSFO", "quality": 100, "contribution": 0.0}, "72064600228": {"distance": 24459.0, "latitude": 37.513, "longitude": -122.501, "useCount": 0, "id": "72064600228", "name": "HALF MOON BAY AIRPORT, CA US", "quality": 100, "contribution": 0.0}, "KHWD": {"distance": 22415.0, "latitude": 37.67, "longitude": -122.12, "useCount": 0, "id": "KHWD", "name": "KHWD", "quality": 100, "contribution": 0.0}, "72494023234": {"distance": 19201.0, "latitude": 37.62, "longitude": -122.365, "useCount": 0, "id": "72494023234", "name": "SAN FRANCISCO INTERNATIONAL AIRPORT, CA US", "quality": 100, "contribution": 0.0}}}