{"queryCost": 1, "latitude": 45.429, "longitude": -122.341, "resolvedAddress": "45.42900,-122.34100", "address": "45.42900,-122.34100", "timezone": "America/Los_Angeles", "tzoffset": -8.0, "days": [{"datetime": "2017-12-25", "datetimeEpoch": 1514188800, "tempmax": 32.2, "tempmin": 29.0, "temp": 30.5, "feelslikemax": 24.5, "feelslikemin": 16.8, "feelslike": 20.6, "dew": 26.9, "humidity": 86.1, "precip": 0.07, "precipprob": 100.0, "precipcover": 20.83, "preciptype": ["rain", "snow"], "snow": 0.5, "snowdepth": 1.9, "windgust": 31.1, "windspeed": 19.1, "winddir": 98.2, "pressure": 1026.3, "cloudcover": 88.7, "visibility": 8.4, "solarradiation": 7.6, "solarenergy": 0.6, "uvindex": 0.0, "sunrise": "07:48:03", "sunriseEpoch": 1514216883, "sunset": "16:31:24", "sunsetEpoch": 1514248284, "moonphase": 0.21, "conditions": "Snow, Rain, Partially cloudy", "description": "Partly cloudy throughout the day with rain or snow clearing later.", "icon": "snow", "stations": ["72698524242", "KVUO", "KTTD", "KPDX", "72698024229", "72791894298"], "source": "obs"}], "stations": {"72698524242": {"distance": 14591.0, "latitude": 45.551, "longitude": -122.409, "useCount": 0, "id": "72698524242", "name": "PORTLAND TROUTDALE AIRPORT, OR US", "quality": 100, "contribution": 0.0}, "KVUO": {"distance": 32727.0, "latitude": 45.62, "longitude": -122.66, "useCount": 0, "id": "KVUO", "name": "KVUO", "quality": 100, "contribution": 0.0}, "KTTD": {"distance": 14814.0, "latitude": 45.55, "longitude": -122.42, "useCount": 0, "id": "KTTD", "name": "KTTD", "quality": 100, "contribution": 0.0}, "KPDX": {"distance": 27758.0, "latitude": 45.6, "longitude": -122.6, "useCount": 0, "id": "KPDX", "name": "KPDX", "quality": 100, "contribution": 0.0}, "72698024229": {"distance": 27961.0, "latitude": 45.596, "longitude": -122.609, "useCount": 0, "id": "72698024229", "name": "PORTLAND INTERNATIONAL AIRPORT, OR US", "quality": 100, "contribution": 0.0}, "72791894298": {"distance": 32607.0, "latitude": 45.621, "longitude": -122.657, "useCount": 0, "id": "72791894298", "name": "VANCOUVER PEARSON AIRPORT, WA US", "quality": 100, "contribution": 0.0}}}