{"queryCost": 1, "latitude": 34.87, "longitude": -111.761, "resolvedAddress": "34.87000,-111.76100", "address": "34.87000,-111.76100", "timezone": "America/Phoenix", "tzoffset": -7.0, "days": [{"datetime": "2018-01-07", "datetimeEpoch": 1515308400, "tempmax": 62.4, "tempmin": 46.2, "temp": 53.5, "feelslikemax": 62.4, "feelslikemin": 41.1, "feelslike": 51.9, "dew": 28.2, "humidity": 39.3, "precip": 0.0, "precipprob": 0.0, "precipcover": 0.0, "preciptype": null, "snow": 0.0, "snowdepth": 0.0, "windgust": 20.8, "windspeed": 13.7, "winddir": 59.3, "pressure": 1019.8, "cloudcover": 17.7, "visibility": 9.9, "solarradiation": 126.4, "solarenergy": 10.9, "uvindex": 6.0, "sunrise": "07:35:22", "sunriseEpoch": 1515335722, "sunset": "17:31:41", "sunsetEpoch": 1515371501, "moonphase": 0.68, "conditions": "Clear", "description": "Clear conditions throughout the day.", "icon": "clear-day", "stations": ["KFLG", "KPRC", "XHJA3", "72375600375", "72375003103", "QOCA3", "KSEZ", "KCMR"], "source": "obs"}], "stations": {"KFLG": {"distance": 30109.0, "latitude": 35.13, "longitude": -111.67, "useCount": 0, "id": "KFLG", "name": "KFLG", "quality": 100, "contribution": 0.0}, "KPRC": {"distance": 65054.0, "latitude": 34.65, "longitude": -112.42, "useCount": 0, "id": "KPRC", "name": "KPRC", "quality": 100, "contribution": 0.0}, "XHJA3": {"distance": 34757.0, "latitude": 34.746, "longitude": -111.412, "useCount": 0, "id": "XHJA3", "name": "HAPPY JACK AZ US SNOTEL", "quality": 0, "contribution": 0.0}, "72375600375": {"distance": 2999.0, "latitude": 34.85, "longitude": -111.783, "useCount": 0, "id": "72375600375", "name": "SEDONA AIRPORT, AZ US", "quality": 100, "contribution": 0.0}, "72375003103": {"distance": 31718.0, "latitude": 35.144, "longitude": -111.666, "useCount": 0, "id": "72375003103", "name": "FLAGSTAFF PULLIAM AIRPORT, AZ US", "quality": 100, "contribution": 0.0}, "QOCA3": {"distance": 8024.0, "latitude": 34.942, "longitude": -111.752, "useCount": 0, "id": "QOCA3", "name": "OAK CREEK AZ US", "quality": 0, "contribution": 0.0}, "KSEZ": {"distance": 2823.0, "latitude": 34.85, "longitude": -111.78, "useCount": 0, "id": "KSEZ", "name": "KSEZ", "quality": 100, "contribution": 0.0}, "KCMR": {"distance": 61525.0, "latitude": 35.29, "longitude": -112.2, "useCount": 0, "id": "KCMR", "name": "KCMR", "quality": 99, "contribution": 0.0}}}