{"queryCost": 1, "latitude": 28.944, "longitude": -80.911, "resolvedAddress": "28.94400,-80.91100", "address": "28.94400,-80.91100", "timezone": "America/New_York", "tzoffset": -5.0, "days": [{"datetime": "2018-01-01", "datetimeEpoch": 1514782800, "tempmax": 56.9, "tempmin": 44.9, "temp": 51.8, "feelslikemax": 56.9, "feelslikemin": 36.6, "feelslike": 49.0, "dew": 49.4, "humidity": 91.2, "precip": 0.15, "precipprob": 100.0, "precipcover": 29.17, "preciptype": ["rain"], "snow": 0.0, "snowdepth": 0.0, "windgust": 34.2, "windspeed": 22.2, "winddir": 211.2, "pressure": 1021.7, "cloudcover": 98.8, "visibility": 6.3, "solarradiation": 20.4, "solarenergy": 1.7, "uvindex": 1.0, "sunrise": "07:17:18", "sunriseEpoch": 1514809038, "sunset": "17:37:24", "sunsetEpoch": 1514846244, "moonphase": 0.5, "conditions": "Rain, Overcast", "description": "Cloudy skies throughout the day with rain in the morning and afternoon.", "icon": "rain", "stations": ["72205712854", "KSFB", "KDAB", "KDED", "74787012834", "72090400299", "E9392", "MRFF1"], "source": "obs"}], "stations": {"72205712854": {"distance": 37228.0, "latitude": 28.78, "longitude": -81.244, "useCount": 0, "id": "72205712854", "name": "ORLANDO SANFORD AIRPORT, FL US", "quality": 100, "contribution": 0.0}, "KSFB": {"distance": 36062.0, "latitude": 28.78, "longitude": -81.23, "useCount": 0, "id": "KSFB", "name": "KSFB", "quality": 100, "contribution": 0.0}, "KDAB": {"distance": 29549.0, "latitude": 29.18, "longitude": -81.05, "useCount": 0, "id": "KDAB", "name": "KDAB", "quality": 100, "contribution": 0.0}, "KDED": {"distance": 38176.0, "latitude": 29.06, "longitude": -81.28, "useCount": 0, "id": "KDED", "name": "KDED", "quality": 96, "contribution": 0.0}, "74787012834": {"distance": 29751.0, "latitude": 29.183, "longitude": -81.048, "useCount": 0, "id": "74787012834", "name": "DAYTONA BEACH INTERNATIONAL AIRPORT, FL US", "quality": 100, "contribution": 0.0}, "72090400299": {"distance": 38719.0, "latitude": 29.067, "longitude": -81.283, "useCount": 0, "id": "72090400299", "name": "DELAND MUNICIPAL AIRPORT SYDNEY H TAYLOR FIELD, FL US", "quality": 100, "contribution": 0.0}, "E9392": {"distance": 31443.0, "latitude": 29.188, "longitude": -81.073, "useCount": 0, "id": "E9392", "name": "EW9392 Daytona Beach FL US", "quality": 0, "contribution": 0.0}, "MRFF1": {"distance": 38056.0, "latitude": 28.641, "longitude": -80.731, "useCount": 0, "id": "MRFF1", "name": "MERRITT ISLAND FL US", "quality": 0, "contribution": 0.0}}}