{"queryCost": 1, "latitude": 36.579, "longitude": -82.752, "resolvedAddress": "36.57900,-82.75200", "address": "36.57900,-82.75200", "timezone": "America/New_York", "tzoffset": -5.0, "days": [{"datetime": "2018-01-08", "datetimeEpoch": 1515387600, "tempmax": 35.1, "tempmin": 24.5, "temp": 31.1, "feelslikemax": 35.0, "feelslikemin": 18.9, "feelslike": 28.9, "dew": 22.6, "humidity": 72.9, "precip": 0.06, "precipprob": 100.0, "precipcover": 20.83, "preciptype": ["rain", "snow"], "snow": 0.0, "snowdepth": 0.0, "windgust": 26.4, "windspeed": 8.9, "winddir": 180.3, "pressure": 1023.5, "cloudcover": 87.0, "visibility": 8.4, "solarradiation": 31.0, "solarenergy": 2.6, "uvindex": 1.0, "sunrise": "07:43:37", "sunriseEpoch": 1515415417, "sunset": "17:32:09", "sunsetEpoch": 1515450729, "moonphase": 0.73, "conditions": "Snow, Rain, Partially cloudy", "description": "Partly cloudy throughout the day with afternoon rain or snow.", "icon": "rain", "stations": ["KLNP", "72405853818", "KTRI", "72335013877", "WSEV2", "72411763802", "K0A9"], "source": "obs"}], "stations": {"KLNP": {"distance": 47816.0, "latitude": 36.97, "longitude": -82.53, "useCount": 0, "id": "KLNP", "name": "KLNP", "quality": 99, "contribution": 0.0}, "72405853818": {"distance": 65245.0, "latitude": 36.683, "longitude": -82.033, "useCount": 0, "id": "72405853818", "name": "ABINGDON VIRGINIA HIGHLANDS AIRPORT, VA US", "quality": 100, "contribution": 0.0}, "KTRI": {"distance": 33746.0, "latitude": 36.47, "longitude": -82.4, "useCount": 0, "id": "KTRI", "name": "KTRI", "quality": 100, "contribution": 0.0}, "72335013877": {"distance": 33455.0, "latitude": 36.48, "longitude": -82.399, "useCount": 0, "id": "72335013877", "name": "BRISTOL AIRPORT, TN US", "quality": 100, "contribution": 0.0}, "WSEV2": {"distance": 43527.0, "latitude": 36.891, "longitude": -82.457, "useCount": 0, "id": "WSEV2", "name": "FLATWOODS VA US", "quality": 0, "contribution": 0.0}, "72411763802": {"distance": 49595.0, "latitude": 36.988, "longitude": -82.53, "useCount": 0, "id": "72411763802", "name": "WISE LONESOME PINE AIRPORT, VA US", "quality": 100, "contribution": 0.0}, "K0A9": {"distance": 57522.0, "latitude": 36.36, "longitude": -82.17, "useCount": 0, "id": "K0A9", "name": "K0A9", "quality": 98, "contribution": 0.0}}}