{"queryCost": 1, "latitude": 37.22, "longitude": -121.745, "resolvedAddress": "37.22000,-121.74500", "address": "37.22000,-121.74500", "timezone": "America/Los_Angeles", "tzoffset": -8.0, "days": [{"datetime": "2018-01-09", "datetimeEpoch": 1515484800, "tempmax": 59.7, "tempmin": 51.8, "temp": 56.2, "feelslikemax": 59.7, "feelslikemin": 51.8, "feelslike": 56.2, "dew": 54.2, "humidity": 93.0, "precip": 0.78, "precipprob": 100.0, "precipcover": 62.5, "preciptype": ["rain"], "snow": 0.0, "snowdepth": 0.0, "windgust": 24.2, "windspeed": 12.3, "winddir": 204.3, "pressure": 1005.4, "cloudcover": 95.1, "visibility": 7.3, "solarradiation": 18.3, "solarenergy": 1.6, "uvindex": 1.0, "sunrise": "07:21:08", "sunriseEpoch": 1515511268, "sunset": "17:07:30", "sunsetEpoch": 1515546450, "moonphase": 0.78, "conditions": "Rain, Overcast", "description": "Cloudy skies throughout the day with a chance of rain throughout the day.", "icon": "rain", "stations": ["KSJC", "D8509", "74505823277", "C2750", "KCVH", "72494523293", "KWVI", "74917900392"], "source": "obs"}], "stations": {"KSJC": {"distance": 21979.0, "latitude": 37.36, "longitude": -121.92, "useCount": 0, "id": "KSJC", "name": "KSJC", "quality": 100, "contribution": 0.0}, "D8509": {"distance": 13995.0, "latitude": 37.259, "longitude": -121.895, "useCount": 0, "id": "D8509", "name": "DW8509 San Jose CA US", "quality": 0, "contribution": 0.0}, "74505823277": {"distance": 31877.0, "latitude": 36.936, "longitude": -121.789, "useCount": 0, "id": "74505823277", "name": "WATSONVILLE MUNICIPAL AIRPORT, CA US", "quality": 99, "contribution": 0.0}, "C2750": {"distance": 6915.0, "latitude": 37.23, "longitude": -121.822, "useCount": 0, "id": "C2750", "name": "CW2750 San Jose CA US", "quality": 0, "contribution": 0.0}, "KCVH": {"distance": 47278.0, "latitude": 36.89, "longitude": -121.41, "useCount": 0, "id": "KCVH", "name": "KCVH", "quality": 100, "contribution": 0.0}, "72494523293": {"distance": 22160.0, "latitude": 37.359, "longitude": -121.924, "useCount": 0, "id": "72494523293", "name": "SAN JOSE, CA US", "quality": 100, "contribution": 0.0}, "KWVI": {"distance": 31425.0, "latitude": 36.94, "longitude": -121.79, "useCount": 0, "id": "KWVI", "name": "KWVI", "quality": 100, "contribution": 0.0}, "74917900392": {"distance": 46021.0, "latitude": 36.9, "longitude": -121.417, "useCount": 0, "id": "74917900392", "name": "HOLLISTER MUNICIPAL AIRPORT, CA US", "quality": 99, "contribution": 0.0}}}