{"queryCost": 1, "latitude": 45.381, "longitude": -122.856, "resolvedAddress": "45.38100,-122.85600", "address": "45.38100,-122.85600", "timezone": "America/Los_Angeles", "tzoffset": -8.0, "days": [{"datetime": "2018-01-12", "datetimeEpoch": 1515744000, "tempmax": 53.3, "tempmin": 48.5, "temp": 50.9, "feelslikemax": 53.3, "feelslikemin": 45.1, "feelslike": 50.5, "dew": 46.6, "humidity": 85.4, "precip": 0.03, "precipprob": 100.0, "precipcover": 12.5, "preciptype": ["rain"], "snow": 0.0, "snowdepth": 0.0, "windgust": 28.1, "windspeed": 15.1, "winddir": 158.8, "pressure": 1027.1, "cloudcover": 98.8, "visibility": 9.6, "solarradiation": 32.3, "solarenergy": 2.7, "uvindex": 1.0, "sunrise": "07:48:48", "sunriseEpoch": 1515772128, "sunset": "16:51:12", "sunsetEpoch": 1515804672, "moonphase": 0.92, "conditions": "Rain, Overcast", "description": "Cloudy skies throughout the day with rain clearing later.", "icon": "rain", "stations": ["KHIO", "ARAO", "KVUO", "C7563", "72695994281", "KUAO", "72688194273", "72698694261", "E4932"], "source": "obs"}], "stations": {"KHIO": {"distance": 20194.0, "latitude": 45.55, "longitude": -122.95, "useCount": 0, "id": "KHIO", "name": "KHIO", "quality": 100, "contribution": 0.0}, "ARAO": {"distance": 13803.0, "latitude": 45.282, "longitude": -122.75, "useCount": 0, "id": "ARAO", "name": "AURORA OR US AGRIMET", "quality": 0, "contribution": 0.0}, "KVUO": {"distance": 30687.0, "latitude": 45.62, "longitude": -122.66, "useCount": 0, "id": "KVUO", "name": "KVUO", "quality": 100, "contribution": 0.0}, "C7563": {"distance": 7186.0, "latitude": 45.372, "longitude": -122.765, "useCount": 0, "id": "C7563", "name": "CW7563 Tualatin OR US", "quality": 0, "contribution": 0.0}, "72695994281": {"distance": 16236.0, "latitude": 45.249, "longitude": -122.769, "useCount": 0, "id": "72695994281", "name": "AURORA STATE AIRPORT, OR US", "quality": 100, "contribution": 0.0}, "KUAO": {"distance": 16062.0, "latitude": 45.25, "longitude": -122.77, "useCount": 0, "id": "KUAO", "name": "KUAO", "quality": 100, "contribution": 0.0}, "72688194273": {"distance": 30069.0, "latitude": 45.195, "longitude": -123.134, "useCount": 0, "id": "72688194273", "name": "MCMINNVILLE MUNICIPAL AIRPORT, OR US", "quality": 100, "contribution": 0.0}, "72698694261": {"distance": 19193.0, "latitude": 45.541, "longitude": -122.949, "useCount": 0, "id": "72698694261", "name": "PORTLAND HILLSBORO AIRPORT, OR US", "quality": 100, "contribution": 0.0}, "E4932": {"distance": 7719.0, "latitude": 45.414, "longitude": -122.769, "useCount": 0, "id": "E4932", "name": "EW4932 Tigard OR US", "quality": 0, "contribution": 0.0}}}