{"queryCost": 1, "latitude": 27.839, "longitude": -81.656, "resolvedAddress": "27.83900,-81.65600", "address": "27.83900,-81.65600", "timezone": "America/New_York", "tzoffset": -5.0, "days": [{"datetime": "2018-01-20", "datetimeEpoch": 1516424400, "tempmax": 68.8, "tempmin": 46.8, "temp": 57.6, "feelslikemax": 68.8, "feelslikemin": 45.3, "feelslike": 57.5, "dew": 48.3, "humidity": 72.45, "precip": 0.0, "precipprob": null, "precipcover": 0.0, "preciptype": null, "snow": 0.0, "snowdepth": 0.0, "windgust": null, "windspeed": 6.8, "winddir": 108.2, "pressure": 1025.1, "cloudcover": 4.2, "visibility": 9.9, "solarradiation": 72.6, "solarenergy": 6.3, "uvindex": 4.0, "sunrise": "07:18:06", "sunriseEpoch": 1516450686, "sunset": "17:57:32", "sunsetEpoch": 1516489052, "moonphase": 0.05, "conditions": "Clear", "description": "Clear conditions throughout the day.", "icon": "clear-day", "stations": ["74793112876", "74904599999", "FROST", "72037392824", "KGIF", "KISM", "KPCM"], "source": "obs"}], "stations": {"74793112876": {"distance": 26657.0, "latitude": 28.062, "longitude": -81.754, "useCount": 0, "id": "74793112876", "name": "WINTER HAVEN GILBERT AIRPORT, FL US", "quality": 100, "contribution": 0.0}, "74904599999": {"distance": 52633.0, "latitude": 27.456, "longitude": -81.342, "useCount": 0, "id": "74904599999", "name": "SEBRING REGIONAL, FL US", "quality": 100, "contribution": 0.0}, "FROST": {"distance": 14416.0, "latitude": 27.76, "longitude": -81.54, "useCount": 0, "id": "FROST", "name": "Frostproof FAWN", "quality": 0, "contribution": 0.0}, "72037392824": {"distance": 53115.0, "latitude": 28.0, "longitude": -82.164, "useCount": 0, "id": "72037392824", "name": "PLANT CITY MUNICIPAL AIRPORT, FL US", "quality": 99, "contribution": 0.0}, "KGIF": {"distance": 25242.0, "latitude": 28.05, "longitude": -81.75, "useCount": 0, "id": "KGIF", "name": "KGIF", "quality": 100, "contribution": 0.0}, "KISM": {"distance": 54504.0, "latitude": 28.29, "longitude": -81.44, "useCount": 0, "id": "KISM", "name": "KISSIMMEE AIRPORT, FL", "quality": 100, "contribution": 0.0}, "KPCM": {"distance": 52715.0, "latitude": 28.0, "longitude": -82.16, "useCount": 0, "id": "KPCM", "name": "KPCM", "quality": 99, "contribution": 0.0}}}