{"queryCost": 1, "latitude": 47.978, "longitude": -122.162, "resolvedAddress": "47.97800,-122.16200", "address": "47.97800,-122.16200", "timezone": "America/Los_Angeles", "tzoffset": -8.0, "days": [{"datetime": "2018-01-21", "datetimeEpoch": 1516521600, "tempmax": 48.8, "tempmin": 41.4, "temp": 45.5, "feelslikemax": 43.2, "feelslikemin": 32.8, "feelslike": 38.0, "dew": 37.7, "humidity": 75.0, "precip": 0.27, "precipprob": 100.0, "precipcover": 37.5, "preciptype": ["rain"], "snow": 0.0, "snowdepth": 0.0, "windgust": 46.5, "windspeed": 27.1, "winddir": 142.3, "pressure": 1011.0, "cloudcover": 86.0, "visibility": 9.7, "solarradiation": 21.5, "solarenergy": 1.9, "uvindex": 2.0, "sunrise": "07:48:33", "sunriseEpoch": 1516549713, "sunset": "16:51:59", "sunsetEpoch": 1516582319, "moonphase": 0.09, "conditions": "Rain, Partially cloudy", "description": "Partly cloudy throughout the day with a chance of rain throughout the day.", "icon": "rain", "stations": ["C4805", "72794504205", "KBFI", "KPAE", "72793524234", "72793724222", "KAWO", "AP795"], "source": "obs"}], "stations": {"C4805": {"distance": 6907.0, "latitude": 47.971, "longitude": -122.07, "useCount": 0, "id": "C4805", "name": "CW4805 Lake Stevens WA US", "quality": 0, "contribution": 0.0}, "72794504205": {"distance": 20328.0, "latitude": 48.161, "longitude": -122.159, "useCount": 0, "id": "72794504205", "name": "ARLINGTON MUNICIPAL AIRPORT, WA US", "quality": 100, "contribution": 0.0}, "KBFI": {"distance": 50929.0, "latitude": 47.53, "longitude": -122.3, "useCount": 0, "id": "KBFI", "name": "KBFI", "quality": 100, "contribution": 0.0}, "KPAE": {"distance": 10913.0, "latitude": 47.92, "longitude": -122.28, "useCount": 0, "id": "KPAE", "name": "KPAE", "quality": 100, "contribution": 0.0}, "72793524234": {"distance": 50912.0, "latitude": 47.53, "longitude": -122.301, "useCount": 0, "id": "72793524234", "name": "SEATTLE BOEING FIELD, WA US", "quality": 100, "contribution": 0.0}, "72793724222": {"distance": 11768.0, "latitude": 47.908, "longitude": -122.28, "useCount": 0, "id": "72793724222", "name": "EVERETT SNOHOMISH CO AIRPORT, WA US", "quality": 100, "contribution": 0.0}, "KAWO": {"distance": 21382.0, "latitude": 48.17, "longitude": -122.17, "useCount": 0, "id": "KAWO", "name": "ARLINGTON MUNI, WA", "quality": 100, "contribution": 0.0}, "AP795": {"distance": 14314.0, "latitude": 48.087, "longitude": -122.06, "useCount": 0, "id": "AP795", "name": "KD7TTL Lake Stevens WA US", "quality": 0, "contribution": 0.0}}}