{"queryCost": 1, "latitude": 42.308, "longitude": -85.19, "resolvedAddress": "42.30800,-85.19000", "address": "42.30800,-85.19000", "timezone": "America/Detroit", "tzoffset": -5.0, "days": [{"datetime": "2018-01-22", "datetimeEpoch": 1516597200, "tempmax": 53.0, "tempmin": 39.9, "temp": 46.8, "feelslikemax": 53.0, "feelslikemin": 36.6, "feelslike": 44.0, "dew": 45.0, "humidity": 93.73, "precip": 0.46, "precipprob": null, "precipcover": 54.17, "preciptype": null, "snow": 0.0, "snowdepth": 0.39, "windgust": 26.2, "windspeed": 15.7, "winddir": 154.6, "pressure": 1005.8, "cloudcover": 84.5, "visibility": 5.5, "solarradiation": 20.6, "solarenergy": 1.7, "uvindex": 1.0, "sunrise": "08:03:02", "sunriseEpoch": 1516626182, "sunset": "17:42:09", "sunsetEpoch": 1516660929, "moonphase": 0.13, "conditions": "Rain, Partially cloudy", "description": "Partly cloudy throughout the day with a chance of rain throughout the day.", "icon": "rain", "stations": ["KRMY", "72635794815", "72541554821", "72539614815", "KAZO", "MICER", "KBTL"], "source": "obs"}], "stations": {"KRMY": {"distance": 20014.0, "latitude": 42.25, "longitude": -84.96, "useCount": 0, "id": "KRMY", "name": "KRMY", "quality": 100, "contribution": 0.0}, "72635794815": {"distance": 30907.0, "latitude": 42.235, "longitude": -85.552, "useCount": 0, "id": "72635794815", "name": "KALAMAZOO BATTLE CREEK INTERNATIONAL AIRPORT, MI US", "quality": 100, "contribution": 0.0}, "72541554821": {"distance": 20318.0, "latitude": 42.251, "longitude": -84.956, "useCount": 0, "id": "72541554821", "name": "MARSHALL BROOKS FIELD AIRPORT, MI US", "quality": 100, "contribution": 0.0}, "72539614815": {"distance": 5030.0, "latitude": 42.308, "longitude": -85.251, "useCount": 0, "id": "72539614815", "name": "BATTLE CREEK KELLOGG AIRPORT, MI US", "quality": 100, "contribution": 0.0}, "KAZO": {"distance": 30900.0, "latitude": 42.23, "longitude": -85.55, "useCount": 0, "id": "KAZO", "name": "KAZO", "quality": 100, "contribution": 0.0}, "MICER": {"distance": 10269.0, "latitude": 42.22, "longitude": -85.153, "useCount": 0, "id": "MICER", "name": "Ceresco MI US MAWN", "quality": 0, "contribution": 0.0}, "KBTL": {"distance": 5019.0, "latitude": 42.3, "longitude": -85.25, "useCount": 0, "id": "KBTL", "name": "KBTL", "quality": 100, "contribution": 0.0}}}