{"queryCost": 1, "latitude": 35.463, "longitude": -94.789, "resolvedAddress": "35.46300,-94.78900", "address": "35.46300,-94.78900", "timezone": "America/Chicago", "tzoffset": -6.0, "days": [{"datetime": "2018-01-22", "datetimeEpoch": 1516600800, "tempmax": 53.7, "tempmin": 37.6, "temp": 45.8, "feelslikemax": 53.7, "feelslikemin": 31.6, "feelslike": 40.7, "dew": 30.0, "humidity": 54.69, "precip": 0.0, "precipprob": null, "precipcover": 4.17, "preciptype": null, "snow": 0.0, "snowdepth": 0.0, "windgust": 36.2, "windspeed": 26.3, "winddir": 261.2, "pressure": 1009.2, "cloudcover": 33.7, "visibility": 9.9, "solarradiation": 152.8, "solarenergy": 6.6, "uvindex": 5.0, "sunrise": "07:25:06", "sunriseEpoch": 1516627506, "sunset": "17:36:48", "sunsetEpoch": 1516664208, "moonphase": 0.13, "conditions": "Partially cloudy", "description": "Becoming cloudy in the afternoon.", "icon": "partly-cloudy-day", "stations": ["72062700214", "72217853953", "KFSM", "AN790", "72213353946", "KGZL", "72344013964", "D9813"], "source": "obs"}], "stations": {"72062700214": {"distance": 34618.0, "latitude": 35.283, "longitude": -95.1, "useCount": 0, "id": "72062700214", "name": "STIGLER REGIONAL AIRPORT, OK US", "quality": 100, "contribution": 0.0}, "72217853953": {"distance": 51474.0, "latitude": 35.021, "longitude": -94.621, "useCount": 0, "id": "72217853953", "name": "POTEAU ROBERT S KERR AIRPORT, OK US", "quality": 100, "contribution": 0.0}, "KFSM": {"distance": 40802.0, "latitude": 35.33, "longitude": -94.37, "useCount": 0, "id": "KFSM", "name": "KFSM", "quality": 100, "contribution": 0.0}, "AN790": {"distance": 33787.0, "latitude": 35.751, "longitude": -94.67, "useCount": 0, "id": "AN790", "name": "STILWELL CASTNET & NCORE OK CHEROKEE", "quality": 0, "contribution": 0.0}, "72213353946": {"distance": 3041.0, "latitude": 35.438, "longitude": -94.803, "useCount": 0, "id": "72213353946", "name": "SALLISAW MUNICIPAL AIRPORT, OK US", "quality": 100, "contribution": 0.0}, "KGZL": {"distance": 34813.0, "latitude": 35.28, "longitude": -95.1, "useCount": 0, "id": "KGZL", "name": "KGZL", "quality": 93, "contribution": 0.0}, "72344013964": {"distance": 41319.0, "latitude": 35.333, "longitude": -94.362, "useCount": 0, "id": "72344013964", "name": "FORT SMITH REGIONAL AIRPORT, AR US", "quality": 100, "contribution": 0.0}, "D9813": {"distance": 58238.0, "latitude": 35.75, "longitude": -95.327, "useCount": 0, "id": "D9813", "name": "DW9813 Muskogee OK US", "quality": 0, "contribution": 0.0}}}