{"queryCost": 1, "latitude": 43.488, "longitude": -112.034, "resolvedAddress": "43.48800,-112.03400", "address": "43.48800,-112.03400", "timezone": "America/Boise", "tzoffset": -7.0, "days": [{"datetime": "2018-01-23", "datetimeEpoch": 1516690800, "tempmax": 32.0, "tempmin": 23.0, "temp": 26.4, "feelslikemax": 32.0, "feelslikemin": 15.7, "feelslike": 21.2, "dew": 23.7, "humidity": 89.67, "precip": 0.0, "precipprob": null, "precipcover": 0.0, "preciptype": null, "snow": 0.13, "snowdepth": 1.66, "windgust": null, "windspeed": 9.1, "winddir": 194.0, "pressure": 1029.7, "cloudcover": 75.1, "visibility": 9.5, "solarradiation": 77.5, "solarenergy": 5.6, "uvindex": 4.0, "sunrise": "07:52:46", "sunriseEpoch": 1516719166, "sunset": "17:27:45", "sunsetEpoch": 1516753665, "moonphase": 0.18, "conditions": "Partially cloudy", "description": "Partly cloudy throughout the day.", "icon": "snow", "stations": ["72681894194", "KRXE", "KPIH", "KIDA", "72578524145", "KET", "72578024156"], "source": "obs"}], "stations": {"72681894194": {"distance": 42409.0, "latitude": 43.832, "longitude": -111.808, "useCount": 0, "id": "72681894194", "name": "REXBURG MADISON CO AIRPORT, ID US", "quality": 100, "contribution": 0.0}, "KRXE": {"distance": 42129.0, "latitude": 43.83, "longitude": -111.81, "useCount": 0, "id": "KRXE", "name": "KRXE", "quality": 100, "contribution": 0.0}, "KPIH": {"distance": 78148.0, "latitude": 42.92, "longitude": -112.6, "useCount": 0, "id": "KPIH", "name": "KPIH", "quality": 100, "contribution": 0.0}, "KIDA": {"distance": 4598.0, "latitude": 43.52, "longitude": -112.07, "useCount": 0, "id": "KIDA", "name": "IDAHO FALLS/FANG, ID", "quality": 100, "contribution": 0.0}, "72578524145": {"distance": 4216.0, "latitude": 43.519, "longitude": -112.064, "useCount": 0, "id": "72578524145", "name": "IDAHO FALLS FANNING FIELD, ID US", "quality": 100, "contribution": 0.0}, "KET": {"distance": 24487.0, "latitude": 43.548, "longitude": -112.326, "useCount": 0, "id": "KET", "name": "Kettle Butte", "quality": 0, "contribution": 0.0}, "72578024156": {"distance": 76771.0, "latitude": 42.92, "longitude": -112.571, "useCount": 0, "id": "72578024156", "name": "POCATELLO REGIONAL AIRPORT, ID US", "quality": 100, "contribution": 0.0}}}