{"queryCost": 1, "latitude": 43.588, "longitude": -84.826, "resolvedAddress": "43.58800,-84.82600", "address": "43.58800,-84.82600", "timezone": "America/Detroit", "tzoffset": -5.0, "days": [{"datetime": "2018-01-24", "datetimeEpoch": 1516770000, "tempmax": 26.4, "tempmin": 22.2, "temp": 24.0, "feelslikemax": 24.4, "feelslikemin": 15.0, "feelslike": 17.9, "dew": 16.6, "humidity": 73.1, "precip": 0.0, "precipprob": null, "precipcover": 0.0, "preciptype": null, "snow": 0.0, "snowdepth": 0.0, "windgust": 19.7, "windspeed": 9.1, "winddir": 179.6, "pressure": null, "cloudcover": 98.0, "visibility": 9.9, "solarradiation": 47.4, "solarenergy": 1.9, "uvindex": 1.0, "sunrise": "08:03:26", "sunriseEpoch": 1516799006, "sunset": "17:39:52", "sunsetEpoch": 1516833592, "moonphase": 0.23, "conditions": "Overcast", "description": "Cloudy skies throughout the day.", "icon": "cloudy", "stations": ["KMOP", "72541614864", "72542404885", "72062900216", "KRQB", "E5813"], "source": "obs"}], "stations": {"KMOP": {"distance": 7794.0, "latitude": 43.62, "longitude": -84.74, "useCount": 0, "id": "KMOP", "name": "KMOP", "quality": 100, "contribution": 0.0}, "72541614864": {"distance": 56145.0, "latitude": 43.717, "longitude": -85.5, "useCount": 0, "id": "72541614864", "name": "BIG RAPIDS ROBEN HOOD AIRPORT, MI US", "quality": 96, "contribution": 0.0}, "72542404885": {"distance": 8081.0, "latitude": 43.622, "longitude": -84.737, "useCount": 0, "id": "72542404885", "name": "MOUNT PLEASANT MUNICIPAL AIRPORT, MI US", "quality": 94, "contribution": 0.0}, "72062900216": {"distance": 46287.0, "latitude": 43.663, "longitude": -84.261, "useCount": 0, "id": "72062900216", "name": "JACK BARSTOW AIRPORT, MI US", "quality": 100, "contribution": 0.0}, "KRQB": {"distance": 56239.0, "latitude": 43.72, "longitude": -85.5, "useCount": 0, "id": "KRQB", "name": "KRQB", "quality": 100, "contribution": 0.0}, "E5813": {"distance": 4431.0, "latitude": 43.576, "longitude": -84.774, "useCount": 0, "id": "E5813", "name": "EW5813 Mount Pleasant MI US", "quality": 0, "contribution": 0.0}}}