{"queryCost": 1, "latitude": 30.309, "longitude": -95.486, "resolvedAddress": "30.30900,-95.48600", "address": "30.30900,-95.48600", "timezone": "America/Chicago", "tzoffset": -6.0, "days": [{"datetime": "2018-01-28", "datetimeEpoch": 1517119200, "tempmax": 69.1, "tempmin": 43.7, "temp": 58.7, "feelslikemax": 69.1, "feelslikemin": 40.8, "feelslike": 58.5, "dew": 54.5, "humidity": 87.92, "precip": 0.0, "precipprob": null, "precipcover": 8.33, "preciptype": null, "snow": 0.0, "snowdepth": 0.0, "windgust": null, "windspeed": 9.2, "winddir": 265.2, "pressure": 1023.4, "cloudcover": 62.2, "visibility": 7.9, "solarradiation": 218.3, "solarenergy": 9.4, "uvindex": 6.0, "sunrise": "07:14:54", "sunriseEpoch": 1517145294, "sunset": "17:55:16", "sunsetEpoch": 1517183716, "moonphase": 0.43, "conditions": "Partially cloudy", "description": "Partly cloudy throughout the day.", "icon": "partly-cloudy-day", "stations": ["72242953910", "AN569", "KIAH", "CKNT2", "72244453902", "KDWH", "KCXO", "72243012960"], "source": "obs"}], "stations": {"72242953910": {"distance": 27717.0, "latitude": 30.068, "longitude": -95.556, "useCount": 0, "id": "72242953910", "name": "HOUSTON HOOKS MEMORIAL AIRPORT, TX US", "quality": 100, "contribution": 0.0}, "AN569": {"distance": 7449.0, "latitude": 30.35, "longitude": -95.425, "useCount": 0, "id": "AN569", "name": "Conroe Relocated C78 TX TCEQ", "quality": 0, "contribution": 0.0}, "KIAH": {"distance": 39944.0, "latitude": 29.97, "longitude": -95.35, "useCount": 0, "id": "KIAH", "name": "KIAH", "quality": 100, "contribution": 0.0}, "CKNT2": {"distance": 8109.0, "latitude": 30.236, "longitude": -95.483, "useCount": 0, "id": "CKNT2", "name": "CONROE TX US", "quality": 0, "contribution": 0.0}, "72244453902": {"distance": 8728.0, "latitude": 30.357, "longitude": -95.414, "useCount": 0, "id": "72244453902", "name": "CONROE MONTGOMERY CO AIRPORT, TX US", "quality": 100, "contribution": 0.0}, "KDWH": {"distance": 27309.0, "latitude": 30.07, "longitude": -95.55, "useCount": 0, "id": "KDWH", "name": "KDWH", "quality": 100, "contribution": 0.0}, "KCXO": {"distance": 8611.0, "latitude": 30.35, "longitude": -95.41, "useCount": 0, "id": "KCXO", "name": "KCXO", "quality": 100, "contribution": 0.0}, "72243012960": {"distance": 38580.0, "latitude": 29.98, "longitude": -95.36, "useCount": 0, "id": "72243012960", "name": "HOUSTON INTERCONTINENTAL AIRPORT, TX US", "quality": 100, "contribution": 0.0}}}