{"queryCost": 1, "latitude": 39.85, "longitude": -105.074, "resolvedAddress": "39.85000,-105.07400", "address": "39.85000,-105.07400", "timezone": "America/Denver", "tzoffset": -7.0, "days": [{"datetime": "2018-01-31", "datetimeEpoch": 1517382000, "tempmax": 52.8, "tempmin": 25.4, "temp": 35.7, "feelslikemax": 52.8, "feelslikemin": 18.7, "feelslike": 30.7, "dew": 22.2, "humidity": 62.27, "precip": 0.0, "precipprob": null, "precipcover": 0.0, "preciptype": null, "snow": 0.0, "snowdepth": 0.0, "windgust": 28.9, "windspeed": 12.9, "winddir": 69.0, "pressure": 1011.3, "cloudcover": 59.7, "visibility": 9.9, "solarradiation": 82.8, "solarenergy": 6.9, "uvindex": 3.0, "sunrise": "07:09:18", "sunriseEpoch": 1517407758, "sunset": "17:18:41", "sunsetEpoch": 1517444321, "moonphase": 0.5, "conditions": "Partially cloudy", "description": "Partly cloudy throughout the day.", "icon": "partly-cloudy-day", "stations": ["KLMO", "KBKF", "KDEN", "72469523036", "D9882", "72565003017", "C5621", "AV313", "AR893", "72053800164"], "source": "obs"}], "stations": {"KLMO": {"distance": 34192.0, "latitude": 40.15, "longitude": -105.16, "useCount": 0, "id": "KLMO", "name": "KLMO", "quality": 96, "contribution": 0.0}, "KBKF": {"distance": 31267.0, "latitude": 39.72, "longitude": -104.75, "useCount": 0, "id": "KBKF", "name": "KBKF", "quality": 100, "contribution": 0.0}, "KDEN": {"distance": 34542.0, "latitude": 39.86, "longitude": -104.67, "useCount": 0, "id": "KDEN", "name": "KDEN", "quality": 100, "contribution": 0.0}, "72469523036": {"distance": 31439.0, "latitude": 39.717, "longitude": -104.75, "useCount": 0, "id": "72469523036", "name": "AURORA BUCKLEY FIELD ANGB, CO US", "quality": 100, "contribution": 0.0}, "D9882": {"distance": 9809.0, "latitude": 39.768, "longitude": -105.116, "useCount": 0, "id": "D9882", "name": "DW9882 Wheat Ridge CO US", "quality": 0, "contribution": 0.0}, "72565003017": {"distance": 35608.0, "latitude": 39.833, "longitude": -104.658, "useCount": 0, "id": "72565003017", "name": "DENVER INTERNATIONAL AIRPORT, CO US", "quality": 100, "contribution": 0.0}, "C5621": {"distance": 6548.0, "latitude": 39.9, "longitude": -105.033, "useCount": 0, "id": "C5621", "name": "CW5621 Westminster CO US", "quality": 0, "contribution": 0.0}, "AV313": {"distance": 15961.0, "latitude": 39.991, "longitude": -105.11, "useCount": 0, "id": "AV313", "name": "AA0FC Lafayette CO US", "quality": 0, "contribution": 0.0}, "AR893": {"distance": 6666.0, "latitude": 39.807, "longitude": -105.128, "useCount": 0, "id": "AR893", "name": "N0PSJ-1 Arvada CO US", "quality": 0, "contribution": 0.0}, "72053800164": {"distance": 36168.0, "latitude": 40.167, "longitude": -105.167, "useCount": 0, "id": "72053800164", "name": "VANCE BRAND AIRPORT, CO US", "quality": 96, "contribution": 0.0}}}