{"queryCost": 1, "latitude": 39.054, "longitude": -82.964, "resolvedAddress": "39.05400,-82.96400", "address": "39.05400,-82.96400", "timezone": "America/New_York", "tzoffset": -5.0, "days": [{"datetime": "2018-02-01", "datetimeEpoch": 1517461200, "tempmax": 47.6, "tempmin": 27.4, "temp": 41.5, "feelslikemax": 43.4, "feelslikemin": 17.0, "feelslike": 35.8, "dew": 29.1, "humidity": 64.21, "precip": 0.07, "precipprob": null, "precipcover": 37.5, "preciptype": null, "snow": 0.0, "snowdepth": 0.0, "windgust": 25.3, "windspeed": 13.9, "winddir": 258.9, "pressure": 1016.0, "cloudcover": 68.3, "visibility": 9.2, "solarradiation": 87.5, "solarenergy": 4.1, "uvindex": 4.0, "sunrise": "07:38:23", "sunriseEpoch": 1517488703, "sunset": "17:53:00", "sunsetEpoch": 1517525580, "moonphase": 0.51, "conditions": "Rain, Partially cloudy", "description": "Partly cloudy throughout the day with rain.", "icon": "rain", "stations": ["72039700131", "KRZT", "CHEO1", "KDWU", "KUNI", "72044999999", "E9276", "D0209"], "source": "obs"}], "stations": {"72039700131": {"distance": 65675.0, "latitude": 39.217, "longitude": -82.233, "useCount": 0, "id": "72039700131", "name": "OHIO UNIVERSITY AIRPORT SNYDER FIELD, OH US", "quality": 100, "contribution": 0.0}, "KRZT": {"distance": 42044.0, "latitude": 39.43, "longitude": -83.01, "useCount": 0, "id": "KRZT", "name": "KRZT", "quality": 100, "contribution": 0.0}, "CHEO1": {"distance": 36980.0, "latitude": 39.386, "longitude": -82.985, "useCount": 0, "id": "CHEO1", "name": "CHILLICOTHE OH US", "quality": 0, "contribution": 0.0}, "KDWU": {"distance": 58959.0, "latitude": 38.555, "longitude": -82.738, "useCount": 0, "id": "KDWU", "name": "Ashland Regional Airport, KY", "quality": 100, "contribution": 0.0}, "KUNI": {"distance": 65717.0, "latitude": 39.21, "longitude": -82.23, "useCount": 0, "id": "KUNI", "name": "KUNI", "quality": 95, "contribution": 0.0}, "72044999999": {"distance": 58959.0, "latitude": 38.555, "longitude": -82.738, "useCount": 0, "id": "72044999999", "name": "ASHLAND REGIONAL, KY US", "quality": 99, "contribution": 0.0}, "E9276": {"distance": 31422.0, "latitude": 39.333, "longitude": -83.017, "useCount": 0, "id": "E9276", "name": "EW9276 Chillicothe OH US", "quality": 0, "contribution": 0.0}, "D0209": {"distance": 37609.0, "latitude": 39.381, "longitude": -82.855, "useCount": 0, "id": "D0209", "name": "DW0209 Chillicothe OH US", "quality": 0, "contribution": 0.0}}}