{"queryCost": 1, "latitude": 35.319, "longitude": -97.205, "resolvedAddress": "35.31900,-97.20500", "address": "35.31900,-97.20500", "timezone": "America/Chicago", "tzoffset": -6.0, "days": [{"datetime": "2018-02-01", "datetimeEpoch": 1517464800, "tempmax": 51.2, "tempmin": 30.9, "temp": 42.1, "feelslikemax": 51.2, "feelslikemin": 20.9, "feelslike": 34.6, "dew": 20.9, "humidity": 44.2, "precip": 0.0, "precipprob": 0.0, "precipcover": 0.0, "preciptype": null, "snow": 0.0, "snowdepth": 0.0, "windgust": 31.2, "windspeed": 23.1, "winddir": 20.5, "pressure": 1022.1, "cloudcover": 12.9, "visibility": 9.9, "solarradiation": 131.6, "solarenergy": 11.3, "uvindex": 5.0, "sunrise": "07:28:09", "sunriseEpoch": 1517491689, "sunset": "17:57:06", "sunsetEpoch": 1517529426, "moonphase": 0.51, "conditions": "Clear", "description": "Clear conditions throughout the day.", "icon": "clear-day", "stations": ["72218793911", "72354013919", "KSNL", "72353013967", "E8278", "KTIK", "KOKC"], "source": "obs"}], "stations": {"72218793911": {"distance": 24133.0, "latitude": 35.357, "longitude": -96.943, "useCount": 0, "id": "72218793911", "name": "SHAWNEE MUNICIPAL AIRPORT, OK US", "quality": 100, "contribution": 0.0}, "72354013919": {"distance": 19500.0, "latitude": 35.417, "longitude": -97.383, "useCount": 0, "id": "72354013919", "name": "OKLAHOMA CITY TINKER AFB, OK US", "quality": 99, "contribution": 0.0}, "KSNL": {"distance": 24493.0, "latitude": 35.36, "longitude": -96.94, "useCount": 0, "id": "KSNL", "name": "KSNL", "quality": 100, "contribution": 0.0}, "72353013967": {"distance": 36750.0, "latitude": 35.389, "longitude": -97.601, "useCount": 0, "id": "72353013967", "name": "OKLAHOMA CITY WILL ROGERS WORLD AIRPORT, OK US", "quality": 100, "contribution": 0.0}, "E8278": {"distance": 21899.0, "latitude": 35.216, "longitude": -97.41, "useCount": 0, "id": "E8278", "name": "EW8278 Norman OK US", "quality": 0, "contribution": 0.0}, "KTIK": {"distance": 19462.0, "latitude": 35.42, "longitude": -97.38, "useCount": 0, "id": "KTIK", "name": "KTIK", "quality": 100, "contribution": 0.0}, "KOKC": {"distance": 36976.0, "latitude": 35.4, "longitude": -97.6, "useCount": 0, "id": "KOKC", "name": "KOKC", "quality": 100, "contribution": 0.0}}}