{"queryCost": 1, "latitude": 34.88, "longitude": -83.389, "resolvedAddress": "34.88000,-83.38900", "address": "34.88000,-83.38900", "timezone": "America/New_York", "tzoffset": -5.0, "days": [{"datetime": "2018-02-01", "datetimeEpoch": 1517461200, "tempmax": 56.0, "tempmin": 25.8, "temp": 41.7, "feelslikemax": 56.0, "feelslikemin": 25.8, "feelslike": 41.2, "dew": 32.6, "humidity": 70.5, "precip": 0.03, "precipprob": 100.0, "precipcover": 8.33, "preciptype": ["rain"], "snow": 0.0, "snowdepth": 0.0, "windgust": 23.0, "windspeed": 9.9, "winddir": 192.8, "pressure": 1020.0, "cloudcover": 70.0, "visibility": 9.7, "solarradiation": 56.5, "solarenergy": 4.7, "uvindex": 3.0, "sunrise": "07:32:07", "sunriseEpoch": 1517488327, "sunset": "18:02:36", "sunsetEpoch": 1517526156, "moonphase": 0.51, "conditions": "Rain, Partially cloudy", "description": "Partly cloudy throughout the day with late afternoon rain.", "icon": "rain", "stations": ["TULG1", "K1A5", "72040999999", "KCEU", "72311853850", "KRHP", "A0000363844"], "source": "obs"}], "stations": {"TULG1": {"distance": 5753.0, "latitude": 34.906, "longitude": -83.334, "useCount": 0, "id": "TULG1", "name": "TALLULAH GA US", "quality": 0, "contribution": 0.0}, "K1A5": {"distance": 37954.0, "latitude": 35.22, "longitude": -83.42, "useCount": 0, "id": "K1A5", "name": "K1A5", "quality": 99, "contribution": 0.0}, "72040999999": {"distance": 54385.0, "latitude": 34.85, "longitude": -83.983, "useCount": 0, "id": "72040999999", "name": "BLAIRSVILLE AIRPORT, GA US", "quality": 100, "contribution": 0.0}, "KCEU": {"distance": 52083.0, "latitude": 34.67, "longitude": -82.88, "useCount": 0, "id": "KCEU", "name": "KCEU", "quality": 100, "contribution": 0.0}, "72311853850": {"distance": 51464.0, "latitude": 34.672, "longitude": -82.886, "useCount": 0, "id": "72311853850", "name": "CLEMSON OCONEE CO AIRPORT, SC US", "quality": 100, "contribution": 0.0}, "KRHP": {"distance": 55081.0, "latitude": 35.19, "longitude": -83.86, "useCount": 0, "id": "KRHP", "name": "KRHP", "quality": 99, "contribution": 0.0}, "A0000363844": {"distance": 38226.0, "latitude": 35.223, "longitude": -83.419, "useCount": 0, "id": "A0000363844", "name": "MACON CO AIRPORT, NC US", "quality": 98, "contribution": 0.0}}}