{"queryCost": 1, "latitude": 29.861, "longitude": -95.72, "resolvedAddress": "29.86100,-95.72000", "address": "29.86100,-95.72000", "timezone": "America/Chicago", "tzoffset": -6.0, "days": [{"datetime": "2015-01-31", "datetimeEpoch": 1422684000, "tempmax": 63.6, "tempmin": 46.9, "temp": 55.3, "feelslikemax": 63.6, "feelslikemin": 43.7, "feelslike": 54.0, "dew": 47.3, "humidity": 74.4, "precip": 0.0, "precipprob": 0.0, "precipcover": 0.0, "preciptype": null, "snow": 0.0, "snowdepth": 0.0, "windgust": 24.2, "windspeed": 15.1, "winddir": 98.2, "pressure": 1020.4, "cloudcover": 57.1, "visibility": 9.3, "solarradiation": 61.7, "solarenergy": 5.3, "uvindex": 2.0, "sunrise": "07:13:38", "sunriseEpoch": 1422710018, "sunset": "17:59:21", "sunsetEpoch": 1422748761, "moonphase": 0.45, "conditions": "Partially cloudy", "description": "Partly cloudy throughout the day.", "icon": "partly-cloudy-day", "stations": ["72254312977", "KSGR", "72059400188", "72242953910", "KDWH", "72243012960"], "source": "obs"}], "stations": {"72254312977": {"distance": 27311.0, "latitude": 29.622, "longitude": -95.657, "useCount": 0, "id": "72254312977", "name": "HOUSTON SUGARLAND MEM, TX US", "quality": 100, "contribution": 0.0}, "KSGR": {"distance": 27448.0, "latitude": 29.62, "longitude": -95.66, "useCount": 0, "id": "KSGR", "name": "KSGR", "quality": 100, "contribution": 0.0}, "72059400188": {"distance": 36290.0, "latitude": 29.717, "longitude": -95.383, "useCount": 0, "id": "72059400188", "name": "HOUSTON DUNN HELISTOP, TX US", "quality": 100, "contribution": 0.0}, "72242953910": {"distance": 27897.0, "latitude": 30.068, "longitude": -95.556, "useCount": 0, "id": "72242953910", "name": "HOUSTON HOOKS MEMORIAL AIRPORT, TX US", "quality": 100, "contribution": 0.0}, "KDWH": {"distance": 28462.0, "latitude": 30.07, "longitude": -95.55, "useCount": 0, "id": "KDWH", "name": "KDWH", "quality": 100, "contribution": 0.0}, "72243012960": {"distance": 37174.0, "latitude": 29.98, "longitude": -95.36, "useCount": 0, "id": "72243012960", "name": "HOUSTON INTERCONTINENTAL AIRPORT, TX US", "quality": 100, "contribution": 0.0}}}