{"queryCost": 1, "latitude": 40.455, "longitude": -79.888, "resolvedAddress": "40.45500,-79.88800", "address": "40.45500,-79.88800", "timezone": "America/New_York", "tzoffset": -5.0, "days": [{"datetime": "2018-02-11", "datetimeEpoch": 1518325200, "tempmax": 55.9, "tempmin": 33.0, "temp": 42.5, "feelslikemax": 55.9, "feelslikemin": 26.7, "feelslike": 39.7, "dew": 40.9, "humidity": 94.1, "precip": 0.53, "precipprob": 100.0, "precipcover": 66.67, "preciptype": ["rain", "snow"], "snow": 1.3, "snowdepth": 1.0, "windgust": 25.3, "windspeed": 14.6, "winddir": 229.5, "pressure": 1012.9, "cloudcover": 84.6, "visibility": 3.3, "solarradiation": 23.6, "solarenergy": 1.9, "uvindex": 1.0, "sunrise": "07:18:03", "sunriseEpoch": 1518351483, "sunset": "17:50:03", "sunsetEpoch": 1518389403, "moonphase": 0.92, "conditions": "Snow, Rain, Partially cloudy", "description": "Partly cloudy throughout the day with a chance of rain or snow throughout the day.", "icon": "snow", "stations": ["KBTP", "KAGC", "72512464705", "E7897", "KPIT", "72520514762", "72520094823"], "source": "obs"}], "stations": {"KBTP": {"distance": 36556.0, "latitude": 40.78, "longitude": -79.95, "useCount": 0, "id": "KBTP", "name": "BUTLER CO., PA", "quality": 100, "contribution": 0.0}, "KAGC": {"distance": 12219.0, "latitude": 40.35, "longitude": -79.93, "useCount": 0, "id": "KAGC", "name": "KAGC", "quality": 100, "contribution": 0.0}, "72512464705": {"distance": 36211.0, "latitude": 40.777, "longitude": -79.95, "useCount": 0, "id": "72512464705", "name": "BUTLER CO AIRPORT, PA US", "quality": 99, "contribution": 0.0}, "E7897": {"distance": 10117.0, "latitude": 40.402, "longitude": -79.985, "useCount": 0, "id": "E7897", "name": "EW7897 Pittsburgh PA US", "quality": 0, "contribution": 0.0}, "KPIT": {"distance": 28555.0, "latitude": 40.5, "longitude": -80.22, "useCount": 0, "id": "KPIT", "name": "KPIT", "quality": 100, "contribution": 0.0}, "72520514762": {"distance": 11525.0, "latitude": 40.355, "longitude": -79.922, "useCount": 0, "id": "72520514762", "name": "PITTSBURGH ALLEGHENY CO AIRPORT, PA US", "quality": 100, "contribution": 0.0}, "72520094823": {"distance": 27837.0, "latitude": 40.485, "longitude": -80.214, "useCount": 0, "id": "72520094823", "name": "PITTSBURGH ASOS, PA US", "quality": 100, "contribution": 0.0}}}