{"queryCost": 1, "latitude": 35.198, "longitude": -111.657, "resolvedAddress": "35.19800,-111.65700", "address": "35.19800,-111.65700", "timezone": "America/Phoenix", "tzoffset": -7.0, "days": [{"datetime": "2018-02-09", "datetimeEpoch": 1518159600, "tempmax": 61.3, "tempmin": 20.8, "temp": 41.7, "feelslikemax": 61.3, "feelslikemin": 20.8, "feelslike": 40.9, "dew": 12.7, "humidity": 37.2, "precip": 0.0, "precipprob": 0.0, "precipcover": 0.0, "preciptype": null, "snow": 0.0, "snowdepth": 0.0, "windgust": 26.2, "windspeed": 18.0, "winddir": 130.0, "pressure": 1017.2, "cloudcover": 0.0, "visibility": 9.9, "solarradiation": 203.6, "solarenergy": 17.7, "uvindex": 7.0, "sunrise": "07:18:48", "sunriseEpoch": 1518185928, "sunset": "18:03:19", "sunsetEpoch": 1518224599, "moonphase": 0.84, "conditions": "Clear", "description": "Clear conditions throughout the day.", "icon": "clear-day", "stations": ["72376099999", "KFLG", "72375600375", "72375003103", "D6509", "KSEZ", "KCMR", "QFLA3"], "source": "obs"}], "stations": {"72376099999": {"distance": 14701.0, "latitude": 35.217, "longitude": -111.817, "useCount": 0, "id": "72376099999", "name": "FLAGSTAFF, AZ US", "quality": 67, "contribution": 0.0}, "KFLG": {"distance": 7662.0, "latitude": 35.13, "longitude": -111.67, "useCount": 0, "id": "KFLG", "name": "KFLG", "quality": 100, "contribution": 0.0}, "72375600375": {"distance": 40406.0, "latitude": 34.85, "longitude": -111.783, "useCount": 0, "id": "72375600375", "name": "SEDONA AIRPORT, AZ US", "quality": 100, "contribution": 0.0}, "72375003103": {"distance": 6056.0, "latitude": 35.144, "longitude": -111.666, "useCount": 0, "id": "72375003103", "name": "FLAGSTAFF PULLIAM AIRPORT, AZ US", "quality": 100, "contribution": 0.0}, "D6509": {"distance": 16861.0, "latitude": 35.277, "longitude": -111.499, "useCount": 0, "id": "D6509", "name": "DW6509 Flagstaff AZ US", "quality": 0, "contribution": 0.0}, "KSEZ": {"distance": 40329.0, "latitude": 34.85, "longitude": -111.78, "useCount": 0, "id": "KSEZ", "name": "KSEZ", "quality": 100, "contribution": 0.0}, "KCMR": {"distance": 50418.0, "latitude": 35.29, "longitude": -112.2, "useCount": 0, "id": "KCMR", "name": "KCMR", "quality": 99, "contribution": 0.0}, "QFLA3": {"distance": 6499.0, "latitude": 35.141, "longitude": -111.673, "useCount": 0, "id": "QFLA3", "name": "FLAGSTAFF AZ US", "quality": 0, "contribution": 0.0}}}