{"queryCost": 1, "latitude": 30.197, "longitude": -97.736, "resolvedAddress": "30.19700,-97.73600", "address": "30.19700,-97.73600", "timezone": "America/Chicago", "tzoffset": -6.0, "days": [{"datetime": "2018-02-19", "datetimeEpoch": 1519020000, "tempmax": 80.0, "tempmin": 69.1, "temp": 73.2, "feelslikemax": 81.9, "feelslikemin": 69.1, "feelslike": 73.3, "dew": 66.4, "humidity": 79.88, "precip": 0.0, "precipprob": null, "precipcover": 0.0, "preciptype": null, "snow": 0.0, "snowdepth": 0.0, "windgust": 40.1, "windspeed": 26.1, "winddir": 167.4, "pressure": 1011.0, "cloudcover": 95.0, "visibility": 9.9, "solarradiation": 121.8, "solarenergy": 10.5, "uvindex": 3.0, "sunrise": "07:07:12", "sunriseEpoch": 1519045632, "sunset": "18:22:41", "sunsetEpoch": 1519086161, "moonphase": 0.07, "conditions": "Overcast", "description": "Cloudy skies throughout the day.", "icon": "cloudy", "stations": ["C0133", "72253912979", "E6166", "KATT", "KAUS", "72064800230", "AURT2", "KEDC", "72254013904", "72254413958", "D9418", "KHYI"], "source": "obs"}], "stations": {"C0133": {"distance": 12120.0, "latitude": 30.181, "longitude": -97.86, "useCount": 0, "id": "C0133", "name": "CW0133 Austin TX US", "quality": 0, "contribution": 0.0}, "E6166": {"distance": 13581.0, "latitude": 30.16, "longitude": -97.87, "useCount": 0, "id": "E6166", "name": "EW6166 Austin TX US", "quality": 0, "contribution": 0.0}, "AURT2": {"distance": 13489.0, "latitude": 30.177, "longitude": -97.874, "useCount": 0, "id": "AURT2", "name": "SOUTH AUSTIN RAWS TX US", "quality": 0, "contribution": 0.0}, "72254013904": {"distance": 5615.0, "latitude": 30.183, "longitude": -97.68, "useCount": 0, "id": "72254013904", "name": "AUSTIN BERGSTROM INTERNATIONAL AIRPORT, TX US", "quality": 100, "contribution": 0.0}, "KHYI": {"distance": 35494.0, "latitude": 29.9, "longitude": -97.87, "useCount": 0, "id": "KHYI", "name": "SAN_MARCOS_(AWOS), TX", "quality": 100, "contribution": 0.0}, "72253912979": {"distance": 36262.0, "latitude": 29.891, "longitude": -97.864, "useCount": 0, "id": "72253912979", "name": "SAN MARCOS MUNICIPAL AIRPORT, TX US", "quality": 100, "contribution": 0.0}, "KATT": {"distance": 14077.0, "latitude": 30.32, "longitude": -97.77, "useCount": 0, "id": "KATT", "name": "KATT", "quality": 100, "contribution": 0.0}, "KAUS": {"distance": 6398.0, "latitude": 30.19, "longitude": -97.67, "useCount": 0, "id": "KAUS", "name": "KAUS", "quality": 100, "contribution": 0.0}, "72064800230": {"distance": 27380.0, "latitude": 30.395, "longitude": -97.567, "useCount": 0, "id": "72064800230", "name": "AUSTIN EXECUTIVE AIRPORT, TX US", "quality": 99, "contribution": 0.0}, "KEDC": {"distance": 27663.0, "latitude": 30.4, "longitude": -97.57, "useCount": 0, "id": "KEDC", "name": "KEDC", "quality": 98, "contribution": 0.0}, "72254413958": {"distance": 13980.0, "latitude": 30.321, "longitude": -97.76, "useCount": 0, "id": "72254413958", "name": "AUSTIN CAMP MABRY, TX US", "quality": 100, "contribution": 0.0}, "D9418": {"distance": 5752.0, "latitude": 30.245, "longitude": -97.759, "useCount": 0, "id": "D9418", "name": "DW9418 Austin TX US", "quality": 0, "contribution": 0.0}}}