{"queryCost": 1, "latitude": 39.366, "longitude": -78.038, "resolvedAddress": "39.36600,-78.03800", "address": "39.36600,-78.03800", "timezone": "America/New_York", "tzoffset": -5.0, "days": [{"datetime": "2018-02-17", "datetimeEpoch": 1518843600, "tempmax": 37.9, "tempmin": 23.3, "temp": 31.6, "feelslikemax": 33.9, "feelslikemin": 19.8, "feelslike": 27.0, "dew": 25.2, "humidity": 78.2, "precip": 0.04, "precipprob": 100.0, "precipcover": 16.67, "preciptype": ["rain", "snow"], "snow": 1.1, "snowdepth": 0.5, "windgust": 28.9, "windspeed": 13.6, "winddir": 179.7, "pressure": 1023.8, "cloudcover": 49.0, "visibility": 7.7, "solarradiation": 77.7, "solarenergy": 6.7, "uvindex": 5.0, "sunrise": "07:01:29", "sunriseEpoch": 1518868889, "sunset": "17:51:19", "sunsetEpoch": 1518907879, "moonphase": 0.01, "conditions": "Snow, Rain, Partially cloudy", "description": "Becoming cloudy in the afternoon with rain or snow.", "icon": "snow", "stations": ["KMRB", "72405303717", "72406693706", "72417713734", "KHGR", "KOKV", "MTGW2"], "source": "obs"}], "stations": {"KMRB": {"distance": 6263.0, "latitude": 39.4, "longitude": -77.98, "useCount": 0, "id": "KMRB", "name": "KMRB", "quality": 100, "contribution": 0.0}, "72405303717": {"distance": 26433.0, "latitude": 39.143, "longitude": -78.144, "useCount": 0, "id": "72405303717", "name": "WINCHESTER REGIONAL AIRPORT, VA US", "quality": 100, "contribution": 0.0}, "72406693706": {"distance": 46169.0, "latitude": 39.706, "longitude": -77.73, "useCount": 0, "id": "72406693706", "name": "HAGERSTOWN REGIONAL AIRPORT, MD US", "quality": 100, "contribution": 0.0}, "72417713734": {"distance": 9041.0, "latitude": 39.404, "longitude": -77.945, "useCount": 0, "id": "72417713734", "name": "MARTINSBURG EASTERN WEST VIRGINIA REGIONAL AIRPORT, WV US", "quality": 100, "contribution": 0.0}, "KHGR": {"distance": 45625.0, "latitude": 39.7, "longitude": -77.73, "useCount": 0, "id": "KHGR", "name": "KHGR", "quality": 99, "contribution": 0.0}, "KOKV": {"distance": 25911.0, "latitude": 39.15, "longitude": -78.15, "useCount": 0, "id": "KOKV", "name": "KOKV", "quality": 99, "contribution": 0.0}, "MTGW2": {"distance": 13616.0, "latitude": 39.356, "longitude": -77.88, "useCount": 0, "id": "MTGW2", "name": "KEARNEYSVILLE WV US", "quality": 0, "contribution": 0.0}}}