{"queryCost": 1, "latitude": 32.309, "longitude": -106.764, "resolvedAddress": "32.30900,-106.76400", "address": "32.30900,-106.76400", "timezone": "America/Denver", "tzoffset": -7.0, "days": [{"datetime": "2018-02-17", "datetimeEpoch": 1518850800, "tempmax": 59.2, "tempmin": 45.8, "temp": 51.3, "feelslikemax": 59.2, "feelslikemin": 44.7, "feelslike": 51.0, "dew": 46.3, "humidity": 84.61, "precip": 0.05, "precipprob": null, "precipcover": 4.17, "preciptype": null, "snow": 0.0, "snowdepth": 0.0, "windgust": null, "windspeed": 5.8, "winddir": 176.9, "pressure": 1018.1, "cloudcover": 41.0, "visibility": 9.2, "solarradiation": 187.2, "solarenergy": 11.5, "uvindex": 6.0, "sunrise": "06:47:32", "sunriseEpoch": 1518875252, "sunset": "17:54:57", "sunsetEpoch": 1518915297, "moonphase": 0.01, "conditions": "Rain, Partially cloudy", "description": "Clearing in the afternoon with early morning rain.", "icon": "rain", "stations": ["99999903074", "NMC07", "KLRU", "KBIF", "72270499999", "72364099999", "72269593041"], "source": "obs"}], "stations": {"99999903074": {"distance": 33988.0, "latitude": 32.614, "longitude": -106.741, "useCount": 0, "id": "99999903074", "name": "LAS CRUCES 20 N, NM US", "quality": 100, "contribution": 0.0}, "NMC07": {"distance": 3007.0, "latitude": 32.282, "longitude": -106.76, "useCount": 0, "id": "NMC07", "name": "NMSU Main Campus NM US NMCC", "quality": 0, "contribution": 0.0}, "KLRU": {"distance": 15030.0, "latitude": 32.28, "longitude": -106.92, "useCount": 0, "id": "KLRU", "name": "KLRU", "quality": 100, "contribution": 0.0}, "KBIF": {"distance": 62631.0, "latitude": 31.85, "longitude": -106.38, "useCount": 0, "id": "KBIF", "name": "KBIF", "quality": 98, "contribution": 0.0}, "72270499999": {"distance": 62676.0, "latitude": 31.85, "longitude": -106.38, "useCount": 0, "id": "72270499999", "name": "BIGGS ARMY AIR FIELD FORT BLISS TEXAS USA, TX US", "quality": 98, "contribution": 0.0}, "72364099999": {"distance": 48057.0, "latitude": 31.88, "longitude": -106.703, "useCount": 0, "id": "72364099999", "name": "DONA ANA CO INTERNATIONAL JETPORT ARPT SANTA TERESA, NM US", "quality": 100, "contribution": 0.0}, "72269593041": {"distance": 14679.0, "latitude": 32.283, "longitude": -106.917, "useCount": 0, "id": "72269593041", "name": "LAS CRUCES MUNICIPAL AIRPORT, NM US", "quality": 100, "contribution": 0.0}}}