{"queryCost": 1, "latitude": 36.154, "longitude": -95.673, "resolvedAddress": "36.15400,-95.67300", "address": "36.15400,-95.67300", "timezone": "America/Chicago", "tzoffset": -6.0, "days": [{"datetime": "2018-02-17", "datetimeEpoch": 1518847200, "tempmax": 59.0, "tempmin": 36.6, "temp": 45.1, "feelslikemax": 59.0, "feelslikemin": 29.5, "feelslike": 42.3, "dew": 36.3, "humidity": 74.6, "precip": 0.43, "precipprob": 100.0, "precipcover": 25.0, "preciptype": ["rain"], "snow": 0.0, "snowdepth": 0.0, "windgust": 20.6, "windspeed": 10.4, "winddir": 170.3, "pressure": 1019.9, "cloudcover": 61.9, "visibility": 8.3, "solarradiation": 134.8, "solarenergy": 11.8, "uvindex": 7.0, "sunrise": "07:07:47", "sunriseEpoch": 1518872867, "sunset": "18:06:03", "sunsetEpoch": 1518912363, "moonphase": 0.01, "conditions": "Rain, Partially cloudy", "description": "Partly cloudy throughout the day with rain clearing later.", "icon": "rain", "stations": ["72209153940", "72356453908", "KTUL", "E2961", "KGCM", "KRVS", "72356013968"], "source": "obs"}], "stations": {"72209153940": {"distance": 23363.0, "latitude": 36.294, "longitude": -95.479, "useCount": 0, "id": "72209153940", "name": "CLAREMORE REGIONAL AIRPORT, OK US", "quality": 99, "contribution": 0.0}, "72356453908": {"distance": 30778.0, "latitude": 36.039, "longitude": -95.984, "useCount": 0, "id": "72356453908", "name": "TULSA RICHARD L JONES JR AIRPORT, OK US", "quality": 100, "contribution": 0.0}, "KTUL": {"distance": 21030.0, "latitude": 36.2, "longitude": -95.9, "useCount": 0, "id": "KTUL", "name": "KTUL", "quality": 100, "contribution": 0.0}, "E2961": {"distance": 17852.0, "latitude": 36.049, "longitude": -95.823, "useCount": 0, "id": "E2961", "name": "EW2961 Broken Arrow OK US", "quality": 0, "contribution": 0.0}, "KGCM": {"distance": 23013.0, "latitude": 36.29, "longitude": -95.48, "useCount": 0, "id": "KGCM", "name": "KGCM", "quality": 99, "contribution": 0.0}, "KRVS": {"distance": 30391.0, "latitude": 36.04, "longitude": -95.98, "useCount": 0, "id": "KRVS", "name": "KRVS", "quality": 100, "contribution": 0.0}, "72356013968": {"distance": 19900.0, "latitude": 36.199, "longitude": -95.887, "useCount": 0, "id": "72356013968", "name": "TULSA INTERNATIONAL AIRPORT, OK US", "quality": 100, "contribution": 0.0}}}