{"queryCost": 1, "latitude": 37.955, "longitude": -87.501, "resolvedAddress": "37.95500,-87.50100", "address": "37.95500,-87.50100", "timezone": "America/Chicago", "tzoffset": -6.0, "days": [{"datetime": "2018-02-23", "datetimeEpoch": 1519365600, "tempmax": 59.2, "tempmin": 48.1, "temp": 52.5, "feelslikemax": 59.2, "feelslikemin": 45.7, "feelslike": 52.3, "dew": 51.3, "humidity": 95.54, "precip": 0.89, "precipprob": null, "precipcover": 50.0, "preciptype": null, "snow": 0.0, "snowdepth": 0.0, "windgust": 21.9, "windspeed": 14.4, "winddir": 206.1, "pressure": 1024.1, "cloudcover": 76.9, "visibility": 8.1, "solarradiation": 37.2, "solarenergy": 2.7, "uvindex": 2.0, "sunrise": "06:29:45", "sunriseEpoch": 1519388985, "sunset": "17:37:25", "sunsetEpoch": 1519429045, "moonphase": 0.26, "conditions": "Rain, Partially cloudy", "description": "Partly cloudy throughout the day with rain clearing later.", "icon": "rain", "stations": ["AN203", "72423853886", "72432093817", "KEHR", "72423753803", "KEVV", "C6641", "KOWB"], "source": "obs"}], "stations": {"AN203": {"distance": 19872.0, "latitude": 38.005, "longitude": -87.718, "useCount": 0, "id": "AN203", "name": "St. Philips IN INDEM", "quality": 0, "contribution": 0.0}, "72423853886": {"distance": 23544.0, "latitude": 37.8, "longitude": -87.683, "useCount": 0, "id": "72423853886", "name": "HENDERSON CITY CO AIRPORT, KY US", "quality": 100, "contribution": 0.0}, "72432093817": {"distance": 10065.0, "latitude": 38.044, "longitude": -87.52, "useCount": 0, "id": "72432093817", "name": "EVANSVILLE REGIONAL AIRPORT, IN US", "quality": 100, "contribution": 0.0}, "KEHR": {"distance": 21752.0, "latitude": 37.82, "longitude": -87.68, "useCount": 0, "id": "KEHR", "name": "HENDERSON CITY, KY", "quality": 100, "contribution": 0.0}, "72423753803": {"distance": 37205.0, "latitude": 37.75, "longitude": -87.167, "useCount": 0, "id": "72423753803", "name": "OWENSBORO DAVIESS CO REGIONAL AIRPORT, KY US", "quality": 100, "contribution": 0.0}, "KEVV": {"distance": 9798.0, "latitude": 38.04, "longitude": -87.53, "useCount": 0, "id": "KEVV", "name": "KEVV", "quality": 100, "contribution": 0.0}, "C6641": {"distance": 9535.0, "latitude": 37.953, "longitude": -87.392, "useCount": 0, "id": "C6641", "name": "CW6641 Newburgh IN US", "quality": 0, "contribution": 0.0}, "KOWB": {"distance": 38393.0, "latitude": 37.73, "longitude": -87.17, "useCount": 0, "id": "KOWB", "name": "OWENSBORO, KY", "quality": 100, "contribution": 0.0}}}