{"queryCost": 1, "latitude": 39.206, "longitude": -96.301, "resolvedAddress": "39.20600,-96.30100", "address": "39.20600,-96.30100", "timezone": "America/Chicago", "tzoffset": -6.0, "days": [{"datetime": "2018-02-26", "datetimeEpoch": 1519624800, "tempmax": 63.4, "tempmin": 23.7, "temp": 42.2, "feelslikemax": 63.4, "feelslikemin": 23.7, "feelslike": 41.6, "dew": 22.0, "humidity": 52.0, "precip": 0.0, "precipprob": 0.0, "precipcover": 0.0, "preciptype": null, "snow": 0.0, "snowdepth": 0.0, "windgust": 25.4, "windspeed": 18.6, "winddir": 208.9, "pressure": 1020.6, "cloudcover": 0.0, "visibility": 9.9, "solarradiation": 189.3, "solarenergy": 16.1, "uvindex": 7.0, "sunrise": "07:02:03", "sunriseEpoch": 1519650123, "sunset": "18:14:36", "sunsetEpoch": 1519690476, "moonphase": 0.42, "conditions": "Clear", "description": "Clear conditions throughout the day.", "icon": "clear-day", "stations": ["KMYZ", "KFRI", "KMHK", "99999953974", "72455503936", "D0314", "72455013947"], "source": "obs"}], "stations": {"KMYZ": {"distance": 28790.0, "latitude": 39.25, "longitude": -96.63, "useCount": 0, "id": "KMYZ", "name": "KMYZ", "quality": 100, "contribution": 0.0}, "KFRI": {"distance": 44519.0, "latitude": 39.04, "longitude": -96.77, "useCount": 0, "id": "KFRI", "name": "KFRI", "quality": 100, "contribution": 0.0}, "KMHK": {"distance": 32951.0, "latitude": 39.13, "longitude": -96.67, "useCount": 0, "id": "KMHK", "name": "KMHK", "quality": 100, "contribution": 0.0}, "99999953974": {"distance": 29031.0, "latitude": 39.103, "longitude": -96.61, "useCount": 0, "id": "99999953974", "name": "MANHATTAN 6 SSW, KS US", "quality": 100, "contribution": 0.0}, "72455503936": {"distance": 33560.0, "latitude": 39.135, "longitude": -96.679, "useCount": 0, "id": "72455503936", "name": "MANHATTAN ASOS, KS US", "quality": 100, "contribution": 0.0}, "D0314": {"distance": 21292.0, "latitude": 39.213, "longitude": -96.054, "useCount": 0, "id": "D0314", "name": "DW0314 Saint Marys KS US", "quality": 0, "contribution": 0.0}, "72455013947": {"distance": 43805.0, "latitude": 39.05, "longitude": -96.767, "useCount": 0, "id": "72455013947", "name": "FORT RILEY MARSHALL ARMY AIR FIELD, KS US", "quality": 100, "contribution": 0.0}}}