{"queryCost": 1, "latitude": 38.831, "longitude": -93.754, "resolvedAddress": "38.83100,-93.75400", "address": "38.83100,-93.75400", "timezone": "America/Chicago", "tzoffset": -6.0, "days": [{"datetime": "2018-03-03", "datetimeEpoch": 1520056800, "tempmax": 64.5, "tempmin": 37.6, "temp": 50.2, "feelslikemax": 64.5, "feelslikemin": 30.5, "feelslike": 47.4, "dew": 28.2, "humidity": 44.5, "precip": 0.0, "precipprob": 0.0, "precipcover": 0.0, "preciptype": null, "snow": 0.0, "snowdepth": 0.0, "windgust": 21.9, "windspeed": 15.5, "winddir": 137.0, "pressure": 1023.6, "cloudcover": 11.7, "visibility": 9.9, "solarradiation": 148.6, "solarenergy": 12.9, "uvindex": 7.0, "sunrise": "06:44:19", "sunriseEpoch": 1520081059, "sunset": "18:10:01", "sunsetEpoch": 1520122201, "moonphase": 0.52, "conditions": "Clear", "description": "Clear conditions throughout the day.", "icon": "clear-day", "stations": ["KRCM", "72445303994", "KDMO", "72236700363", "KSZL", "D1328", "72446713930"], "source": "obs"}], "stations": {"KRCM": {"distance": 6939.0, "latitude": 38.78, "longitude": -93.8, "useCount": 0, "id": "KRCM", "name": "KRCM", "quality": 82, "contribution": 0.0}, "72445303994": {"distance": 51506.0, "latitude": 38.704, "longitude": -93.183, "useCount": 0, "id": "72445303994", "name": "SEDALIA MEMORIAL AIRPORT, MO US", "quality": 100, "contribution": 0.0}, "KDMO": {"distance": 51607.0, "latitude": 38.71, "longitude": -93.18, "useCount": 0, "id": "KDMO", "name": "KDMO", "quality": 100, "contribution": 0.0}, "72236700363": {"distance": 6669.0, "latitude": 38.783, "longitude": -93.8, "useCount": 0, "id": "72236700363", "name": "SKYHAVEN AIRPORT, MO US", "quality": 93, "contribution": 0.0}, "KSZL": {"distance": 21590.0, "latitude": 38.72, "longitude": -93.55, "useCount": 0, "id": "KSZL", "name": "KSZL", "quality": 100, "contribution": 0.0}, "D1328": {"distance": 27381.0, "latitude": 39.075, "longitude": -93.717, "useCount": 0, "id": "D1328", "name": "DW1328 Higginsville MO US", "quality": 0, "contribution": 0.0}, "72446713930": {"distance": 21802.0, "latitude": 38.717, "longitude": -93.55, "useCount": 0, "id": "72446713930", "name": "WHITEMAN AFB, MO US", "quality": 97, "contribution": 0.0}}}