{"queryCost": 1, "latitude": 38.029, "longitude": -121.316, "resolvedAddress": "38.02900,-121.31600", "address": "38.02900,-121.31600", "timezone": "America/Los_Angeles", "tzoffset": -8.0, "days": [{"datetime": "2015-01-28", "datetimeEpoch": 1422432000, "tempmax": 65.1, "tempmin": 42.8, "temp": 52.3, "feelslikemax": 65.1, "feelslikemin": 39.8, "feelslike": 51.2, "dew": 46.1, "humidity": 81.1, "precip": 0.0, "precipprob": 0.0, "precipcover": 0.0, "preciptype": null, "snow": 0.0, "snowdepth": 0.0, "windgust": null, "windspeed": 10.5, "winddir": 240.3, "pressure": 1022.9, "cloudcover": 8.3, "visibility": 5.5, "solarradiation": 125.7, "solarenergy": 10.9, "uvindex": 5.0, "sunrise": "07:13:07", "sunriseEpoch": 1422457987, "sunset": "17:23:44", "sunsetEpoch": 1422494624, "moonphase": 0.32, "conditions": "Clear", "description": "Clear conditions throughout the day.", "icon": "clear-day", "stations": ["KSCK", "KMOD", "72483023232", "72492623258", "KSAC", "72492023237"], "source": "obs"}], "stations": {"KSCK": {"distance": 15484.0, "latitude": 37.9, "longitude": -121.25, "useCount": 0, "id": "KSCK", "name": "KSCK", "quality": 100, "contribution": 0.0}, "KMOD": {"distance": 54849.0, "latitude": 37.63, "longitude": -120.95, "useCount": 0, "id": "KMOD", "name": "KMOD", "quality": 100, "contribution": 0.0}, "72483023232": {"distance": 55452.0, "latitude": 38.507, "longitude": -121.495, "useCount": 0, "id": "72483023232", "name": "SACRAMENTO EXECUTIVE AIRPORT, CA US", "quality": 100, "contribution": 0.0}, "72492623258": {"distance": 55332.0, "latitude": 37.624, "longitude": -120.951, "useCount": 0, "id": "72492623258", "name": "MODESTO CITY CO AIRPORT, CA US", "quality": 100, "contribution": 0.0}, "KSAC": {"distance": 56974.0, "latitude": 38.52, "longitude": -121.5, "useCount": 0, "id": "KSAC", "name": "KSAC", "quality": 100, "contribution": 0.0}, "72492023237": {"distance": 17462.0, "latitude": 37.889, "longitude": -121.226, "useCount": 0, "id": "72492023237", "name": "STOCKTON METROPOLITAN AIRPORT, CA US", "quality": 100, "contribution": 0.0}}}