{"queryCost": 1, "latitude": 32.177, "longitude": -110.983, "resolvedAddress": "32.17700,-110.98300", "address": "32.17700,-110.98300", "timezone": "America/Phoenix", "tzoffset": -7.0, "days": [{"datetime": "2018-03-01", "datetimeEpoch": 1519887600, "tempmax": 69.3, "tempmin": 34.6, "temp": 52.3, "feelslikemax": 69.3, "feelslikemin": 31.3, "feelslike": 50.8, "dew": 28.0, "humidity": 45.2, "precip": 0.0, "precipprob": 0.0, "precipcover": 0.0, "preciptype": null, "snow": 0.0, "snowdepth": 0.0, "windgust": 31.6, "windspeed": 18.3, "winddir": 184.6, "pressure": 1019.3, "cloudcover": 0.0, "visibility": 9.9, "solarradiation": 238.5, "solarenergy": 20.6, "uvindex": 8.0, "sunrise": "06:51:08", "sunriseEpoch": 1519912268, "sunset": "18:21:43", "sunsetEpoch": 1519953703, "moonphase": 0.5, "conditions": "Clear", "description": "Clear conditions throughout the day.", "icon": "clear-day", "stations": ["KAVQ", "72274023160", "KTUS", "D4959", "72274523109", "KDMA", "99999953131"], "source": "obs"}], "stations": {"KAVQ": {"distance": 32750.0, "latitude": 32.4, "longitude": -111.21, "useCount": 0, "id": "KAVQ", "name": "KAVQ", "quality": 99, "contribution": 0.0}, "72274023160": {"distance": 5731.0, "latitude": 32.131, "longitude": -110.955, "useCount": 0, "id": "72274023160", "name": "TUCSON INTERNATIONAL AIRPORT, AZ US", "quality": 100, "contribution": 0.0}, "KTUS": {"distance": 5663.0, "latitude": 32.13, "longitude": -110.96, "useCount": 0, "id": "KTUS", "name": "KTUS", "quality": 100, "contribution": 0.0}, "D4959": {"distance": 8904.0, "latitude": 32.185, "longitude": -111.077, "useCount": 0, "id": "D4959", "name": "DW4959 Tucson Ajo Wy / Kinney AZ US", "quality": 0, "contribution": 0.0}, "72274523109": {"distance": 9492.0, "latitude": 32.167, "longitude": -110.883, "useCount": 0, "id": "72274523109", "name": "DAVIS MONTHAN AFB, AZ US", "quality": 97, "contribution": 0.0}, "KDMA": {"distance": 9736.0, "latitude": 32.17, "longitude": -110.88, "useCount": 0, "id": "KDMA", "name": "KDMA", "quality": 100, "contribution": 0.0}, "99999953131": {"distance": 18938.0, "latitude": 32.24, "longitude": -111.17, "useCount": 0, "id": "99999953131", "name": "TUCSON 11 W, AZ US", "quality": 100, "contribution": 0.0}}}