{"queryCost": 1, "latitude": 37.759, "longitude": -122.418, "resolvedAddress": "37.75900,-122.41800", "address": "37.75900,-122.41800", "timezone": "America/Los_Angeles", "tzoffset": -8.0, "days": [{"datetime": "2018-03-06", "datetimeEpoch": 1520323200, "tempmax": 62.8, "tempmin": 45.0, "temp": 53.5, "feelslikemax": 62.8, "feelslikemin": 43.1, "feelslike": 53.1, "dew": 38.6, "humidity": 57.8, "precip": 0.0, "precipprob": 0.0, "precipcover": 0.0, "preciptype": null, "snow": 0.0, "snowdepth": 0.0, "windgust": null, "windspeed": 8.2, "winddir": 185.0, "pressure": 1019.5, "cloudcover": 53.1, "visibility": 9.9, "solarradiation": 214.5, "solarenergy": 18.6, "uvindex": 8.0, "sunrise": "06:33:48", "sunriseEpoch": 1520346828, "sunset": "18:08:27", "sunsetEpoch": 1520388507, "moonphase": 0.62, "conditions": "Partially cloudy", "description": "Partly cloudy throughout the day.", "icon": "partly-cloudy-day", "stations": ["KSFO", "72493023230", "72064600228", "KHWD", "KOAK", "C5988", "72494023234"], "source": "obs"}], "stations": {"KSFO": {"distance": 16921.0, "latitude": 37.61, "longitude": -122.38, "useCount": 0, "id": "KSFO", "name": "KSFO", "quality": 100, "contribution": 0.0}, "72493023230": {"distance": 17840.0, "latitude": 37.721, "longitude": -122.221, "useCount": 0, "id": "72493023230", "name": "OAKLAND METROPOLITAN, CA US", "quality": 100, "contribution": 0.0}, "72064600228": {"distance": 28345.0, "latitude": 37.513, "longitude": -122.501, "useCount": 0, "id": "72064600228", "name": "HALF MOON BAY AIRPORT, CA US", "quality": 100, "contribution": 0.0}, "KHWD": {"distance": 28050.0, "latitude": 37.67, "longitude": -122.12, "useCount": 0, "id": "KHWD", "name": "KHWD", "quality": 100, "contribution": 0.0}, "KOAK": {"distance": 17963.0, "latitude": 37.72, "longitude": -122.22, "useCount": 0, "id": "KOAK", "name": "KOAK", "quality": 100, "contribution": 0.0}, "C5988": {"distance": 1235.0, "latitude": 37.76, "longitude": -122.432, "useCount": 0, "id": "C5988", "name": "CW5988 San Francisco CA US", "quality": 0, "contribution": 0.0}, "72494023234": {"distance": 16194.0, "latitude": 37.62, "longitude": -122.365, "useCount": 0, "id": "72494023234", "name": "SAN FRANCISCO INTERNATIONAL AIRPORT, CA US", "quality": 100, "contribution": 0.0}}}