{"queryCost": 1, "latitude": 30.272, "longitude": -97.688, "resolvedAddress": "30.27200,-97.68800", "address": "30.27200,-97.68800", "timezone": "America/Chicago", "tzoffset": -6.0, "days": [{"datetime": "2018-03-07", "datetimeEpoch": 1520402400, "tempmax": 66.2, "tempmin": 45.9, "temp": 55.2, "feelslikemax": 66.2, "feelslikemin": 40.9, "feelslike": 54.4, "dew": 23.0, "humidity": 29.6, "precip": 0.0, "precipprob": 0.0, "precipcover": 0.0, "preciptype": null, "snow": 0.0, "snowdepth": 0.0, "windgust": 24.2, "windspeed": 14.3, "winddir": 61.8, "pressure": 1025.0, "cloudcover": 18.7, "visibility": 9.9, "solarradiation": 199.8, "solarenergy": 17.3, "uvindex": 7.0, "sunrise": "06:49:56", "sunriseEpoch": 1520426996, "sunset": "18:33:54", "sunsetEpoch": 1520469234, "moonphase": 0.66, "conditions": "Clear", "description": "Clear conditions throughout the day.", "icon": "clear-day", "stations": ["KATT", "KAUS", "72064800230", "E4737", "KEDC", "72254013904", "72254413958"], "source": "obs"}], "stations": {"KATT": {"distance": 9522.0, "latitude": 30.32, "longitude": -97.77, "useCount": 0, "id": "KATT", "name": "KATT", "quality": 100, "contribution": 0.0}, "KAUS": {"distance": 9291.0, "latitude": 30.19, "longitude": -97.67, "useCount": 0, "id": "KAUS", "name": "KAUS", "quality": 100, "contribution": 0.0}, "72064800230": {"distance": 17962.0, "latitude": 30.395, "longitude": -97.567, "useCount": 0, "id": "72064800230", "name": "AUSTIN EXECUTIVE AIRPORT, TX US", "quality": 99, "contribution": 0.0}, "E4737": {"distance": 3447.0, "latitude": 30.264, "longitude": -97.723, "useCount": 0, "id": "E4737", "name": "EW4737 Austin TX US", "quality": 0, "contribution": 0.0}, "KEDC": {"distance": 18209.0, "latitude": 30.4, "longitude": -97.57, "useCount": 0, "id": "KEDC", "name": "KEDC", "quality": 98, "contribution": 0.0}, "72254013904": {"distance": 9927.0, "latitude": 30.183, "longitude": -97.68, "useCount": 0, "id": "72254013904", "name": "AUSTIN BERGSTROM INTERNATIONAL AIRPORT, TX US", "quality": 100, "contribution": 0.0}, "72254413958": {"distance": 8828.0, "latitude": 30.321, "longitude": -97.76, "useCount": 0, "id": "72254413958", "name": "AUSTIN CAMP MABRY, TX US", "quality": 100, "contribution": 0.0}}}