{"queryCost": 1, "latitude": 28.15, "longitude": -82.765, "resolvedAddress": "28.15000,-82.76500", "address": "28.15000,-82.76500", "timezone": "America/New_York", "tzoffset": -5.0, "days": [{"datetime": "2018-03-09", "datetimeEpoch": 1520571600, "tempmax": 66.9, "tempmin": 49.1, "temp": 56.9, "feelslikemax": 66.9, "feelslikemin": 45.6, "feelslike": 56.6, "dew": 34.9, "humidity": 46.4, "precip": 0.0, "precipprob": 0.0, "precipcover": 0.0, "preciptype": null, "snow": 0.0, "snowdepth": 0.0, "windgust": 20.8, "windspeed": 8.9, "winddir": 183.2, "pressure": 1020.9, "cloudcover": 4.7, "visibility": 9.9, "solarradiation": 397.8, "solarenergy": 34.4, "uvindex": 10.0, "sunrise": "06:47:10", "sunriseEpoch": 1520596030, "sunset": "18:36:15", "sunsetEpoch": 1520638575, "moonphase": 0.76, "conditions": "Clear", "description": "Clear conditions throughout the day.", "icon": "clear-day", "stations": ["KCLW", "KPIE", "E0627", "AR428", "72211612873", "72211012842", "KTPA"], "source": "obs"}], "stations": {"KCLW": {"distance": 18982.0, "latitude": 27.98, "longitude": -82.75, "useCount": 0, "id": "KCLW", "name": "KCLW", "quality": 100, "contribution": 0.0}, "KPIE": {"distance": 26931.0, "latitude": 27.92, "longitude": -82.68, "useCount": 0, "id": "KPIE", "name": "KPIE", "quality": 100, "contribution": 0.0}, "E0627": {"distance": 13900.0, "latitude": 28.271, "longitude": -82.729, "useCount": 0, "id": "E0627", "name": "EW0627 Port Richey FL US", "quality": 0, "contribution": 0.0}, "AR428": {"distance": 32801.0, "latitude": 27.86, "longitude": -82.822, "useCount": 0, "id": "AR428", "name": "KF4YYH Seminole FL US", "quality": 0, "contribution": 0.0}, "72211612873": {"distance": 27717.0, "latitude": 27.911, "longitude": -82.687, "useCount": 0, "id": "72211612873", "name": "ST PETERSBURG CLEARWATER INTERNATIONAL AIRPORT, FL US", "quality": 100, "contribution": 0.0}, "72211012842": {"distance": 30426.0, "latitude": 27.962, "longitude": -82.54, "useCount": 0, "id": "72211012842", "name": "TAMPA INTERNATIONAL AIRPORT, FL US", "quality": 100, "contribution": 0.0}, "KTPA": {"distance": 30568.0, "latitude": 27.97, "longitude": -82.53, "useCount": 0, "id": "KTPA", "name": "KTPA", "quality": 100, "contribution": 0.0}}}