{"queryCost": 1, "latitude": 31.93, "longitude": -102.077, "resolvedAddress": "31.93000,-102.07700", "address": "31.93000,-102.07700", "timezone": "America/Chicago", "tzoffset": -6.0, "days": [{"datetime": "2018-03-11", "datetimeEpoch": 1520748000, "tempmax": 69.6, "tempmin": 49.6, "temp": 58.1, "feelslikemax": 69.6, "feelslikemin": 47.7, "feelslike": 58.0, "dew": 21.0, "humidity": 24.6, "precip": 0.0, "precipprob": 0.0, "precipcover": 0.0, "preciptype": null, "snow": 0.0, "snowdepth": 0.0, "windgust": 41.4, "windspeed": 27.1, "winddir": 92.1, "pressure": 1017.8, "cloudcover": 52.1, "visibility": 9.5, "solarradiation": 141.0, "solarenergy": 11.7, "uvindex": 6.0, "sunrise": "08:03:17", "sunriseEpoch": 1520773397, "sunset": "19:53:39", "sunsetEpoch": 1520816019, "moonphase": 0.85, "conditions": "Partially cloudy", "description": "Partly cloudy throughout the day.", "icon": "partly-cloudy-day", "stations": ["MNDT2", "KMAF", "72265023023", "KODO", "72232403071", "KBPG", "72264803031"], "source": "obs"}], "stations": {"MNDT2": {"distance": 10774.0, "latitude": 31.943, "longitude": -102.19, "useCount": 0, "id": "MNDT2", "name": "MIDLAND TX US", "quality": 0, "contribution": 0.0}, "KMAF": {"distance": 9981.0, "latitude": 31.95, "longitude": -102.18, "useCount": 0, "id": "KMAF", "name": "KMAF", "quality": 100, "contribution": 0.0}, "72265023023": {"distance": 12621.0, "latitude": 31.948, "longitude": -102.209, "useCount": 0, "id": "72265023023", "name": "MIDLAND INTERNATIONAL AIRPORT, TX US", "quality": 100, "contribution": 0.0}, "KODO": {"distance": 29594.0, "latitude": 31.92, "longitude": -102.39, "useCount": 0, "id": "KODO", "name": "KODO", "quality": 100, "contribution": 0.0}, "72232403071": {"distance": 12059.0, "latitude": 32.036, "longitude": -102.101, "useCount": 0, "id": "72232403071", "name": "MIDLAND AIRPARK, TX US", "quality": 100, "contribution": 0.0}, "KBPG": {"distance": 61092.0, "latitude": 32.21, "longitude": -101.52, "useCount": 0, "id": "KBPG", "name": "KBPG", "quality": 100, "contribution": 0.0}, "72264803031": {"distance": 29308.0, "latitude": 31.921, "longitude": -102.387, "useCount": 0, "id": "72264803031", "name": "ODESSA SCHLEMEYER FIELD, TX US", "quality": 100, "contribution": 0.0}}}