{"queryCost": 1, "latitude": 33.971, "longitude": -118.229, "resolvedAddress": "33.97100,-118.22900", "address": "33.97100,-118.22900", "timezone": "America/Los_Angeles", "tzoffset": -7.0, "days": [{"datetime": "2015-03-13", "datetimeEpoch": 1426230000, "tempmax": 86.9, "tempmin": 61.9, "temp": 73.9, "feelslikemax": 83.4, "feelslikemin": 61.9, "feelslike": 73.0, "dew": 43.1, "humidity": 36.0, "precip": 0.0, "precipprob": 0.0, "precipcover": 0.0, "preciptype": null, "snow": 0.0, "snowdepth": 0.0, "windgust": null, "windspeed": 10.1, "winddir": 155.3, "pressure": 1016.2, "cloudcover": 7.8, "visibility": 9.8, "solarradiation": 228.8, "solarenergy": 19.8, "uvindex": 9.0, "sunrise": "07:06:11", "sunriseEpoch": 1426255571, "sunset": "18:59:05", "sunsetEpoch": 1426298345, "moonphase": 0.74, "conditions": "Clear", "description": "Clear conditions throughout the day.", "icon": "clear-day", "stations": ["KHHR", "72295023174", "72295603167", "KLAX", "72287493134"], "source": "obs"}], "stations": {"72295603167": {"distance": 11082.0, "latitude": 33.923, "longitude": -118.334, "useCount": 0, "id": "72295603167", "name": "HAWTHORNE MUNICIPAL AIRPORT, CA US", "quality": 100, "contribution": 0.0}, "KLAX": {"distance": 16437.0, "latitude": 33.93, "longitude": -118.4, "useCount": 0, "id": "KLAX", "name": "KLAX", "quality": 100, "contribution": 0.0}, "KHHR": {"distance": 10919.0, "latitude": 33.92, "longitude": -118.33, "useCount": 0, "id": "KHHR", "name": "KHHR", "quality": 100, "contribution": 0.0}, "72287493134": {"distance": 8187.0, "latitude": 34.024, "longitude": -118.291, "useCount": 0, "id": "72287493134", "name": "LOS ANGELES DOWNTOWN USC, CA US", "quality": 100, "contribution": 0.0}, "72295023174": {"distance": 15224.0, "latitude": 33.938, "longitude": -118.389, "useCount": 0, "id": "72295023174", "name": "LOS ANGELES INTERNATIONAL AIRPORT, CA US", "quality": 100, "contribution": 0.0}}}