{"queryCost": 1, "latitude": 30.453, "longitude": -91.127, "resolvedAddress": "30.45300,-91.12700", "address": "30.45300,-91.12700", "timezone": "America/Chicago", "tzoffset": -5.0, "days": [{"datetime": "2018-03-14", "datetimeEpoch": 1521003600, "tempmax": 65.8, "tempmin": 37.9, "temp": 51.6, "feelslikemax": 65.8, "feelslikemin": 37.9, "feelslike": 51.4, "dew": 32.8, "humidity": 55.36, "precip": 0.0, "precipprob": null, "precipcover": 0.0, "preciptype": null, "snow": 0.0, "snowdepth": 0.0, "windgust": null, "windspeed": 10.2, "winddir": 138.0, "pressure": 1024.2, "cloudcover": 0.1, "visibility": 9.9, "solarradiation": 485.9, "solarenergy": 22.7, "uvindex": 9.0, "sunrise": "07:15:29", "sunriseEpoch": 1521029729, "sunset": "19:12:13", "sunsetEpoch": 1521072733, "moonphase": 0.96, "conditions": "Clear", "description": "Clear conditions throughout the day.", "icon": "clear-day", "stations": ["F1193", "72104600460", "KBTR", "KHZR", "72232013970", "72096700457", "E5825", "KHDC"], "source": "obs"}], "stations": {"F1193": {"distance": 16300.0, "latitude": 30.308, "longitude": -91.101, "useCount": 0, "id": "F1193", "name": "FW1193 St. Gabriel LA US", "quality": 0, "contribution": 0.0}, "72104600460": {"distance": 35979.0, "latitude": 30.173, "longitude": -90.941, "useCount": 0, "id": "72104600460", "name": "LOUISIANA REGIONAL AIRPORT, LA US", "quality": 100, "contribution": 0.0}, "KBTR": {"distance": 8851.0, "latitude": 30.53, "longitude": -91.15, "useCount": 0, "id": "KBTR", "name": "KBTR", "quality": 100, "contribution": 0.0}, "KHZR": {"distance": 44305.0, "latitude": 30.71, "longitude": -91.48, "useCount": 0, "id": "KHZR", "name": "KHZR", "quality": 92, "contribution": 0.0}, "72232013970": {"distance": 9565.0, "latitude": 30.537, "longitude": -91.147, "useCount": 0, "id": "72232013970", "name": "BATON ROUGE METRO AIRPORT, LA US", "quality": 100, "contribution": 0.0}, "72096700457": {"distance": 44805.0, "latitude": 30.718, "longitude": -91.479, "useCount": 0, "id": "72096700457", "name": "FALSE RIVER REGIONAL AIRPORT, LA US", "quality": 86, "contribution": 0.0}, "E5825": {"distance": 67389.0, "latitude": 30.495, "longitude": -90.426, "useCount": 0, "id": "E5825", "name": "EW5825 Hammond LA US", "quality": 0, "contribution": 0.0}, "KHDC": {"distance": 68231.0, "latitude": 30.52, "longitude": -90.42, "useCount": 0, "id": "KHDC", "name": "KHDC", "quality": 100, "contribution": 0.0}}}