{"queryCost": 1, "latitude": 35.933, "longitude": -82.354, "resolvedAddress": "35.93300,-82.35400", "address": "35.93300,-82.35400", "timezone": "America/New_York", "tzoffset": -4.0, "days": [{"datetime": "2018-03-16", "datetimeEpoch": 1521172800, "tempmax": 63.5, "tempmin": 44.7, "temp": 54.6, "feelslikemax": 63.5, "feelslikemin": 44.7, "feelslike": 54.2, "dew": 28.6, "humidity": 37.7, "precip": 0.0, "precipprob": 0.0, "precipcover": 0.0, "preciptype": null, "snow": 0.0, "snowdepth": 0.0, "windgust": 32.2, "windspeed": 17.3, "winddir": 271.1, "pressure": 1013.2, "cloudcover": 16.7, "visibility": 9.9, "solarradiation": 219.5, "solarenergy": 19.1, "uvindex": 8.0, "sunrise": "07:38:39", "sunriseEpoch": 1521200319, "sunset": "19:37:51", "sunsetEpoch": 1521243471, "moonphase": 1.0, "conditions": "Clear", "description": "Clear conditions throughout the day.", "icon": "clear-day", "stations": ["E3554", "KTRI", "POPN7", "72315003812", "99999953877", "99999953878", "K0A9", "KAVL"], "source": "obs"}], "stations": {"E3554": {"distance": 14777.0, "latitude": 35.91, "longitude": -82.192, "useCount": 0, "id": "E3554", "name": "EW3554 Burnsville NC US", "quality": 0, "contribution": 0.0}, "KTRI": {"distance": 59921.0, "latitude": 36.47, "longitude": -82.4, "useCount": 0, "id": "KTRI", "name": "KTRI", "quality": 100, "contribution": 0.0}, "POPN7": {"distance": 13526.0, "latitude": 36.053, "longitude": -82.379, "useCount": 0, "id": "POPN7", "name": "JESSEN STATION NC US", "quality": 0, "contribution": 0.0}, "72315003812": {"distance": 58198.0, "latitude": 35.432, "longitude": -82.537, "useCount": 0, "id": "72315003812", "name": "ASHEVILLE AIRPORT, NC US", "quality": 100, "contribution": 0.0}, "99999953877": {"distance": 54184.0, "latitude": 35.495, "longitude": -82.614, "useCount": 0, "id": "99999953877", "name": "ASHEVILLE 8 SSW, NC US", "quality": 100, "contribution": 0.0}, "99999953878": {"distance": 60135.0, "latitude": 35.419, "longitude": -82.557, "useCount": 0, "id": "99999953878", "name": "ASHEVILLE 13 S, NC US", "quality": 100, "contribution": 0.0}, "K0A9": {"distance": 50329.0, "latitude": 36.36, "longitude": -82.17, "useCount": 0, "id": "K0A9", "name": "K0A9", "quality": 98, "contribution": 0.0}, "KAVL": {"distance": 58731.0, "latitude": 35.43, "longitude": -82.55, "useCount": 0, "id": "KAVL", "name": "KAVL", "quality": 100, "contribution": 0.0}}}