{"queryCost": 1, "latitude": 30.198, "longitude": -97.756, "resolvedAddress": "30.19800,-97.75600", "address": "30.19800,-97.75600", "timezone": "America/Chicago", "tzoffset": -5.0, "days": [{"datetime": "2018-03-25", "datetimeEpoch": 1521954000, "tempmax": 76.0, "tempmin": 68.2, "temp": 72.1, "feelslikemax": 76.0, "feelslikemin": 68.2, "feelslike": 72.1, "dew": 66.8, "humidity": 84.0, "precip": 0.01, "precipprob": 100.0, "precipcover": 4.17, "preciptype": ["rain"], "snow": 0.0, "snowdepth": 0.0, "windgust": 20.8, "windspeed": 12.8, "winddir": 156.8, "pressure": 1010.9, "cloudcover": 98.7, "visibility": 8.3, "solarradiation": 64.9, "solarenergy": 5.8, "uvindex": 2.0, "sunrise": "07:28:35", "sunriseEpoch": 1521980915, "sunset": "19:45:40", "sunsetEpoch": 1522025140, "moonphase": 0.3, "conditions": "Rain, Overcast", "description": "Cloudy skies throughout the day with morning rain.", "icon": "rain", "stations": ["KATT", "KAUS", "72064800230", "AURT2", "KEDC", "72254013904", "72254413958", "D9418"], "source": "obs"}], "stations": {"KATT": {"distance": 13648.0, "latitude": 30.32, "longitude": -97.77, "useCount": 0, "id": "KATT", "name": "KATT", "quality": 100, "contribution": 0.0}, "KAUS": {"distance": 8322.0, "latitude": 30.19, "longitude": -97.67, "useCount": 0, "id": "KAUS", "name": "KAUS", "quality": 100, "contribution": 0.0}, "72064800230": {"distance": 28477.0, "latitude": 30.395, "longitude": -97.567, "useCount": 0, "id": "72064800230", "name": "AUSTIN EXECUTIVE AIRPORT, TX US", "quality": 99, "contribution": 0.0}, "AURT2": {"distance": 11618.0, "latitude": 30.177, "longitude": -97.874, "useCount": 0, "id": "AURT2", "name": "SOUTH AUSTIN RAWS TX US", "quality": 0, "contribution": 0.0}, "KEDC": {"distance": 28727.0, "latitude": 30.4, "longitude": -97.57, "useCount": 0, "id": "KEDC", "name": "KEDC", "quality": 98, "contribution": 0.0}, "72254013904": {"distance": 7508.0, "latitude": 30.183, "longitude": -97.68, "useCount": 0, "id": "72254013904", "name": "AUSTIN BERGSTROM INTERNATIONAL AIRPORT, TX US", "quality": 100, "contribution": 0.0}, "72254413958": {"distance": 13677.0, "latitude": 30.321, "longitude": -97.76, "useCount": 0, "id": "72254413958", "name": "AUSTIN CAMP MABRY, TX US", "quality": 100, "contribution": 0.0}, "D9418": {"distance": 5207.0, "latitude": 30.245, "longitude": -97.759, "useCount": 0, "id": "D9418", "name": "DW9418 Austin TX US", "quality": 0, "contribution": 0.0}}}