{"queryCost": 1, "latitude": 61.216, "longitude": -149.817, "resolvedAddress": "61.21600,-149.81700", "address": "61.21600,-149.81700", "timezone": "America/Anchorage", "tzoffset": -8.0, "days": [{"datetime": "2018-03-24", "datetimeEpoch": 1521878400, "tempmax": 38.0, "tempmin": 15.4, "temp": 25.6, "feelslikemax": 35.2, "feelslikemin": 10.5, "feelslike": 24.0, "dew": 14.0, "humidity": 63.5, "precip": 0.0, "precipprob": 0.0, "precipcover": 0.0, "preciptype": null, "snow": 0.0, "snowdepth": 13.8, "windgust": null, "windspeed": 6.4, "winddir": 172.3, "pressure": 1008.1, "cloudcover": 0.7, "visibility": 9.9, "solarradiation": 151.9, "solarenergy": 13.1, "uvindex": 5.0, "sunrise": "07:47:00", "sunriseEpoch": 1521906420, "sunset": "20:25:18", "sunsetEpoch": 1521951918, "moonphase": 0.24, "conditions": "Clear", "description": "Clear conditions throughout the day.", "icon": "clear-day", "stations": ["PAMR", "PAED", "70272026401", "70273526409", "PALH", "E9311", "70272526491"], "source": "obs"}], "stations": {"PAMR": {"distance": 1824.0, "latitude": 61.22, "longitude": -149.85, "useCount": 0, "id": "PAMR", "name": "MERRILL FIELD, AK", "quality": 100, "contribution": 0.0}, "PAED": {"distance": 3893.0, "latitude": 61.25, "longitude": -149.8, "useCount": 0, "id": "PAED", "name": "PAED", "quality": 100, "contribution": 0.0}, "70272026401": {"distance": 4310.0, "latitude": 61.253, "longitude": -149.794, "useCount": 0, "id": "70272026401", "name": "ANCHORAGE ELMENDORF AFB, AK US", "quality": 98, "contribution": 0.0}, "70273526409": {"distance": 2039.0, "latitude": 61.217, "longitude": -149.855, "useCount": 0, "id": "70273526409", "name": "ANCHORAGE MERRILL FIELD, AK US", "quality": 100, "contribution": 0.0}, "PALH": {"distance": 8700.0, "latitude": 61.19, "longitude": -149.97, "useCount": 0, "id": "PALH", "name": "ANCHORAGE/LAKE HOOD, AK", "quality": 100, "contribution": 0.0}, "E9311": {"distance": 8048.0, "latitude": 61.145, "longitude": -149.791, "useCount": 0, "id": "E9311", "name": "EW9311 Anchorage AK US", "quality": 0, "contribution": 0.0}, "70272526491": {"distance": 9037.0, "latitude": 61.178, "longitude": -149.966, "useCount": 0, "id": "70272526491", "name": "ANCHORAGE LAKE HOOD SEA PLANE BASE, AK US", "quality": 100, "contribution": 0.0}}}