{"queryCost": 1, "latitude": 43.051, "longitude": -83.636, "resolvedAddress": "43.05100,-83.63600", "address": "43.05100,-83.63600", "timezone": "America/Detroit", "tzoffset": -4.0, "days": [{"datetime": "2018-03-23", "datetimeEpoch": 1521777600, "tempmax": 38.7, "tempmin": 22.1, "temp": 30.2, "feelslikemax": 31.1, "feelslikemin": 14.7, "feelslike": 22.6, "dew": 17.2, "humidity": 60.1, "precip": 0.0, "precipprob": 0.0, "precipcover": 0.0, "preciptype": null, "snow": 0.0, "snowdepth": 0.0, "windgust": 23.0, "windspeed": 14.1, "winddir": 186.9, "pressure": 1026.8, "cloudcover": 7.1, "visibility": 9.9, "solarradiation": 254.4, "solarenergy": 22.0, "uvindex": 8.0, "sunrise": "07:32:19", "sunriseEpoch": 1521804739, "sunset": "19:50:29", "sunsetEpoch": 1521849029, "moonphase": 0.19, "conditions": "Clear", "description": "Clear conditions throughout the day.", "icon": "clear-day", "stations": ["72090200298", "KFNT", "72637594817", "KD95", "72637014826", "MIFLT", "KPTK"], "source": "obs"}], "stations": {"72090200298": {"distance": 30066.0, "latitude": 43.067, "longitude": -83.267, "useCount": 0, "id": "72090200298", "name": "DUPONT LAPEER AIRPORT, MI US", "quality": 100, "contribution": 0.0}, "KFNT": {"distance": 12939.0, "latitude": 42.97, "longitude": -83.75, "useCount": 0, "id": "KFNT", "name": "KFNT", "quality": 100, "contribution": 0.0}, "72637594817": {"distance": 46503.0, "latitude": 42.665, "longitude": -83.418, "useCount": 0, "id": "72637594817", "name": "PONTIAC OAKLAND CO INTERNATIONAL AIRPORT, MI US", "quality": 100, "contribution": 0.0}, "KD95": {"distance": 30600.0, "latitude": 43.06, "longitude": -83.26, "useCount": 0, "id": "KD95", "name": "KD95", "quality": 100, "contribution": 0.0}, "72637014826": {"distance": 13171.0, "latitude": 42.967, "longitude": -83.749, "useCount": 0, "id": "72637014826", "name": "FLINT FCWOS, MI US", "quality": 100, "contribution": 0.0}, "MIFLT": {"distance": 4334.0, "latitude": 43.024, "longitude": -83.674, "useCount": 0, "id": "MIFLT", "name": "Flint MI US MAWN", "quality": 0, "contribution": 0.0}, "KPTK": {"distance": 45929.0, "latitude": 42.67, "longitude": -83.42, "useCount": 0, "id": "KPTK", "name": "KPTK", "quality": 100, "contribution": 0.0}}}