{"queryCost": 1, "latitude": 36.134, "longitude": -97.063, "resolvedAddress": "36.13400,-97.06300", "address": "36.13400,-97.06300", "timezone": "America/Chicago", "tzoffset": -5.0, "days": [{"datetime": "2018-03-28", "datetimeEpoch": 1522213200, "tempmax": 59.6, "tempmin": 44.0, "temp": 49.0, "feelslikemax": 59.6, "feelslikemin": 39.4, "feelslike": 47.8, "dew": 44.7, "humidity": 85.7, "precip": 0.0, "precipprob": 0.0, "precipcover": 0.0, "preciptype": null, "snow": 0.0, "snowdepth": 0.0, "windgust": null, "windspeed": 9.1, "winddir": 133.2, "pressure": 1013.0, "cloudcover": 30.9, "visibility": 7.3, "solarradiation": 153.3, "solarenergy": 13.2, "uvindex": 8.0, "sunrise": "07:20:04", "sunriseEpoch": 1522239604, "sunset": "19:46:58", "sunsetEpoch": 1522284418, "moonphase": 0.44, "conditions": "Partially cloudy", "description": "Partly cloudy throughout the day.", "icon": "partly-cloudy-day", "stations": ["99999953927", "KSWO", "72035753993", "KCUH", "72354503965", "AS677", "99999953926"], "source": "obs"}], "stations": {"99999953927": {"distance": 4064.0, "latitude": 36.135, "longitude": -97.108, "useCount": 0, "id": "99999953927", "name": "STILLWATER 5 WNW, OK US", "quality": 100, "contribution": 0.0}, "KSWO": {"distance": 4289.0, "latitude": 36.17, "longitude": -97.08, "useCount": 0, "id": "KSWO", "name": "KSWO", "quality": 100, "contribution": 0.0}, "72035753993": {"distance": 33173.0, "latitude": 35.95, "longitude": -96.773, "useCount": 0, "id": "72035753993", "name": "CUSHING MUNICIPAL AIRPORT, OK US", "quality": 100, "contribution": 0.0}, "KCUH": {"distance": 33393.0, "latitude": 35.95, "longitude": -96.77, "useCount": 0, "id": "KCUH", "name": "KCUH", "quality": 100, "contribution": 0.0}, "72354503965": {"distance": 3953.0, "latitude": 36.162, "longitude": -97.089, "useCount": 0, "id": "72354503965", "name": "STILLWATER REGIONAL AIRPORT, OK US", "quality": 100, "contribution": 0.0}, "AS677": {"distance": 49841.0, "latitude": 36.476, "longitude": -97.422, "useCount": 0, "id": "AS677", "name": "W5YDW Billings OK US", "quality": 0, "contribution": 0.0}, "99999953926": {"distance": 3107.0, "latitude": 36.118, "longitude": -97.091, "useCount": 0, "id": "99999953926", "name": "STILLWATER 2 W, OK US", "quality": 100, "contribution": 0.0}}}