{"queryCost": 1, "latitude": 37.755, "longitude": -85.904, "resolvedAddress": "37.75500,-85.90400", "address": "37.75500,-85.90400", "timezone": "America/New_York", "tzoffset": -4.0, "days": [{"datetime": "2018-03-28", "datetimeEpoch": 1522209600, "tempmax": 62.8, "tempmin": 55.9, "temp": 58.4, "feelslikemax": 62.8, "feelslikemin": 55.9, "feelslike": 58.4, "dew": 57.4, "humidity": 96.7, "precip": 0.43, "precipprob": 100.0, "precipcover": 75.0, "preciptype": ["rain"], "snow": 0.0, "snowdepth": 0.0, "windgust": 19.7, "windspeed": 12.7, "winddir": 200.0, "pressure": 1014.4, "cloudcover": 63.4, "visibility": 7.9, "solarradiation": 31.1, "solarenergy": 2.6, "uvindex": 1.0, "sunrise": "07:34:50", "sunriseEpoch": 1522236890, "sunset": "20:02:58", "sunsetEpoch": 1522281778, "moonphase": 0.44, "conditions": "Rain, Partially cloudy", "description": "Partly cloudy throughout the day with a chance of rain throughout the day.", "icon": "rain", "stations": ["KFTK", "KEKX", "KSDF", "72424013807", "72423093821", "72045199999", "C0238"], "source": "obs"}], "stations": {"KFTK": {"distance": 17153.0, "latitude": 37.9, "longitude": -85.97, "useCount": 0, "id": "KFTK", "name": "KFTK", "quality": 100, "contribution": 0.0}, "KEKX": {"distance": 6332.0, "latitude": 37.71, "longitude": -85.86, "useCount": 0, "id": "KEKX", "name": "KEKX", "quality": 99, "contribution": 0.0}, "KSDF": {"distance": 49714.0, "latitude": 38.18, "longitude": -85.73, "useCount": 0, "id": "KSDF", "name": "KSDF", "quality": 100, "contribution": 0.0}, "72424013807": {"distance": 17057.0, "latitude": 37.9, "longitude": -85.967, "useCount": 0, "id": "72424013807", "name": "FORT KNOX GODMAN ARMY AIR FIELD, KY US", "quality": 99, "contribution": 0.0}, "72423093821": {"distance": 49592.0, "latitude": 38.181, "longitude": -85.739, "useCount": 0, "id": "72423093821", "name": "LOUISVILLE INTERNATIONAL AIRPORT, KY US", "quality": 100, "contribution": 0.0}, "72045199999": {"distance": 7900.0, "latitude": 37.686, "longitude": -85.925, "useCount": 0, "id": "72045199999", "name": "ADDINGTON FIELD, KY US", "quality": 100, "contribution": 0.0}, "C0238": {"distance": 42010.0, "latitude": 38.117, "longitude": -85.767, "useCount": 0, "id": "C0238", "name": "CW0238 Fairdale KY US", "quality": 0, "contribution": 0.0}}}