{"queryCost": 1, "latitude": 33.79, "longitude": -80.992, "resolvedAddress": "33.79000,-80.99200", "address": "33.79000,-80.99200", "timezone": "America/New_York", "tzoffset": -4.0, "days": [{"datetime": "2018-03-28", "datetimeEpoch": 1522209600, "tempmax": 80.0, "tempmin": 44.1, "temp": 61.8, "feelslikemax": 80.0, "feelslikemin": 44.1, "feelslike": 61.7, "dew": 49.7, "humidity": 68.9, "precip": 0.0, "precipprob": 0.0, "precipcover": 0.0, "preciptype": null, "snow": 0.0, "snowdepth": 0.0, "windgust": 21.9, "windspeed": 12.0, "winddir": 150.8, "pressure": 1021.2, "cloudcover": 58.0, "visibility": 9.4, "solarradiation": 180.1, "solarenergy": 15.7, "uvindex": 8.0, "sunrise": "07:16:42", "sunriseEpoch": 1522235802, "sunset": "19:41:43", "sunsetEpoch": 1522280503, "moonphase": 0.44, "conditions": "Partially cloudy", "description": "Partly cloudy throughout the day.", "icon": "partly-cloudy-day", "stations": ["72310503858", "KCUB", "GDNS1", "KMMT", "72310013883", "72310453867", "KCAE"], "source": "obs"}], "stations": {"72310503858": {"distance": 26491.0, "latitude": 33.967, "longitude": -80.8, "useCount": 0, "id": "72310503858", "name": "EASTOVER MCENTIRE ANG, SC US", "quality": 99, "contribution": 0.0}, "KCUB": {"distance": 20068.0, "latitude": 33.97, "longitude": -80.98, "useCount": 0, "id": "KCUB", "name": "KCUB", "quality": 100, "contribution": 0.0}, "GDNS1": {"distance": 19702.0, "latitude": 33.815, "longitude": -80.781, "useCount": 0, "id": "GDNS1", "name": "CONGAREE SC US", "quality": 0, "contribution": 0.0}, "KMMT": {"distance": 22901.0, "latitude": 33.92, "longitude": -80.8, "useCount": 0, "id": "KMMT", "name": "KMMT", "quality": 99, "contribution": 0.0}, "72310013883": {"distance": 20569.0, "latitude": 33.942, "longitude": -81.118, "useCount": 0, "id": "72310013883", "name": "COLUMBIA METROPOLITAN AIRPORT, SC US", "quality": 100, "contribution": 0.0}, "72310453867": {"distance": 20107.0, "latitude": 33.971, "longitude": -80.996, "useCount": 0, "id": "72310453867", "name": "COLUMBIA OWENS DOWNTOWN AIRPORT, SC US", "quality": 100, "contribution": 0.0}, "KCAE": {"distance": 21382.0, "latitude": 33.95, "longitude": -81.12, "useCount": 0, "id": "KCAE", "name": "KCAE", "quality": 100, "contribution": 0.0}}}