{"queryCost": 1, "latitude": 39.813, "longitude": -86.109, "resolvedAddress": "39.81300,-86.10900", "address": "39.81300,-86.10900", "timezone": "America/Indiana/Indianapolis", "tzoffset": -4.0, "days": [{"datetime": "2015-04-12", "datetimeEpoch": 1428811200, "tempmax": 69.3, "tempmin": 43.0, "temp": 56.5, "feelslikemax": 69.3, "feelslikemin": 40.9, "feelslike": 55.9, "dew": 33.7, "humidity": 45.3, "precip": 0.0, "precipprob": 0.0, "precipcover": 0.0, "preciptype": null, "snow": 0.0, "snowdepth": 0.0, "windgust": 17.2, "windspeed": 13.2, "winddir": 116.1, "pressure": 1020.7, "cloudcover": 26.7, "visibility": 9.9, "solarradiation": 263.6, "solarenergy": 22.7, "uvindex": 9.0, "sunrise": "07:11:38", "sunriseEpoch": 1428837098, "sunset": "20:19:31", "sunsetEpoch": 1428884371, "moonphase": 0.77, "conditions": "Partially cloudy", "description": "Partly cloudy throughout the day.", "icon": "partly-cloudy-day", "stations": ["72435653866", "KEYE", "KIND", "72438093819", "72438453842", "72057500173"], "source": "obs"}], "stations": {"72435653866": {"distance": 37005.0, "latitude": 39.578, "longitude": -85.803, "useCount": 0, "id": "72435653866", "name": "SHELBYVILLE MUNICIPAL AIRPORT, IN US", "quality": 100, "contribution": 0.0}, "KEYE": {"distance": 15590.0, "latitude": 39.83, "longitude": -86.29, "useCount": 0, "id": "KEYE", "name": "KEYE", "quality": 100, "contribution": 0.0}, "KIND": {"distance": 17233.0, "latitude": 39.72, "longitude": -86.27, "useCount": 0, "id": "KIND", "name": "KIND", "quality": 100, "contribution": 0.0}, "72438093819": {"distance": 17717.0, "latitude": 39.725, "longitude": -86.282, "useCount": 0, "id": "72438093819", "name": "INDIANAPOLIS INTERNATIONAL AIRPORT, IN US", "quality": 100, "contribution": 0.0}, "72438453842": {"distance": 16027.0, "latitude": 39.825, "longitude": -86.296, "useCount": 0, "id": "72438453842", "name": "INDIANAPOLIS EAGLE CREEK AIRPORT, IN US", "quality": 100, "contribution": 0.0}, "72057500173": {"distance": 27127.0, "latitude": 40.031, "longitude": -86.251, "useCount": 0, "id": "72057500173", "name": "INDIANAPOLIS EXECUTIVE AIRPORT, IN US", "quality": 100, "contribution": 0.0}}}