{"queryCost": 1, "latitude": 29.702, "longitude": -95.208, "resolvedAddress": "29.70200,-95.20800", "address": "29.70200,-95.20800", "timezone": "America/Chicago", "tzoffset": -5.0, "days": [{"datetime": "2018-03-29", "datetimeEpoch": 1522299600, "tempmax": 78.7, "tempmin": 60.3, "temp": 69.2, "feelslikemax": 78.7, "feelslikemin": 60.3, "feelslike": 69.2, "dew": 63.3, "humidity": 83.77, "precip": 1.04, "precipprob": null, "precipcover": 33.33, "preciptype": null, "snow": 0.0, "snowdepth": 0.0, "windgust": 37.2, "windspeed": 19.7, "winddir": 187.5, "pressure": 1012.0, "cloudcover": 68.8, "visibility": 8.8, "solarradiation": 250.4, "solarenergy": 21.6, "uvindex": 8.0, "sunrise": "07:13:43", "sunriseEpoch": 1522325623, "sunset": "19:37:44", "sunsetEpoch": 1522370264, "moonphase": 0.47, "conditions": "Rain, Partially cloudy", "description": "Partly cloudy throughout the day with rain clearing later.", "icon": "rain", "stations": ["KHOU", "72059400188", "AN537", "72242712975", "KLVJ", "KIAH", "72244012918"], "source": "obs"}], "stations": {"KHOU": {"distance": 10618.0, "latitude": 29.63, "longitude": -95.28, "useCount": 0, "id": "KHOU", "name": "KHOU", "quality": 100, "contribution": 0.0}, "72059400188": {"distance": 17002.0, "latitude": 29.717, "longitude": -95.383, "useCount": 0, "id": "72059400188", "name": "HOUSTON DUNN HELISTOP, TX US", "quality": 100, "contribution": 0.0}, "AN537": {"distance": 5959.0, "latitude": 29.734, "longitude": -95.257, "useCount": 0, "id": "AN537", "name": "Clinton C403 TX TCEQ", "quality": 0, "contribution": 0.0}, "72242712975": {"distance": 20642.0, "latitude": 29.519, "longitude": -95.242, "useCount": 0, "id": "72242712975", "name": "HOUSTON CLOVER FIELD, TX US", "quality": 100, "contribution": 0.0}, "KLVJ": {"distance": 20495.0, "latitude": 29.52, "longitude": -95.24, "useCount": 0, "id": "KLVJ", "name": "KLVJ", "quality": 100, "contribution": 0.0}, "KIAH": {"distance": 32834.0, "latitude": 29.97, "longitude": -95.35, "useCount": 0, "id": "KIAH", "name": "KIAH", "quality": 100, "contribution": 0.0}, "72244012918": {"distance": 10084.0, "latitude": 29.638, "longitude": -95.282, "useCount": 0, "id": "72244012918", "name": "HOUSTON WILLIAM P HOBBY AIRPORT, TX US", "quality": 100, "contribution": 0.0}}}