{"queryCost": 1, "latitude": 38.367, "longitude": -81.657, "resolvedAddress": "38.36700,-81.65700", "address": "38.36700,-81.65700", "timezone": "America/New_York", "tzoffset": -4.0, "days": [{"datetime": "2018-03-29", "datetimeEpoch": 1522296000, "tempmax": 76.9, "tempmin": 56.0, "temp": 63.0, "feelslikemax": 76.9, "feelslikemin": 56.0, "feelslike": 63.0, "dew": 56.7, "humidity": 83.8, "precip": 0.28, "precipprob": 100.0, "precipcover": 29.17, "preciptype": ["rain"], "snow": 0.0, "snowdepth": 0.0, "windgust": 30.9, "windspeed": 16.1, "winddir": 231.4, "pressure": 1010.4, "cloudcover": 93.7, "visibility": 7.3, "solarradiation": 119.1, "solarenergy": 10.3, "uvindex": 6.0, "sunrise": "07:16:05", "sunriseEpoch": 1522322165, "sunset": "19:47:10", "sunsetEpoch": 1522367230, "moonphase": 0.47, "conditions": "Rain, Overcast", "description": "Cloudy skies throughout the day with rain.", "icon": "rain", "stations": ["72425003860", "72414013866", "D7574", "72412003872", "KCRW", "KHTS", "BEEW2"], "source": "obs"}], "stations": {"72425003860": {"distance": 78361.0, "latitude": 38.365, "longitude": -82.555, "useCount": 0, "id": "72425003860", "name": "HUNTINGTON TRI STATE AIRPORT, WV US", "quality": 100, "contribution": 0.0}, "72414013866": {"distance": 6008.0, "latitude": 38.379, "longitude": -81.59, "useCount": 0, "id": "72414013866", "name": "CHARLESTON YEAGER AIRPORT, WV US", "quality": 100, "contribution": 0.0}, "D7574": {"distance": 16696.0, "latitude": 38.347, "longitude": -81.846, "useCount": 0, "id": "D7574", "name": "DW7574 Upper Falls WV US", "quality": 0, "contribution": 0.0}, "72412003872": {"distance": 80046.0, "latitude": 37.784, "longitude": -81.123, "useCount": 0, "id": "72412003872", "name": "BECKLEY RALEIGH CO AIRPORT, WV US", "quality": 100, "contribution": 0.0}, "KCRW": {"distance": 5900.0, "latitude": 38.36, "longitude": -81.59, "useCount": 0, "id": "KCRW", "name": "KCRW", "quality": 100, "contribution": 0.0}, "KHTS": {"distance": 77949.0, "latitude": 38.36, "longitude": -82.55, "useCount": 0, "id": "KHTS", "name": "KHTS", "quality": 100, "contribution": 0.0}, "BEEW2": {"distance": 18836.0, "latitude": 38.2, "longitude": -81.62, "useCount": 0, "id": "BEEW2", "name": "BEE MOUNTAIN WV US", "quality": 0, "contribution": 0.0}}}