{"queryCost": 1, "latitude": 31.114, "longitude": -93.283, "resolvedAddress": "31.11400,-93.28300", "address": "31.11400,-93.28300", "timezone": "America/Chicago", "tzoffset": -5.0, "days": [{"datetime": "2018-04-01", "datetimeEpoch": 1522558800, "tempmax": 78.5, "tempmin": 55.2, "temp": 65.9, "feelslikemax": 78.5, "feelslikemin": 55.2, "feelslike": 65.9, "dew": 58.1, "humidity": 78.65, "precip": 0.0, "precipprob": null, "precipcover": 0.0, "preciptype": null, "snow": 0.0, "snowdepth": 0.0, "windgust": 17.2, "windspeed": 14.6, "winddir": 137.7, "pressure": 1017.1, "cloudcover": 49.0, "visibility": 8.4, "solarradiation": 358.1, "solarenergy": 18.0, "uvindex": 7.0, "sunrise": "07:01:47", "sunriseEpoch": 1522584107, "sunset": "19:32:31", "sunsetEpoch": 1522629151, "moonphase": 0.51, "conditions": "Partially cloudy", "description": "Partly cloudy throughout the day.", "icon": "partly-cloudy-day", "stations": ["72233403976", "KDRI", "KPOE", "KAQV", "72282003949", "72239003931", "LEVL1"], "source": "obs"}], "stations": {"72233403976": {"distance": 31614.0, "latitude": 30.833, "longitude": -93.333, "useCount": 0, "id": "72233403976", "name": "DE RIDDER BEAUREGARD PARISH AIRPORT, LA US", "quality": 100, "contribution": 0.0}, "KDRI": {"distance": 32079.0, "latitude": 30.83, "longitude": -93.34, "useCount": 0, "id": "KDRI", "name": "KDRI", "quality": 99, "contribution": 0.0}, "KPOE": {"distance": 10648.0, "latitude": 31.05, "longitude": -93.2, "useCount": 0, "id": "KPOE", "name": "KPOE", "quality": 100, "contribution": 0.0}, "KAQV": {"distance": 31839.0, "latitude": 31.4, "longitude": -93.28, "useCount": 0, "id": "KAQV", "name": "KAQV", "quality": 97, "contribution": 0.0}, "72282003949": {"distance": 31837.0, "latitude": 31.4, "longitude": -93.283, "useCount": 0, "id": "72282003949", "name": "PEASON RIDGE RANGE, LA US", "quality": 96, "contribution": 0.0}, "72239003931": {"distance": 11879.0, "latitude": 31.05, "longitude": -93.183, "useCount": 0, "id": "72239003931", "name": "FORT POLK ARMY AIR FIELD, LA US", "quality": 100, "contribution": 0.0}, "LEVL1": {"distance": 14188.0, "latitude": 31.017, "longitude": -93.187, "useCount": 0, "id": "LEVL1", "name": "VERNON LA US", "quality": 0, "contribution": 0.0}}}