{"queryCost": 1, "latitude": 27.976, "longitude": -82.443, "resolvedAddress": "27.97600,-82.44300", "address": "27.97600,-82.44300", "timezone": "America/New_York", "tzoffset": -4.0, "days": [{"datetime": "2018-04-01", "datetimeEpoch": 1522555200, "tempmax": 84.1, "tempmin": 64.1, "temp": 72.5, "feelslikemax": 85.3, "feelslikemin": 64.1, "feelslike": 72.8, "dew": 63.2, "humidity": 74.3, "precip": 0.0, "precipprob": 0.0, "precipcover": 0.0, "preciptype": null, "snow": 0.0, "snowdepth": 0.0, "windgust": 17.2, "windspeed": 11.9, "winddir": 139.3, "pressure": 1019.0, "cloudcover": 63.0, "visibility": 9.7, "solarradiation": 210.5, "solarenergy": 18.0, "uvindex": 9.0, "sunrise": "07:19:55", "sunriseEpoch": 1522581595, "sunset": "19:47:37", "sunsetEpoch": 1522626457, "moonphase": 0.51, "conditions": "Partially cloudy", "description": "Partly cloudy throughout the day.", "icon": "partly-cloudy-day", "stations": ["74788012810", "KMCF", "D3253", "KTPA", "72211012842", "72202192816", "KVDF"], "source": "obs"}], "stations": {"74788012810": {"distance": 15789.0, "latitude": 27.85, "longitude": -82.517, "useCount": 0, "id": "74788012810", "name": "MACDILL AFB, FL US", "quality": 99, "contribution": 0.0}, "KMCF": {"distance": 15941.0, "latitude": 27.85, "longitude": -82.52, "useCount": 0, "id": "KMCF", "name": "KMCF", "quality": 100, "contribution": 0.0}, "D3253": {"distance": 3964.0, "latitude": 27.946, "longitude": -82.464, "useCount": 0, "id": "D3253", "name": "DW3253 Tampa FL US", "quality": 0, "contribution": 0.0}, "KTPA": {"distance": 8579.0, "latitude": 27.97, "longitude": -82.53, "useCount": 0, "id": "KTPA", "name": "KTPA", "quality": 100, "contribution": 0.0}, "72211012842": {"distance": 9694.0, "latitude": 27.962, "longitude": -82.54, "useCount": 0, "id": "72211012842", "name": "TAMPA INTERNATIONAL AIRPORT, FL US", "quality": 100, "contribution": 0.0}, "72202192816": {"distance": 10489.0, "latitude": 28.014, "longitude": -82.345, "useCount": 0, "id": "72202192816", "name": "TAMPA VANDENBERG AIRPORT, FL US", "quality": 100, "contribution": 0.0}, "KVDF": {"distance": 9894.0, "latitude": 28.01, "longitude": -82.35, "useCount": 0, "id": "KVDF", "name": "KVDF", "quality": 99, "contribution": 0.0}}}