{"queryCost": 1, "latitude": 25.966, "longitude": -97.478, "resolvedAddress": "25.96600,-97.47800", "address": "25.96600,-97.47800", "timezone": "America/Chicago", "tzoffset": -5.0, "days": [{"datetime": "2018-04-01", "datetimeEpoch": 1522558800, "tempmax": 88.1, "tempmin": 67.9, "temp": 77.4, "feelslikemax": 92.9, "feelslikemin": 67.9, "feelslike": 78.7, "dew": 68.5, "humidity": 75.81, "precip": 0.0, "precipprob": null, "precipcover": 0.0, "preciptype": null, "snow": 0.0, "snowdepth": 0.0, "windgust": 32.6, "windspeed": 22.9, "winddir": 148.5, "pressure": 1013.6, "cloudcover": 33.1, "visibility": 9.8, "solarradiation": 546.7, "solarenergy": 25.6, "uvindex": 10.0, "sunrise": "07:20:54", "sunriseEpoch": 1522585254, "sunset": "19:46:51", "sunsetEpoch": 1522630011, "moonphase": 0.51, "conditions": "Partially cloudy", "description": "Partly cloudy throughout the day.", "icon": "partly-cloudy-day", "stations": ["KHRL", "72250512904", "72250012919", "KBRO", "KPIL", "AN473", "72250812957"], "source": "obs"}], "stations": {"KHRL": {"distance": 34049.0, "latitude": 26.23, "longitude": -97.65, "useCount": 0, "id": "KHRL", "name": "KHRL", "quality": 100, "contribution": 0.0}, "72250512904": {"distance": 34082.0, "latitude": 26.228, "longitude": -97.654, "useCount": 0, "id": "72250512904", "name": "HARLINGEN RIO GRANDE VALLEY INTERNATIONAL AIRPORT, TX US", "quality": 99, "contribution": 0.0}, "72250012919": {"distance": 7981.0, "latitude": 25.914, "longitude": -97.423, "useCount": 0, "id": "72250012919", "name": "BROWNSVILLE S PADRE ISLAND INTERNATIONAL AIRPORT, TX US", "quality": 100, "contribution": 0.0}, "KBRO": {"distance": 8779.0, "latitude": 25.9, "longitude": -97.43, "useCount": 0, "id": "KBRO", "name": "KBRO", "quality": 100, "contribution": 0.0}, "KPIL": {"distance": 26068.0, "latitude": 26.17, "longitude": -97.35, "useCount": 0, "id": "KPIL", "name": "KPIL", "quality": 91, "contribution": 0.0}, "AN473": {"distance": 8330.0, "latitude": 25.893, "longitude": -97.494, "useCount": 0, "id": "AN473", "name": "Brownsville C80 TX TCEQ", "quality": 0, "contribution": 0.0}, "72250812957": {"distance": 25874.0, "latitude": 26.166, "longitude": -97.346, "useCount": 0, "id": "72250812957", "name": "PORT ISABEL CAMERON CO AIRPORT, TX US", "quality": 90, "contribution": 0.0}}}