{"queryCost": 1, "latitude": 27.69, "longitude": -97.364, "resolvedAddress": "27.69000,-97.36400", "address": "27.69000,-97.36400", "timezone": "America/Chicago", "tzoffset": -5.0, "days": [{"datetime": "2018-04-04", "datetimeEpoch": 1522818000, "tempmax": 76.6, "tempmin": 62.6, "temp": 68.6, "feelslikemax": 76.6, "feelslikemin": 62.6, "feelslike": 68.6, "dew": 55.1, "humidity": 63.09, "precip": 0.0, "precipprob": null, "precipcover": 8.33, "preciptype": null, "snow": 0.0, "snowdepth": 0.0, "windgust": 38.0, "windspeed": 30.0, "winddir": 42.9, "pressure": 1019.0, "cloudcover": 98.3, "visibility": 9.5, "solarradiation": 165.6, "solarenergy": 7.8, "uvindex": 4.0, "sunrise": "07:16:22", "sunriseEpoch": 1522844182, "sunset": "19:48:45", "sunsetEpoch": 1522889325, "moonphase": 0.59, "conditions": "Overcast", "description": "Cloudy skies throughout the day.", "icon": "cloudy", "stations": ["KCRP", "72251012924", "72251512926", "AN573", "KNGP"], "source": "obs"}], "stations": {"72251512926": {"distance": 7990.0, "latitude": 27.683, "longitude": -97.283, "useCount": 0, "id": "72251512926", "name": "CORPUS CHRISTI NAS, TX US", "quality": 100, "contribution": 0.0}, "AN573": {"distance": 10868.0, "latitude": 27.765, "longitude": -97.434, "useCount": 0, "id": "AN573", "name": "Corpus Christi West C4 TX TCEQ", "quality": 0, "contribution": 0.0}, "KCRP": {"distance": 16090.0, "latitude": 27.77, "longitude": -97.5, "useCount": 0, "id": "KCRP", "name": "KCRP", "quality": 100, "contribution": 0.0}, "72251012924": {"distance": 17352.0, "latitude": 27.774, "longitude": -97.512, "useCount": 0, "id": "72251012924", "name": "CORPUS CHRISTI INTERNATIONAL AIRPORT, TX US", "quality": 100, "contribution": 0.0}, "KNGP": {"distance": 8354.0, "latitude": 27.7, "longitude": -97.28, "useCount": 0, "id": "KNGP", "name": "KNGP", "quality": 99, "contribution": 0.0}}}