{"queryCost": 1, "latitude": 32.265, "longitude": -110.959, "resolvedAddress": "32.26500,-110.95900", "address": "32.26500,-110.95900", "timezone": "America/Phoenix", "tzoffset": -7.0, "days": [{"datetime": "2018-04-10", "datetimeEpoch": 1523343600, "tempmax": 96.1, "tempmin": 57.1, "temp": 76.7, "feelslikemax": 91.1, "feelslikemin": 57.1, "feelslike": 74.9, "dew": 17.2, "humidity": 12.19, "precip": 0.0, "precipprob": null, "precipcover": 0.0, "preciptype": null, "snow": 0.0, "snowdepth": 0.0, "windgust": 16.1, "windspeed": 11.1, "winddir": 161.2, "pressure": 1013.5, "cloudcover": 0.6, "visibility": 9.9, "solarradiation": 483.5, "solarenergy": 24.4, "uvindex": 9.0, "sunrise": "06:00:34", "sunriseEpoch": 1523365234, "sunset": "18:50:03", "sunsetEpoch": 1523411403, "moonphase": 0.86, "conditions": "Clear", "description": "Clear conditions throughout the day.", "icon": "clear-day", "stations": ["E8967", "KAVQ", "72274023160", "KTUS", "KDMA", "72274523109", "99999953131"], "source": "obs"}], "stations": {"E8967": {"distance": 5260.0, "latitude": 32.237, "longitude": -110.914, "useCount": 0, "id": "E8967", "name": "EW8967 Tucson AZ US", "quality": 0, "contribution": 0.0}, "KAVQ": {"distance": 27986.0, "latitude": 32.4, "longitude": -111.21, "useCount": 0, "id": "KAVQ", "name": "KAVQ", "quality": 99, "contribution": 0.0}, "72274023160": {"distance": 14888.0, "latitude": 32.131, "longitude": -110.955, "useCount": 0, "id": "72274023160", "name": "TUCSON INTERNATIONAL AIRPORT, AZ US", "quality": 100, "contribution": 0.0}, "KTUS": {"distance": 15028.0, "latitude": 32.13, "longitude": -110.96, "useCount": 0, "id": "KTUS", "name": "KTUS", "quality": 100, "contribution": 0.0}, "KDMA": {"distance": 12930.0, "latitude": 32.17, "longitude": -110.88, "useCount": 0, "id": "KDMA", "name": "KDMA", "quality": 100, "contribution": 0.0}, "72274523109": {"distance": 13076.0, "latitude": 32.167, "longitude": -110.883, "useCount": 0, "id": "72274523109", "name": "DAVIS MONTHAN AFB, AZ US", "quality": 97, "contribution": 0.0}, "99999953131": {"distance": 20066.0, "latitude": 32.24, "longitude": -111.17, "useCount": 0, "id": "99999953131", "name": "TUCSON 11 W, AZ US", "quality": 100, "contribution": 0.0}}}