{"queryCost": 1, "latitude": 42.518, "longitude": -83.187, "resolvedAddress": "42.51800,-83.18700", "address": "42.51800,-83.18700", "timezone": "America/Detroit", "tzoffset": -4.0, "days": [{"datetime": "2018-04-10", "datetimeEpoch": 1523332800, "tempmax": 43.9, "tempmin": 30.3, "temp": 36.5, "feelslikemax": 39.6, "feelslikemin": 25.2, "feelslike": 32.3, "dew": 24.3, "humidity": 64.2, "precip": 0.02, "precipprob": 100.0, "precipcover": 4.17, "preciptype": ["rain", "snow"], "snow": 0.9, "snowdepth": 1.7, "windgust": 17.2, "windspeed": 11.8, "winddir": 260.3, "pressure": 1022.9, "cloudcover": 77.6, "visibility": 8.9, "solarradiation": 241.6, "solarenergy": 20.9, "uvindex": 8.0, "sunrise": "06:59:42", "sunriseEpoch": 1523357982, "sunset": "20:09:03", "sunsetEpoch": 1523405343, "moonphase": 0.86, "conditions": "Snow, Rain, Partially cloudy", "description": "Partly cloudy throughout the day with early morning snow or rain.", "icon": "snow", "stations": ["KMTC", "71538099999", "72637594817", "E7790", "KDET", "72537514822", "KPTK"], "source": "obs"}], "stations": {"KMTC": {"distance": 31393.0, "latitude": 42.62, "longitude": -82.83, "useCount": 0, "id": "KMTC", "name": "KMTC", "quality": 100, "contribution": 0.0}, "71538099999": {"distance": 33015.0, "latitude": 42.276, "longitude": -82.956, "useCount": 0, "id": "71538099999", "name": "WINDSOR, CA", "quality": 100, "contribution": 0.0}, "72637594817": {"distance": 25030.0, "latitude": 42.665, "longitude": -83.418, "useCount": 0, "id": "72637594817", "name": "PONTIAC OAKLAND CO INTERNATIONAL AIRPORT, MI US", "quality": 100, "contribution": 0.0}, "E7790": {"distance": 17193.0, "latitude": 42.555, "longitude": -83.39, "useCount": 0, "id": "E7790", "name": "EW7790 West Bloomfield MI US", "quality": 0, "contribution": 0.0}, "KDET": {"distance": 17523.0, "latitude": 42.42, "longitude": -83.02, "useCount": 0, "id": "KDET", "name": "KDET", "quality": 100, "contribution": 0.0}, "72537514822": {"distance": 18920.0, "latitude": 42.409, "longitude": -83.01, "useCount": 0, "id": "72537514822", "name": "DETROIT CITY AIRPORT, MI US", "quality": 100, "contribution": 0.0}, "KPTK": {"distance": 25513.0, "latitude": 42.67, "longitude": -83.42, "useCount": 0, "id": "KPTK", "name": "KPTK", "quality": 100, "contribution": 0.0}}}