{"queryCost": 1, "latitude": 33.766, "longitude": -84.434, "resolvedAddress": "33.76600,-84.43400", "address": "33.76600,-84.43400", "timezone": "America/New_York", "tzoffset": -4.0, "days": [{"datetime": "2018-04-12", "datetimeEpoch": 1523505600, "tempmax": 76.8, "tempmin": 45.0, "temp": 61.6, "feelslikemax": 76.8, "feelslikemin": 45.0, "feelslike": 61.6, "dew": 40.3, "humidity": 52.0, "precip": 0.0, "precipprob": 0.0, "precipcover": 0.0, "preciptype": null, "snow": 0.0, "snowdepth": 0.0, "windgust": 25.3, "windspeed": 10.6, "winddir": 141.2, "pressure": 1020.6, "cloudcover": 13.1, "visibility": 9.8, "solarradiation": 306.0, "solarenergy": 26.5, "uvindex": 10.0, "sunrise": "07:10:44", "sunriseEpoch": 1523531444, "sunset": "20:06:43", "sunsetEpoch": 1523578003, "moonphase": 0.94, "conditions": "Clear", "description": "Clear conditions throughout the day.", "icon": "clear-day", "stations": ["KFTY", "72219013874", "72219503888", "KATL", "72219653863", "KPDK"], "source": "obs"}], "stations": {"KFTY": {"distance": 8109.0, "latitude": 33.78, "longitude": -84.52, "useCount": 0, "id": "KFTY", "name": "KFTY", "quality": 100, "contribution": 0.0}, "72219013874": {"distance": 15146.0, "latitude": 33.63, "longitude": -84.442, "useCount": 0, "id": "72219013874", "name": "ATLANTA HARTSFIELD INTERNATIONAL AIRPORT, GA US", "quality": 100, "contribution": 0.0}, "72219503888": {"distance": 8220.0, "latitude": 33.779, "longitude": -84.521, "useCount": 0, "id": "72219503888", "name": "ATLANTA FULTON CO AIRPORT, GA US", "quality": 100, "contribution": 0.0}, "KATL": {"distance": 12978.0, "latitude": 33.65, "longitude": -84.42, "useCount": 0, "id": "KATL", "name": "KATL", "quality": 100, "contribution": 0.0}, "72219653863": {"distance": 17199.0, "latitude": 33.875, "longitude": -84.302, "useCount": 0, "id": "72219653863", "name": "ATLANTA DEKALB PEACHTREE AIRPORT, GA US", "quality": 100, "contribution": 0.0}, "KPDK": {"distance": 17737.0, "latitude": 33.88, "longitude": -84.3, "useCount": 0, "id": "KPDK", "name": "KPDK", "quality": 100, "contribution": 0.0}}}