{"queryCost": 1, "latitude": 35.064, "longitude": -78.491, "resolvedAddress": "35.06400,-78.49100", "address": "35.06400,-78.49100", "timezone": "America/New_York", "tzoffset": -4.0, "days": [{"datetime": "2015-04-12", "datetimeEpoch": 1428811200, "tempmax": 74.1, "tempmin": 51.9, "temp": 62.8, "feelslikemax": 74.1, "feelslikemin": 51.9, "feelslike": 62.8, "dew": 47.9, "humidity": 61.4, "precip": 0.0, "precipprob": 0.0, "precipcover": 0.0, "preciptype": null, "snow": 0.0, "snowdepth": 0.0, "windgust": null, "windspeed": 7.6, "winddir": 55.9, "pressure": 1024.5, "cloudcover": 0.0, "visibility": 9.9, "solarradiation": 267.9, "solarenergy": 23.1, "uvindex": 9.0, "sunrise": "06:46:06", "sunriseEpoch": 1428835566, "sunset": "19:44:00", "sunsetEpoch": 1428882240, "moonphase": 0.77, "conditions": "Clear", "description": "Clear conditions throughout the day.", "icon": "clear-day", "stations": ["KFAY", "72303593740", "KFBG", "74693093737", "KCTZ", "72207303727"], "source": "obs"}], "stations": {"KFAY": {"distance": 36976.0, "latitude": 34.97, "longitude": -78.88, "useCount": 0, "id": "KFAY", "name": "KFAY", "quality": 100, "contribution": 0.0}, "72303593740": {"distance": 36396.0, "latitude": 34.991, "longitude": -78.88, "useCount": 0, "id": "72303593740", "name": "FAYETTEVILLE REGIONAL AIRPORT GRANNIS FIELD, NC US", "quality": 100, "contribution": 0.0}, "KFBG": {"distance": 40653.0, "latitude": 35.13, "longitude": -78.93, "useCount": 0, "id": "KFBG", "name": "KFBG", "quality": 100, "contribution": 0.0}, "74693093737": {"distance": 41016.0, "latitude": 35.133, "longitude": -78.933, "useCount": 0, "id": "74693093737", "name": "FORT BRAGG SIMMONS ARMY AIR FIELD, NC US", "quality": 99, "contribution": 0.0}, "KCTZ": {"distance": 15879.0, "latitude": 34.97, "longitude": -78.36, "useCount": 0, "id": "KCTZ", "name": "KCTZ", "quality": 98, "contribution": 0.0}, "72207303727": {"distance": 15167.0, "latitude": 34.976, "longitude": -78.364, "useCount": 0, "id": "72207303727", "name": "CLINTON SAMPSON CO AIRPORT, NC US", "quality": 100, "contribution": 0.0}}}