{"queryCost": 1, "latitude": 33.747, "longitude": -84.722, "resolvedAddress": "33.74700,-84.72200", "address": "33.74700,-84.72200", "timezone": "America/New_York", "tzoffset": -4.0, "days": [{"datetime": "2018-04-18", "datetimeEpoch": 1524024000, "tempmax": 83.2, "tempmin": 47.6, "temp": 67.2, "feelslikemax": 80.8, "feelslikemin": 47.6, "feelslike": 66.8, "dew": 45.9, "humidity": 51.0, "precip": 0.0, "precipprob": 0.0, "precipcover": 0.0, "preciptype": null, "snow": 0.0, "snowdepth": 0.0, "windgust": 29.2, "windspeed": 15.9, "winddir": 242.6, "pressure": 1013.8, "cloudcover": 13.5, "visibility": 9.9, "solarradiation": 311.0, "solarenergy": 27.1, "uvindex": 10.0, "sunrise": "07:04:30", "sunriseEpoch": 1524049470, "sunset": "20:12:23", "sunsetEpoch": 1524096743, "moonphase": 0.04, "conditions": "Clear", "description": "Clear conditions throughout the day.", "icon": "clear-day", "stations": ["KFTY", "KMGE", "DLSG1", "72219013874", "72227013864", "72219503888", "KATL"], "source": "obs"}], "stations": {"KFTY": {"distance": 19051.0, "latitude": 33.78, "longitude": -84.52, "useCount": 0, "id": "KFTY", "name": "KFTY", "quality": 100, "contribution": 0.0}, "KMGE": {"distance": 26829.0, "latitude": 33.92, "longitude": -84.52, "useCount": 0, "id": "KMGE", "name": "KMGE", "quality": 100, "contribution": 0.0}, "DLSG1": {"distance": 9750.0, "latitude": 33.833, "longitude": -84.74, "useCount": 0, "id": "DLSG1", "name": "DALLAS GA US", "quality": 0, "contribution": 0.0}, "72219013874": {"distance": 29033.0, "latitude": 33.63, "longitude": -84.442, "useCount": 0, "id": "72219013874", "name": "ATLANTA HARTSFIELD INTERNATIONAL AIRPORT, GA US", "quality": 100, "contribution": 0.0}, "72227013864": {"distance": 26782.0, "latitude": 33.917, "longitude": -84.517, "useCount": 0, "id": "72227013864", "name": "MARIETTA DOBBINS AFB, GA US", "quality": 99, "contribution": 0.0}, "72219503888": {"distance": 18907.0, "latitude": 33.779, "longitude": -84.521, "useCount": 0, "id": "72219503888", "name": "ATLANTA FULTON CO AIRPORT, GA US", "quality": 100, "contribution": 0.0}, "KATL": {"distance": 29981.0, "latitude": 33.65, "longitude": -84.42, "useCount": 0, "id": "KATL", "name": "KATL", "quality": 100, "contribution": 0.0}}}