{"queryCost": 1, "latitude": 28.616, "longitude": -81.38, "resolvedAddress": "28.61600,-81.38000", "address": "28.61600,-81.38000", "timezone": "America/New_York", "tzoffset": -4.0, "days": [{"datetime": "2018-04-20", "datetimeEpoch": 1524196800, "tempmax": 83.2, "tempmin": 65.5, "temp": 73.0, "feelslikemax": 84.7, "feelslikemin": 65.5, "feelslike": 73.2, "dew": 63.2, "humidity": 73.36, "precip": 0.0, "precipprob": null, "precipcover": 0.0, "preciptype": null, "snow": 0.0, "snowdepth": 0.0, "windgust": 25.3, "windspeed": 17.0, "winddir": 162.8, "pressure": 1019.7, "cloudcover": 40.5, "visibility": 9.7, "solarradiation": 471.0, "solarenergy": 23.7, "uvindex": 10.0, "sunrise": "06:54:48", "sunriseEpoch": 1524221688, "sunset": "19:54:23", "sunsetEpoch": 1524268463, "moonphase": 0.12, "conditions": "Partially cloudy", "description": "Clearing in the afternoon.", "icon": "partly-cloudy-day", "stations": ["72205312841", "72205712854", "C0572", "KSFB", "72205012815", "KORL", "KMCO"], "source": "obs"}], "stations": {"72205312841": {"distance": 9108.0, "latitude": 28.545, "longitude": -81.333, "useCount": 0, "id": "72205312841", "name": "ORLANDO EXECUTIVE AIRPORT, FL US", "quality": 100, "contribution": 0.0}, "72205712854": {"distance": 22571.0, "latitude": 28.78, "longitude": -81.244, "useCount": 0, "id": "72205712854", "name": "ORLANDO SANFORD AIRPORT, FL US", "quality": 100, "contribution": 0.0}, "C0572": {"distance": 11296.0, "latitude": 28.545, "longitude": -81.298, "useCount": 0, "id": "C0572", "name": "CW0572 Orlando FL US", "quality": 0, "contribution": 0.0}, "KSFB": {"distance": 23406.0, "latitude": 28.78, "longitude": -81.23, "useCount": 0, "id": "KSFB", "name": "KSFB", "quality": 100, "contribution": 0.0}, "72205012815": {"distance": 20973.0, "latitude": 28.434, "longitude": -81.325, "useCount": 0, "id": "72205012815", "name": "ORLANDO INTERNATIONAL AIRPORT, FL US", "quality": 100, "contribution": 0.0}, "KORL": {"distance": 8824.0, "latitude": 28.55, "longitude": -81.33, "useCount": 0, "id": "KORL", "name": "KORL", "quality": 100, "contribution": 0.0}, "KMCO": {"distance": 21808.0, "latitude": 28.43, "longitude": -81.31, "useCount": 0, "id": "KMCO", "name": "KMCO", "quality": 100, "contribution": 0.0}}}