{"queryCost": 1, "latitude": 40.529, "longitude": -89.279, "resolvedAddress": "40.52900,-89.27900", "address": "40.52900,-89.27900", "timezone": "America/Chicago", "tzoffset": -5.0, "days": [{"datetime": "2018-04-20", "datetimeEpoch": 1524200400, "tempmax": 61.4, "tempmin": 29.8, "temp": 47.3, "feelslikemax": 61.4, "feelslikemin": 26.9, "feelslike": 46.5, "dew": 24.7, "humidity": 46.4, "precip": 0.0, "precipprob": 0.0, "precipcover": 0.0, "preciptype": null, "snow": 0.0, "snowdepth": 0.0, "windgust": 17.2, "windspeed": 9.5, "winddir": 62.2, "pressure": 1033.4, "cloudcover": 0.0, "visibility": 9.9, "solarradiation": 278.9, "solarenergy": 23.9, "uvindex": 9.0, "sunrise": "06:11:03", "sunriseEpoch": 1524222663, "sunset": "19:41:36", "sunsetEpoch": 1524271296, "moonphase": 0.12, "conditions": "Clear", "description": "Clear conditions throughout the day.", "icon": "clear-day", "stations": ["KBMI", "72532014842", "72439754831", "C1740", "KAAA", "KPIA", "74467204862"], "source": "obs"}], "stations": {"KBMI": {"distance": 30872.0, "latitude": 40.48, "longitude": -88.92, "useCount": 0, "id": "KBMI", "name": "BLOOMINGTON/NRML, IL", "quality": 100, "contribution": 0.0}, "72532014842": {"distance": 37536.0, "latitude": 40.668, "longitude": -89.684, "useCount": 0, "id": "72532014842", "name": "PEORIA INTERNATIONAL AIRPORT, IL US", "quality": 100, "contribution": 0.0}, "72439754831": {"distance": 28308.0, "latitude": 40.483, "longitude": -88.95, "useCount": 0, "id": "72439754831", "name": "BLOOMINGTON NORMAL AIRPORT, IL US", "quality": 100, "contribution": 0.0}, "C1740": {"distance": 22478.0, "latitude": 40.731, "longitude": -89.27, "useCount": 0, "id": "C1740", "name": "CW1740 Eureka IL US", "quality": 0, "contribution": 0.0}, "KAAA": {"distance": 42411.0, "latitude": 40.15, "longitude": -89.33, "useCount": 0, "id": "KAAA", "name": "KAAA", "quality": 100, "contribution": 0.0}, "KPIA": {"distance": 37351.0, "latitude": 40.67, "longitude": -89.68, "useCount": 0, "id": "KPIA", "name": "KPIA", "quality": 100, "contribution": 0.0}, "74467204862": {"distance": 41536.0, "latitude": 40.158, "longitude": -89.335, "useCount": 0, "id": "74467204862", "name": "LINCOLN LOGAN CO AIRPORT, IL US", "quality": 100, "contribution": 0.0}}}