{"queryCost": 1, "latitude": 35.834, "longitude": -90.718, "resolvedAddress": "35.83400,-90.71800", "address": "35.83400,-90.71800", "timezone": "America/Chicago", "tzoffset": -5.0, "days": [{"datetime": "2015-04-14", "datetimeEpoch": 1428987600, "tempmax": 63.0, "tempmin": 53.9, "temp": 58.4, "feelslikemax": 63.0, "feelslikemin": 53.9, "feelslike": 58.4, "dew": 51.6, "humidity": 78.5, "precip": 0.18, "precipprob": 100.0, "precipcover": 8.33, "preciptype": ["rain"], "snow": 0.0, "snowdepth": 0.0, "windgust": 41.2, "windspeed": 19.0, "winddir": 49.9, "pressure": 1018.5, "cloudcover": 99.0, "visibility": 9.7, "solarradiation": 269.7, "solarenergy": 23.2, "uvindex": 9.0, "sunrise": "06:31:32", "sunriseEpoch": 1429011092, "sunset": "19:35:22", "sunsetEpoch": 1429058122, "moonphase": 0.88, "conditions": "Rain, Overcast", "description": "Cloudy skies throughout the day with early morning rain.", "icon": "rain", "stations": ["72340693991", "72037713917", "KARG", "KM19", "72340703953", "KJBR"], "source": "obs"}], "stations": {"72340693991": {"distance": 37380.0, "latitude": 36.125, "longitude": -90.924, "useCount": 0, "id": "72340693991", "name": "WALNUT RIDGE MUNICIPAL AIRPORT, AR US", "quality": 100, "contribution": 0.0}, "72037713917": {"distance": 46294.0, "latitude": 35.633, "longitude": -91.167, "useCount": 0, "id": "72037713917", "name": "NEWPORT MUNICIPAL AIRPORT, AR US", "quality": 100, "contribution": 0.0}, "KARG": {"distance": 37641.0, "latitude": 36.13, "longitude": -90.92, "useCount": 0, "id": "KARG", "name": "KARG", "quality": 100, "contribution": 0.0}, "KM19": {"distance": 47001.0, "latitude": 35.64, "longitude": -91.18, "useCount": 0, "id": "KM19", "name": "NEWPORT/NEWPORT MUN, AR", "quality": 100, "contribution": 0.0}, "72340703953": {"distance": 6470.0, "latitude": 35.831, "longitude": -90.646, "useCount": 0, "id": "72340703953", "name": "JONESBORO MUNICIPAL AIRPORT, AR US", "quality": 88, "contribution": 0.0}, "KJBR": {"distance": 6153.0, "latitude": 35.83, "longitude": -90.65, "useCount": 0, "id": "KJBR", "name": "KJBR", "quality": 87, "contribution": 0.0}}}