{"queryCost": 1, "latitude": 38.27, "longitude": -85.796, "resolvedAddress": "38.27000,-85.79600", "address": "38.27000,-85.79600", "timezone": "America/Kentucky/Louisville", "tzoffset": -4.0, "days": [{"datetime": "2018-04-24", "datetimeEpoch": 1524542400, "tempmax": 57.8, "tempmin": 53.9, "temp": 56.0, "feelslikemax": 57.8, "feelslikemin": 53.9, "feelslike": 56.0, "dew": 54.0, "humidity": 93.1, "precip": 0.27, "precipprob": 100.0, "precipcover": 70.83, "preciptype": ["rain"], "snow": 0.0, "snowdepth": 0.0, "windgust": null, "windspeed": 8.6, "winddir": 163.4, "pressure": 1013.1, "cloudcover": 100.0, "visibility": 7.7, "solarradiation": 45.0, "solarenergy": 3.9, "uvindex": 1.0, "sunrise": "06:55:08", "sunriseEpoch": 1524567308, "sunset": "20:28:04", "sunsetEpoch": 1524616084, "moonphase": 0.34, "conditions": "Rain, Overcast", "description": "Cloudy skies throughout the day with a chance of rain throughout the day.", "icon": "rain", "stations": ["KFTK", "KLOU", "AU953", "KSDF", "72423093821", "72424013807", "72423513810"], "source": "obs"}], "stations": {"KFTK": {"distance": 43919.0, "latitude": 37.9, "longitude": -85.97, "useCount": 0, "id": "KFTK", "name": "KFTK", "quality": 100, "contribution": 0.0}, "KLOU": {"distance": 12342.0, "latitude": 38.22, "longitude": -85.67, "useCount": 0, "id": "KLOU", "name": "KLOU", "quality": 100, "contribution": 0.0}, "AU953": {"distance": 5488.0, "latitude": 38.311, "longitude": -85.83, "useCount": 0, "id": "AU953", "name": "N9OKI New Albany IN US", "quality": 0, "contribution": 0.0}, "KSDF": {"distance": 11562.0, "latitude": 38.18, "longitude": -85.73, "useCount": 0, "id": "KSDF", "name": "KSDF", "quality": 100, "contribution": 0.0}, "72423093821": {"distance": 11077.0, "latitude": 38.181, "longitude": -85.739, "useCount": 0, "id": "72423093821", "name": "LOUISVILLE INTERNATIONAL AIRPORT, KY US", "quality": 100, "contribution": 0.0}, "72424013807": {"distance": 43820.0, "latitude": 37.9, "longitude": -85.967, "useCount": 0, "id": "72424013807", "name": "FORT KNOX GODMAN ARMY AIR FIELD, KY US", "quality": 99, "contribution": 0.0}, "72423513810": {"distance": 12479.0, "latitude": 38.228, "longitude": -85.664, "useCount": 0, "id": "72423513810", "name": "LOUISVILLE BOWMAN FIELD, KY US", "quality": 100, "contribution": 0.0}}}