{"queryCost": 1, "latitude": 38.269, "longitude": -85.816, "resolvedAddress": "38.26900,-85.81600", "address": "38.26900,-85.81600", "timezone": "America/Kentucky/Louisville", "tzoffset": -4.0, "days": [{"datetime": "2018-04-25", "datetimeEpoch": 1524628800, "tempmax": 69.1, "tempmin": 55.1, "temp": 60.7, "feelslikemax": 69.1, "feelslikemin": 55.1, "feelslike": 60.7, "dew": 50.7, "humidity": 71.9, "precip": 0.0, "precipprob": 0.0, "precipcover": 0.0, "preciptype": null, "snow": 0.0, "snowdepth": 0.0, "windgust": 21.1, "windspeed": 11.4, "winddir": 248.0, "pressure": 1013.8, "cloudcover": 84.3, "visibility": 9.9, "solarradiation": 208.6, "solarenergy": 18.0, "uvindex": 9.0, "sunrise": "06:53:55", "sunriseEpoch": 1524653635, "sunset": "20:29:05", "sunsetEpoch": 1524702545, "moonphase": 0.39, "conditions": "Partially cloudy", "description": "Partly cloudy throughout the day.", "icon": "partly-cloudy-day", "stations": ["KFTK", "KLOU", "AU953", "KSDF", "72423093821", "72424013807", "72423513810"], "source": "obs"}], "stations": {"KFTK": {"distance": 43236.0, "latitude": 37.9, "longitude": -85.97, "useCount": 0, "id": "KFTK", "name": "KFTK", "quality": 100, "contribution": 0.0}, "KLOU": {"distance": 13881.0, "latitude": 38.22, "longitude": -85.67, "useCount": 0, "id": "KLOU", "name": "KLOU", "quality": 100, "contribution": 0.0}, "AU953": {"distance": 4866.0, "latitude": 38.311, "longitude": -85.83, "useCount": 0, "id": "AU953", "name": "N9OKI New Albany IN US", "quality": 0, "contribution": 0.0}, "KSDF": {"distance": 12439.0, "latitude": 38.18, "longitude": -85.73, "useCount": 0, "id": "KSDF", "name": "KSDF", "quality": 100, "contribution": 0.0}, "72423093821": {"distance": 11873.0, "latitude": 38.181, "longitude": -85.739, "useCount": 0, "id": "72423093821", "name": "LOUISVILLE INTERNATIONAL AIRPORT, KY US", "quality": 100, "contribution": 0.0}, "72424013807": {"distance": 43147.0, "latitude": 37.9, "longitude": -85.967, "useCount": 0, "id": "72424013807", "name": "FORT KNOX GODMAN ARMY AIR FIELD, KY US", "quality": 99, "contribution": 0.0}, "72423513810": {"distance": 14080.0, "latitude": 38.228, "longitude": -85.664, "useCount": 0, "id": "72423513810", "name": "LOUISVILLE BOWMAN FIELD, KY US", "quality": 100, "contribution": 0.0}}}