{"queryCost": 1, "latitude": 34.048, "longitude": -84.176, "resolvedAddress": "34.04800,-84.17600", "address": "34.04800,-84.17600", "timezone": "America/New_York", "tzoffset": -4.0, "days": [{"datetime": "2018-04-28", "datetimeEpoch": 1524888000, "tempmax": 76.6, "tempmin": 49.2, "temp": 63.9, "feelslikemax": 76.6, "feelslikemin": 49.2, "feelslike": 63.9, "dew": 43.5, "humidity": 52.43, "precip": 0.0, "precipprob": null, "precipcover": 0.0, "preciptype": null, "snow": 0.0, "snowdepth": 0.0, "windgust": 26.4, "windspeed": 14.1, "winddir": 280.1, "pressure": 1013.5, "cloudcover": 4.6, "visibility": 9.9, "solarradiation": 342.1, "solarenergy": 17.2, "uvindex": 10.0, "sunrise": "06:50:32", "sunriseEpoch": 1524912632, "sunset": "20:18:18", "sunsetEpoch": 1524961098, "moonphase": 0.49, "conditions": "Clear", "description": "Clear conditions throughout the day.", "icon": "clear-day", "stations": ["KMGE", "74780863803", "C3454", "72227013864", "72219653863", "KPDK", "KLZU"], "source": "obs"}], "stations": {"KMGE": {"distance": 34804.0, "latitude": 33.92, "longitude": -84.52, "useCount": 0, "id": "KMGE", "name": "KMGE", "quality": 100, "contribution": 0.0}, "74780863803": {"distance": 21048.0, "latitude": 33.98, "longitude": -83.963, "useCount": 0, "id": "74780863803", "name": "LAWRENCEVILLE GWINNET CO BRISCOE FIELD AIRPORT, GA US", "quality": 96, "contribution": 0.0}, "C3454": {"distance": 20795.0, "latitude": 34.214, "longitude": -84.279, "useCount": 0, "id": "C3454", "name": "CW3454 Alpharetta GA US", "quality": 0, "contribution": 0.0}, "72227013864": {"distance": 34680.0, "latitude": 33.917, "longitude": -84.517, "useCount": 0, "id": "72227013864", "name": "MARIETTA DOBBINS AFB, GA US", "quality": 99, "contribution": 0.0}, "72219653863": {"distance": 22509.0, "latitude": 33.875, "longitude": -84.302, "useCount": 0, "id": "72219653863", "name": "ATLANTA DEKALB PEACHTREE AIRPORT, GA US", "quality": 100, "contribution": 0.0}, "KPDK": {"distance": 21928.0, "latitude": 33.88, "longitude": -84.3, "useCount": 0, "id": "KPDK", "name": "KPDK", "quality": 100, "contribution": 0.0}, "KLZU": {"distance": 21320.0, "latitude": 33.98, "longitude": -83.96, "useCount": 0, "id": "KLZU", "name": "LAWRENCEVILLE, GA", "quality": 98, "contribution": 0.0}}}