{"queryCost": 1, "latitude": 29.378, "longitude": -98.524, "resolvedAddress": "29.37800,-98.52400", "address": "29.37800,-98.52400", "timezone": "America/Chicago", "tzoffset": -5.0, "days": [{"datetime": "2018-05-01", "datetimeEpoch": 1525150800, "tempmax": 84.6, "tempmin": 71.0, "temp": 75.9, "feelslikemax": 89.7, "feelslikemin": 71.0, "feelslike": 77.1, "dew": 69.5, "humidity": 81.0, "precip": 0.0, "precipprob": 0.0, "precipcover": 0.0, "preciptype": null, "snow": 0.0, "snowdepth": 0.0, "windgust": 29.8, "windspeed": 19.2, "winddir": 129.8, "pressure": 1012.1, "cloudcover": 93.7, "visibility": 9.6, "solarradiation": 28.3, "solarenergy": 2.3, "uvindex": 2.0, "sunrise": "06:52:05", "sunriseEpoch": 1525175525, "sunset": "20:10:39", "sunsetEpoch": 1525223439, "moonphase": 0.52, "conditions": "Overcast", "description": "Cloudy skies throughout the day.", "icon": "cloudy", "stations": ["KSKF", "E7101", "KSSF", "KSAT", "72253012921", "72252312970", "72253512909"], "source": "obs"}], "stations": {"KSKF": {"distance": 5437.0, "latitude": 29.38, "longitude": -98.58, "useCount": 0, "id": "KSKF", "name": "KSKF", "quality": 100, "contribution": 0.0}, "E7101": {"distance": 12664.0, "latitude": 29.482, "longitude": -98.47, "useCount": 0, "id": "E7101", "name": "EW7101 San Antonio TX US", "quality": 0, "contribution": 0.0}, "KSSF": {"distance": 7484.0, "latitude": 29.33, "longitude": -98.47, "useCount": 0, "id": "KSSF", "name": "KSSF", "quality": 100, "contribution": 0.0}, "KSAT": {"distance": 17712.0, "latitude": 29.53, "longitude": -98.47, "useCount": 0, "id": "KSAT", "name": "KSAT", "quality": 100, "contribution": 0.0}, "72253012921": {"distance": 18916.0, "latitude": 29.544, "longitude": -98.484, "useCount": 0, "id": "72253012921", "name": "SAN ANTONIO INTERNATIONAL AIRPORT, TX US", "quality": 100, "contribution": 0.0}, "72252312970": {"distance": 6663.0, "latitude": 29.339, "longitude": -98.472, "useCount": 0, "id": "72252312970", "name": "SAN ANTONIO STINSON MUNICIPAL AIRPORT, TX US", "quality": 100, "contribution": 0.0}, "72253512909": {"distance": 5782.0, "latitude": 29.383, "longitude": -98.583, "useCount": 0, "id": "72253512909", "name": "SAN ANTONIO KELLY FIELD AFB, TX US", "quality": 98, "contribution": 0.0}}}