{"queryCost": 1, "latitude": 35.887, "longitude": -79.532, "resolvedAddress": "35.88700,-79.53200", "address": "35.88700,-79.53200", "timezone": "America/New_York", "tzoffset": -4.0, "days": [{"datetime": "2018-05-02", "datetimeEpoch": 1525233600, "tempmax": 85.5, "tempmin": 47.8, "temp": 67.8, "feelslikemax": 82.9, "feelslikemin": 47.8, "feelslike": 67.2, "dew": 48.6, "humidity": 55.9, "precip": 0.0, "precipprob": 0.0, "precipcover": 0.0, "preciptype": null, "snow": 0.0, "snowdepth": 0.0, "windgust": 20.8, "windspeed": 11.6, "winddir": 204.3, "pressure": 1023.2, "cloudcover": 0.0, "visibility": 9.9, "solarradiation": 293.9, "solarenergy": 25.5, "uvindex": 9.0, "sunrise": "06:24:39", "sunriseEpoch": 1525256679, "sunset": "20:06:04", "sunsetEpoch": 1525305964, "moonphase": 0.53, "conditions": "Clear", "description": "Clear conditions throughout the day.", "icon": "clear-day", "stations": ["74693503709", "72096800340", "KSCR", "72317493783", "KBUY", "D4152", "99999903758"], "source": "obs"}], "stations": {"74693503709": {"distance": 41833.0, "latitude": 35.654, "longitude": -79.895, "useCount": 0, "id": "74693503709", "name": "ASHEBORO MUNICIPAL AIRPORT, NC US", "quality": 100, "contribution": 0.0}, "72096800340": {"distance": 20528.0, "latitude": 35.704, "longitude": -79.504, "useCount": 0, "id": "72096800340", "name": "SILER CITY MUNICIPAL AIRPORT, NC US", "quality": 100, "contribution": 0.0}, "KSCR": {"distance": 21016.0, "latitude": 35.7, "longitude": -79.5, "useCount": 0, "id": "KSCR", "name": "KSCR", "quality": 97, "contribution": 0.0}, "72317493783": {"distance": 18458.0, "latitude": 36.047, "longitude": -79.477, "useCount": 0, "id": "72317493783", "name": "BURLINGTON ALAMANCE REGIONAL AIRPORT, NC US", "quality": 100, "contribution": 0.0}, "KBUY": {"distance": 17925.0, "latitude": 36.04, "longitude": -79.47, "useCount": 0, "id": "KBUY", "name": "KBUY", "quality": 100, "contribution": 0.0}, "D4152": {"distance": 17272.0, "latitude": 36.041, "longitude": -79.507, "useCount": 0, "id": "D4152", "name": "DW4152 Burlington NC US", "quality": 0, "contribution": 0.0}, "99999903758": {"distance": 40640.0, "latitude": 35.971, "longitude": -79.093, "useCount": 0, "id": "99999903758", "name": "DURHAM 11 W, NC US", "quality": 100, "contribution": 0.0}}}