{"queryCost": 1, "latitude": 34.406, "longitude": -83.192, "resolvedAddress": "34.40600,-83.19200", "address": "34.40600,-83.19200", "timezone": "America/New_York", "tzoffset": -4.0, "days": [{"datetime": "2018-05-13", "datetimeEpoch": 1526184000, "tempmax": 89.7, "tempmin": 62.8, "temp": 76.9, "feelslikemax": 87.5, "feelslikemin": 62.8, "feelslike": 76.5, "dew": 58.7, "humidity": 57.4, "precip": 0.0, "precipprob": 0.0, "precipcover": 0.0, "preciptype": null, "snow": 0.0, "snowdepth": 0.0, "windgust": null, "windspeed": 6.0, "winddir": 259.9, "pressure": 1017.5, "cloudcover": 0.0, "visibility": 9.8, "solarradiation": 137.1, "solarenergy": 11.7, "uvindex": 9.0, "sunrise": "06:31:58", "sunriseEpoch": 1526207518, "sunset": "20:26:42", "sunsetEpoch": 1526257602, "moonphase": 0.98, "conditions": "Clear", "description": "Clear conditions throughout the day.", "icon": "clear-day", "stations": ["AT150", "KCEU", "72311853850", "72319093846", "74948300394", "KAND", "KAHN"], "source": "obs"}], "stations": {"AT150": {"distance": 27529.0, "latitude": 34.167, "longitude": -83.114, "useCount": 0, "id": "AT150", "name": "K4GZX-11 Dewy Rose GA US", "quality": 0, "contribution": 0.0}, "KCEU": {"distance": 41015.0, "latitude": 34.67, "longitude": -82.88, "useCount": 0, "id": "KCEU", "name": "KCEU", "quality": 100, "contribution": 0.0}, "72311853850": {"distance": 40761.0, "latitude": 34.672, "longitude": -82.886, "useCount": 0, "id": "72311853850", "name": "CLEMSON OCONEE CO AIRPORT, SC US", "quality": 100, "contribution": 0.0}, "72319093846": {"distance": 45434.0, "latitude": 34.498, "longitude": -82.71, "useCount": 0, "id": "72319093846", "name": "ANDERSON FAA AIRPORT, SC US", "quality": 100, "contribution": 0.0}, "74948300394": {"distance": 44535.0, "latitude": 34.147, "longitude": -83.561, "useCount": 0, "id": "74948300394", "name": "JACKSON CO AIRPORT, GA US", "quality": 100, "contribution": 0.0}, "KAND": {"distance": 44572.0, "latitude": 34.5, "longitude": -82.72, "useCount": 0, "id": "KAND", "name": "KAND", "quality": 100, "contribution": 0.0}, "KAHN": {"distance": 52112.0, "latitude": 33.95, "longitude": -83.32, "useCount": 0, "id": "KAHN", "name": "KAHN", "quality": 100, "contribution": 0.0}}}