{"queryCost": 1, "latitude": 29.412, "longitude": -98.47, "resolvedAddress": "29.41200,-98.47000", "address": "29.41200,-98.47000", "timezone": "America/Chicago", "tzoffset": -5.0, "days": [{"datetime": "2018-05-14", "datetimeEpoch": 1526274000, "tempmax": 92.1, "tempmin": 75.9, "temp": 82.1, "feelslikemax": 93.5, "feelslikemin": 75.9, "feelslike": 83.2, "dew": 68.0, "humidity": 64.9, "precip": 0.0, "precipprob": 0.0, "precipcover": 0.0, "preciptype": null, "snow": 0.0, "snowdepth": 0.0, "windgust": 21.9, "windspeed": 14.0, "winddir": 142.3, "pressure": 1012.2, "cloudcover": 65.4, "visibility": 9.9, "solarradiation": 58.2, "solarenergy": 5.1, "uvindex": 3.0, "sunrise": "06:42:09", "sunriseEpoch": 1526298129, "sunset": "20:18:39", "sunsetEpoch": 1526347119, "moonphase": 1.0, "conditions": "Partially cloudy", "description": "Partly cloudy throughout the day.", "icon": "partly-cloudy-day", "stations": ["KSKF", "E7101", "KSSF", "KSAT", "72253012921", "72252312970", "72253512909"], "source": "obs"}], "stations": {"KSKF": {"distance": 11248.0, "latitude": 29.38, "longitude": -98.58, "useCount": 0, "id": "KSKF", "name": "KSKF", "quality": 100, "contribution": 0.0}, "E7101": {"distance": 7759.0, "latitude": 29.482, "longitude": -98.47, "useCount": 0, "id": "E7101", "name": "EW7101 San Antonio TX US", "quality": 0, "contribution": 0.0}, "KSSF": {"distance": 9128.0, "latitude": 29.33, "longitude": -98.47, "useCount": 0, "id": "KSSF", "name": "KSSF", "quality": 100, "contribution": 0.0}, "KSAT": {"distance": 13136.0, "latitude": 29.53, "longitude": -98.47, "useCount": 0, "id": "KSAT", "name": "KSAT", "quality": 100, "contribution": 0.0}, "72253012921": {"distance": 14789.0, "latitude": 29.544, "longitude": -98.484, "useCount": 0, "id": "72253012921", "name": "SAN ANTONIO INTERNATIONAL AIRPORT, TX US", "quality": 100, "contribution": 0.0}, "72252312970": {"distance": 8140.0, "latitude": 29.339, "longitude": -98.472, "useCount": 0, "id": "72252312970", "name": "SAN ANTONIO STINSON MUNICIPAL AIRPORT, TX US", "quality": 100, "contribution": 0.0}, "72253512909": {"distance": 11443.0, "latitude": 29.383, "longitude": -98.583, "useCount": 0, "id": "72253512909", "name": "SAN ANTONIO KELLY FIELD AFB, TX US", "quality": 98, "contribution": 0.0}}}