{"queryCost": 1, "latitude": 45.483, "longitude": -122.468, "resolvedAddress": "45.48300,-122.46800", "address": "45.48300,-122.46800", "timezone": "America/Los_Angeles", "tzoffset": -7.0, "days": [{"datetime": "2018-05-18", "datetimeEpoch": 1526626800, "tempmax": 69.2, "tempmin": 55.8, "temp": 60.8, "feelslikemax": 69.2, "feelslikemin": 55.8, "feelslike": 60.8, "dew": 50.3, "humidity": 69.0, "precip": 0.0, "precipprob": 0.0, "precipcover": 0.0, "preciptype": null, "snow": 0.0, "snowdepth": 0.0, "windgust": null, "windspeed": 8.6, "winddir": 281.7, "pressure": 1016.8, "cloudcover": 77.3, "visibility": 9.9, "solarradiation": 159.3, "solarenergy": 13.6, "uvindex": 8.0, "sunrise": "05:35:56", "sunriseEpoch": 1526646956, "sunset": "20:37:23", "sunsetEpoch": 1526701043, "moonphase": 0.06, "conditions": "Partially cloudy", "description": "Partly cloudy throughout the day.", "icon": "partly-cloudy-day", "stations": ["72698524242", "D8151", "KVUO", "KTTD", "KPDX", "72698024229", "72791894298"], "source": "obs"}], "stations": {"72698524242": {"distance": 8868.0, "latitude": 45.551, "longitude": -122.409, "useCount": 0, "id": "72698524242", "name": "PORTLAND TROUTDALE AIRPORT, OR US", "quality": 100, "contribution": 0.0}, "D8151": {"distance": 4353.0, "latitude": 45.522, "longitude": -122.46, "useCount": 0, "id": "D8151", "name": "DW8151 Gresham OR US", "quality": 0, "contribution": 0.0}, "KVUO": {"distance": 21368.0, "latitude": 45.62, "longitude": -122.66, "useCount": 0, "id": "KVUO", "name": "KVUO", "quality": 100, "contribution": 0.0}, "KTTD": {"distance": 8345.0, "latitude": 45.55, "longitude": -122.42, "useCount": 0, "id": "KTTD", "name": "KTTD", "quality": 100, "contribution": 0.0}, "KPDX": {"distance": 16600.0, "latitude": 45.6, "longitude": -122.6, "useCount": 0, "id": "KPDX", "name": "KPDX", "quality": 100, "contribution": 0.0}, "72698024229": {"distance": 16689.0, "latitude": 45.596, "longitude": -122.609, "useCount": 0, "id": "72698024229", "name": "PORTLAND INTERNATIONAL AIRPORT, OR US", "quality": 100, "contribution": 0.0}, "72791894298": {"distance": 21269.0, "latitude": 45.621, "longitude": -122.657, "useCount": 0, "id": "72791894298", "name": "VANCOUVER PEARSON AIRPORT, WA US", "quality": 100, "contribution": 0.0}}}