{"queryCost": 1, "latitude": 28.099, "longitude": -97.835, "resolvedAddress": "28.09900,-97.83500", "address": "28.09900,-97.83500", "timezone": "America/Chicago", "tzoffset": -5.0, "days": [{"datetime": "2018-05-22", "datetimeEpoch": 1526965200, "tempmax": 91.0, "tempmin": 72.2, "temp": 79.8, "feelslikemax": 94.0, "feelslikemin": 72.2, "feelslike": 81.5, "dew": 70.6, "humidity": 76.8, "precip": 0.0, "precipprob": 0.0, "precipcover": 0.0, "preciptype": null, "snow": 0.0, "snowdepth": 0.0, "windgust": 21.1, "windspeed": 15.5, "winddir": 112.9, "pressure": 1013.1, "cloudcover": 48.5, "visibility": 8.2, "solarradiation": 270.4, "solarenergy": 23.5, "uvindex": 8.0, "sunrise": "06:38:02", "sunriseEpoch": 1526989082, "sunset": "20:18:18", "sunsetEpoch": 1527038298, "moonphase": 0.27, "conditions": "Partially cloudy", "description": "Partly cloudy throughout the day.", "icon": "partly-cloudy-day", "stations": ["KBEA", "KALI", "E5963", "72039100127", "KRBO", "72251012924", "72251712932"], "source": "obs"}], "stations": {"KBEA": {"distance": 29388.0, "latitude": 28.36, "longitude": -97.79, "useCount": 0, "id": "KBEA", "name": "KBEA", "quality": 88, "contribution": 0.0}, "KALI": {"distance": 45335.0, "latitude": 27.73, "longitude": -98.03, "useCount": 0, "id": "KALI", "name": "KALI", "quality": 100, "contribution": 0.0}, "E5963": {"distance": 12396.0, "latitude": 28.197, "longitude": -97.896, "useCount": 0, "id": "E5963", "name": "EW5963 Mathis TX US", "quality": 0, "contribution": 0.0}, "72039100127": {"distance": 30243.0, "latitude": 28.35, "longitude": -97.717, "useCount": 0, "id": "72039100127", "name": "BEEVILLE MUNICIPAL AIRPORT, TX US", "quality": 88, "contribution": 0.0}, "KRBO": {"distance": 38267.0, "latitude": 27.78, "longitude": -97.69, "useCount": 0, "id": "KRBO", "name": "KRBO", "quality": 94, "contribution": 0.0}, "72251012924": {"distance": 48116.0, "latitude": 27.774, "longitude": -97.512, "useCount": 0, "id": "72251012924", "name": "CORPUS CHRISTI INTERNATIONAL AIRPORT, TX US", "quality": 100, "contribution": 0.0}, "72251712932": {"distance": 43994.0, "latitude": 27.741, "longitude": -98.025, "useCount": 0, "id": "72251712932", "name": "ALICE INTERNATIONAL AIRPORT, TX US", "quality": 100, "contribution": 0.0}}}