{"queryCost": 1, "latitude": 41.244, "longitude": -95.933, "resolvedAddress": "41.24400,-95.93300", "address": "41.24400,-95.93300", "timezone": "America/Chicago", "tzoffset": -6.0, "days": [{"datetime": "2015-02-23", "datetimeEpoch": 1424671200, "tempmax": 24.0, "tempmin": 0.9, "temp": 11.9, "feelslikemax": 13.8, "feelslikemin": -9.2, "feelslike": 3.0, "dew": -4.7, "humidity": 50.4, "precip": 0.0, "precipprob": 0.0, "precipcover": 0.0, "preciptype": null, "snow": 0.0, "snowdepth": 0.4, "windgust": 24.2, "windspeed": 13.4, "winddir": 173.0, "pressure": 1038.3, "cloudcover": 10.6, "visibility": 9.9, "solarradiation": 200.1, "solarenergy": 17.5, "uvindex": 7.0, "sunrise": "07:07:29", "sunriseEpoch": 1424696849, "sunset": "18:07:19", "sunsetEpoch": 1424736439, "moonphase": 0.13, "conditions": "Clear", "description": "Clear conditions throughout the day.", "icon": "clear-day", "stations": ["KOFF", "72549704908", "KOMA", "72550014942", "72554014949", "KCBF"], "source": "obs"}], "stations": {"KOFF": {"distance": 13847.0, "latitude": 41.12, "longitude": -95.92, "useCount": 0, "id": "KOFF", "name": "KOFF", "quality": 100, "contribution": 0.0}, "72549704908": {"distance": 14605.0, "latitude": 41.259, "longitude": -95.76, "useCount": 0, "id": "72549704908", "name": "COUNCIL BLUFFS MUNICIPAL AIRPORT, IA US", "quality": 100, "contribution": 0.0}, "KOMA": {"distance": 6818.0, "latitude": 41.3, "longitude": -95.9, "useCount": 0, "id": "KOMA", "name": "KOMA", "quality": 100, "contribution": 0.0}, "72550014942": {"distance": 7896.0, "latitude": 41.31, "longitude": -95.899, "useCount": 0, "id": "72550014942", "name": "OMAHA EPPLEY AIRFIELD, NE US", "quality": 100, "contribution": 0.0}, "72554014949": {"distance": 14237.0, "latitude": 41.117, "longitude": -95.917, "useCount": 0, "id": "72554014949", "name": "BELLEVUE OFFUTT AFB, NE US", "quality": 100, "contribution": 0.0}, "KCBF": {"distance": 13944.0, "latitude": 41.27, "longitude": -95.77, "useCount": 0, "id": "KCBF", "name": "KCBF", "quality": 99, "contribution": 0.0}}}