{"queryCost": 1, "latitude": 39.077, "longitude": -108.511, "resolvedAddress": "39.07700,-108.51100", "address": "39.07700,-108.51100", "timezone": "America/Denver", "tzoffset": -6.0, "days": [{"datetime": "2018-05-27", "datetimeEpoch": 1527400800, "tempmax": 83.1, "tempmin": 60.1, "temp": 72.6, "feelslikemax": 80.4, "feelslikemin": 60.1, "feelslike": 72.0, "dew": 20.0, "humidity": 14.19, "precip": 0.0, "precipprob": null, "precipcover": 0.0, "preciptype": null, "snow": 0.0, "snowdepth": 0.0, "windgust": 29.7, "windspeed": 20.7, "winddir": 169.7, "pressure": 1003.6, "cloudcover": 0.0, "visibility": 9.9, "solarradiation": 517.2, "solarenergy": 29.8, "uvindex": 10.0, "sunrise": "05:52:24", "sunriseEpoch": 1527421944, "sunset": "20:30:28", "sunsetEpoch": 1527474628, "moonphase": 0.48, "conditions": "Clear", "description": "Clear conditions throughout the day.", "icon": "clear-day", "stations": ["72476023066", "KGJT", "72053100158", "KAJZ", "CSU48"], "source": "obs"}], "stations": {"72476023066": {"distance": 6843.0, "latitude": 39.134, "longitude": -108.54, "useCount": 0, "id": "72476023066", "name": "GRAND JUNCTION WALKER FIELD, CO US", "quality": 100, "contribution": 0.0}, "KGJT": {"distance": 4024.0, "latitude": 39.11, "longitude": -108.53, "useCount": 0, "id": "KGJT", "name": "KGJT", "quality": 100, "contribution": 0.0}, "72053100158": {"distance": 50492.0, "latitude": 38.783, "longitude": -108.067, "useCount": 0, "id": "72053100158", "name": "BLAKE FIELD AIRPORT, CO US", "quality": 98, "contribution": 0.0}, "KAJZ": {"distance": 51171.0, "latitude": 38.78, "longitude": -108.06, "useCount": 0, "id": "KAJZ", "name": "KAJZ", "quality": 98, "contribution": 0.0}, "CSU48": {"distance": 5883.0, "latitude": 39.042, "longitude": -108.46, "useCount": 0, "id": "CSU48", "name": "Orchard Mesa CO US", "quality": 0, "contribution": 0.0}}}