{"queryCost": 1, "latitude": 37.74, "longitude": -120.94, "resolvedAddress": "37.74000,-120.94000", "address": "37.74000,-120.94000", "timezone": "America/Los_Angeles", "tzoffset": -7.0, "days": [{"datetime": "2018-05-29", "datetimeEpoch": 1527577200, "tempmax": 98.1, "tempmin": 65.2, "temp": 82.3, "feelslikemax": 96.1, "feelslikemin": 65.2, "feelslike": 81.0, "dew": 52.9, "humidity": 40.5, "precip": 0.0, "precipprob": 0.0, "precipcover": 0.0, "preciptype": null, "snow": 0.0, "snowdepth": 0.0, "windgust": 20.8, "windspeed": 17.0, "winddir": 203.2, "pressure": 1006.7, "cloudcover": 0.0, "visibility": 9.9, "solarradiation": 311.6, "solarenergy": 26.7, "uvindex": 9.0, "sunrise": "05:44:50", "sunriseEpoch": 1527597890, "sunset": "20:17:56", "sunsetEpoch": 1527650276, "moonphase": 0.5, "conditions": "Clear", "description": "Clear conditions throughout the day.", "icon": "clear-day", "stations": ["KSCK", "KMOD", "72492623258", "72492023237", "D7479", "72481523257", "99999993243"], "source": "obs"}], "stations": {"KSCK": {"distance": 32563.0, "latitude": 37.9, "longitude": -121.25, "useCount": 0, "id": "KSCK", "name": "KSCK", "quality": 100, "contribution": 0.0}, "KMOD": {"distance": 12277.0, "latitude": 37.63, "longitude": -120.95, "useCount": 0, "id": "KMOD", "name": "KMOD", "quality": 100, "contribution": 0.0}, "72492623258": {"distance": 12938.0, "latitude": 37.624, "longitude": -120.951, "useCount": 0, "id": "72492623258", "name": "MODESTO CITY CO AIRPORT, CA US", "quality": 100, "contribution": 0.0}, "72492023237": {"distance": 30134.0, "latitude": 37.889, "longitude": -121.226, "useCount": 0, "id": "72492023237", "name": "STOCKTON METROPOLITAN AIRPORT, CA US", "quality": 100, "contribution": 0.0}, "D7479": {"distance": 525.0, "latitude": 37.744, "longitude": -120.944, "useCount": 0, "id": "D7479", "name": "DW7479 Riverbank CA US", "quality": 0, "contribution": 0.0}, "72481523257": {"distance": 63170.0, "latitude": 37.285, "longitude": -120.513, "useCount": 0, "id": "72481523257", "name": "MERCED MUNICIPAL AIRPORT, CA US", "quality": 100, "contribution": 0.0}, "99999993243": {"distance": 56106.0, "latitude": 37.238, "longitude": -120.882, "useCount": 0, "id": "99999993243", "name": "MERCED 23 WSW, CA US", "quality": 100, "contribution": 0.0}}}