{"queryCost": 1, "latitude": 41.872, "longitude": -87.765, "resolvedAddress": "41.87200,-87.76500", "address": "41.87200,-87.76500", "timezone": "America/Chicago", "tzoffset": -5.0, "days": [{"datetime": "2018-06-02", "datetimeEpoch": 1527915600, "tempmax": 71.6, "tempmin": 53.1, "temp": 61.6, "feelslikemax": 71.6, "feelslikemin": 53.1, "feelslike": 61.6, "dew": 54.4, "humidity": 77.4, "precip": 0.24, "precipprob": 100.0, "precipcover": 8.33, "preciptype": ["rain"], "snow": 0.0, "snowdepth": 0.0, "windgust": 18.3, "windspeed": 11.5, "winddir": 71.2, "pressure": 1013.5, "cloudcover": 75.1, "visibility": 9.7, "solarradiation": 161.2, "solarenergy": 13.8, "uvindex": 5.0, "sunrise": "05:18:02", "sunriseEpoch": 1527934682, "sunset": "20:20:31", "sunsetEpoch": 1527988831, "moonphase": 0.57, "conditions": "Rain, Partially cloudy", "description": "Partly cloudy throughout the day with late afternoon rain.", "icon": "rain", "stations": ["72534014819", "KORD", "KMDW", "72530094846", "74466504838", "KPWK", "D6362"], "source": "obs"}], "stations": {"72534014819": {"distance": 9621.0, "latitude": 41.786, "longitude": -87.752, "useCount": 0, "id": "72534014819", "name": "CHICAGO MIDWAY AIRPORT, IL US", "quality": 100, "contribution": 0.0}, "KORD": {"distance": 16418.0, "latitude": 41.98, "longitude": -87.9, "useCount": 0, "id": "KORD", "name": "KORD", "quality": 100, "contribution": 0.0}, "KMDW": {"distance": 10317.0, "latitude": 41.78, "longitude": -87.75, "useCount": 0, "id": "KMDW", "name": "KMDW", "quality": 100, "contribution": 0.0}, "72530094846": {"distance": 16937.0, "latitude": 41.96, "longitude": -87.932, "useCount": 0, "id": "72530094846", "name": "CHICAGO OHARE INTERNATIONAL AIRPORT, IL US", "quality": 100, "contribution": 0.0}, "74466504838": {"distance": 30011.0, "latitude": 42.121, "longitude": -87.905, "useCount": 0, "id": "74466504838", "name": "CHICAGO PALWAUKEE AIRPORT, IL US", "quality": 100, "contribution": 0.0}, "KPWK": {"distance": 30440.0, "latitude": 42.12, "longitude": -87.92, "useCount": 0, "id": "KPWK", "name": "KPWK", "quality": 100, "contribution": 0.0}, "D6362": {"distance": 12229.0, "latitude": 41.948, "longitude": -87.659, "useCount": 0, "id": "D6362", "name": "DW6362 Chicago IL US", "quality": 0, "contribution": 0.0}}}