{"queryCost": 1, "latitude": 21.391, "longitude": -158.005, "resolvedAddress": "21.39100,-158.00500", "address": "21.39100,-158.00500", "timezone": "Pacific/Honolulu", "tzoffset": -10.0, "days": [{"datetime": "2018-06-01", "datetimeEpoch": 1527847200, "tempmax": 84.1, "tempmin": 73.3, "temp": 78.0, "feelslikemax": 86.2, "feelslikemin": 73.3, "feelslike": 78.8, "dew": 65.3, "humidity": 65.7, "precip": 0.0, "precipprob": 0.0, "precipcover": 0.0, "preciptype": null, "snow": 0.0, "snowdepth": 0.0, "windgust": 27.7, "windspeed": 15.1, "winddir": 59.0, "pressure": 1015.2, "cloudcover": 44.8, "visibility": 9.9, "solarradiation": 249.9, "solarenergy": 21.5, "uvindex": 8.0, "sunrise": "05:49:23", "sunriseEpoch": 1527868163, "sunset": "19:10:36", "sunsetEpoch": 1527916236, "moonphase": 0.54, "conditions": "Partially cloudy", "description": "Partly cloudy throughout the day.", "icon": "partly-cloudy-day", "stations": ["91176022519", "PHNL", "PHNG", "91178022551", "91182022521", "91170022508", "PLHH1"], "source": "obs"}], "stations": {"91176022519": {"distance": 25438.0, "latitude": 21.451, "longitude": -157.768, "useCount": 0, "id": "91176022519", "name": "KANEOHE BAY MCAS, HI US", "quality": 98, "contribution": 0.0}, "PHNL": {"distance": 9016.0, "latitude": 21.35, "longitude": -157.93, "useCount": 0, "id": "PHNL", "name": "HONOLULU INTL,HI", "quality": 100, "contribution": 0.0}, "PHNG": {"distance": 25223.0, "latitude": 21.45, "longitude": -157.77, "useCount": 0, "id": "PHNG", "name": "PHNG", "quality": 97, "contribution": 0.0}, "91178022551": {"distance": 10475.0, "latitude": 21.317, "longitude": -158.067, "useCount": 0, "id": "91178022551", "name": "EWA KALAELOA AIRPORT, HI US", "quality": 98, "contribution": 0.0}, "91182022521": {"distance": 10849.0, "latitude": 21.324, "longitude": -157.929, "useCount": 0, "id": "91182022521", "name": "HONOLULU INTERNATIONAL AIRPORT, HI US", "quality": 100, "contribution": 0.0}, "91170022508": {"distance": 10971.0, "latitude": 21.487, "longitude": -158.028, "useCount": 0, "id": "91170022508", "name": "WHEELER ARMY AIR FIELD 810.1, HI US", "quality": 99, "contribution": 0.0}, "PLHH1": {"distance": 10284.0, "latitude": 21.385, "longitude": -158.104, "useCount": 0, "id": "PLHH1", "name": "PALEHUA HI US", "quality": 0, "contribution": 0.0}}}