{"queryCost": 1, "latitude": 25.461, "longitude": -80.48, "resolvedAddress": "25.46100,-80.48000", "address": "25.46100,-80.48000", "timezone": "America/New_York", "tzoffset": -4.0, "days": [{"datetime": "2018-05-30", "datetimeEpoch": 1527652800, "tempmax": 86.7, "tempmin": 79.2, "temp": 82.0, "feelslikemax": 96.4, "feelslikemin": 79.2, "feelslike": 86.7, "dew": 75.8, "humidity": 82.04, "precip": 0.0, "precipprob": null, "precipcover": 0.0, "preciptype": null, "snow": 0.0, "snowdepth": 0.0, "windgust": 21.9, "windspeed": 13.7, "winddir": 119.5, "pressure": 1015.2, "cloudcover": 48.8, "visibility": 9.9, "solarradiation": 266.4, "solarenergy": 21.1, "uvindex": 10.0, "sunrise": "06:31:32", "sunriseEpoch": 1527676292, "sunset": "20:07:38", "sunsetEpoch": 1527725258, "moonphase": 0.51, "conditions": "Partially cloudy", "description": "Partly cloudy throughout the day.", "icon": "partly-cloudy-day", "stations": ["72202912888", "STDF1", "72202612826", "KMIA", "EARF1", "72202012839", "KHST", "KTMB", "D0479"], "source": "obs"}], "stations": {"72202912888": {"distance": 21289.0, "latitude": 25.648, "longitude": -80.433, "useCount": 0, "id": "72202912888", "name": "MIAMI KENDALL TAMIAMI EXEC AIRPORT, FL US", "quality": 98, "contribution": 0.0}, "STDF1": {"distance": 5641.0, "latitude": 25.509, "longitude": -80.498, "useCount": 0, "id": "STDF1", "name": "Homestead FAWN", "quality": 0, "contribution": 0.0}, "72202612826": {"distance": 10030.0, "latitude": 25.483, "longitude": -80.383, "useCount": 0, "id": "72202612826", "name": "HOMESTEAD AFB, FL US", "quality": 100, "contribution": 0.0}, "KMIA": {"distance": 41292.0, "latitude": 25.79, "longitude": -80.29, "useCount": 0, "id": "KMIA", "name": "KMIA", "quality": 100, "contribution": 0.0}, "EARF1": {"distance": 8266.0, "latitude": 25.5, "longitude": -80.55, "useCount": 0, "id": "EARF1", "name": "EVERGLADES ARS FL US SCAN", "quality": 0, "contribution": 0.0}, "72202012839": {"distance": 39923.0, "latitude": 25.788, "longitude": -80.317, "useCount": 0, "id": "72202012839", "name": "MIAMI INTERNATIONAL AIRPORT, FL US", "quality": 100, "contribution": 0.0}, "KHST": {"distance": 10270.0, "latitude": 25.48, "longitude": -80.38, "useCount": 0, "id": "KHST", "name": "KHST", "quality": 100, "contribution": 0.0}, "KTMB": {"distance": 21630.0, "latitude": 25.65, "longitude": -80.43, "useCount": 0, "id": "KTMB", "name": "KTMB", "quality": 99, "contribution": 0.0}, "D0479": {"distance": 3974.0, "latitude": 25.468, "longitude": -80.519, "useCount": 0, "id": "D0479", "name": "DW0479 Homestead FL US", "quality": 0, "contribution": 0.0}}}