{"queryCost": 1, "latitude": 36.971, "longitude": -93.718, "resolvedAddress": "36.97100,-93.71800", "address": "36.97100,-93.71800", "timezone": "America/Chicago", "tzoffset": -5.0, "days": [{"datetime": "2018-05-05", "datetimeEpoch": 1525496400, "tempmax": 78.3, "tempmin": 49.0, "temp": 64.7, "feelslikemax": 78.3, "feelslikemin": 49.0, "feelslike": 64.7, "dew": 49.8, "humidity": 63.98, "precip": 0.0, "precipprob": null, "precipcover": 0.0, "preciptype": null, "snow": 0.0, "snowdepth": 0.0, "windgust": 19.7, "windspeed": 9.3, "winddir": 211.0, "pressure": 1018.2, "cloudcover": 11.4, "visibility": 9.9, "solarradiation": 452.6, "solarenergy": 26.1, "uvindex": 9.0, "sunrise": "06:16:11", "sunriseEpoch": 1525518971, "sunset": "20:07:28", "sunsetEpoch": 1525568848, "moonphase": 0.64, "conditions": "Clear", "description": "Clear conditions throughout the day.", "icon": "clear-day", "stations": ["KHFJ", "MVVM7", "MVEM7", "KSGF", "72440013995", "KFWB", "72047900149", "A5125600451"], "source": "obs"}], "stations": {"KHFJ": {"distance": 28010.0, "latitude": 36.9, "longitude": -94.02, "useCount": 0, "id": "KHFJ", "name": "KHFJ", "quality": 100, "contribution": 0.0}, "MVVM7": {"distance": 30690.0, "latitude": 37.189, "longitude": -93.93, "useCount": 0, "id": "MVVM7", "name": "MT VERNON MO US", "quality": 0, "contribution": 0.0}, "MVEM7": {"distance": 18148.0, "latitude": 37.067, "longitude": -93.883, "useCount": 0, "id": "MVEM7", "name": "MT VERNON MO US SCAN", "quality": 0, "contribution": 0.0}, "KSGF": {"distance": 40854.0, "latitude": 37.22, "longitude": -93.38, "useCount": 0, "id": "KSGF", "name": "KSGF", "quality": 100, "contribution": 0.0}, "72440013995": {"distance": 41747.0, "latitude": 37.24, "longitude": -93.39, "useCount": 0, "id": "72440013995", "name": "SPRINGFIELD WEATHER SERVICE OFFICE AIRPORT, MO US", "quality": 100, "contribution": 0.0}, "KFWB": {"distance": 41386.0, "latitude": 36.7, "longitude": -93.4, "useCount": 0, "id": "KFWB", "name": "KFWB", "quality": 97, "contribution": 0.0}, "72047900149": {"distance": 27754.0, "latitude": 36.9, "longitude": -94.017, "useCount": 0, "id": "72047900149", "name": "MONETT MUNICIPAL AIRPORT, MO US", "quality": 100, "contribution": 0.0}, "A5125600451": {"distance": 41375.0, "latitude": 36.699, "longitude": -93.402, "useCount": 0, "id": "A5125600451", "name": "BRANSON WEST MUNICIPAL EMERSON FIELD AIRPORT, MO US", "quality": 100, "contribution": 0.0}}}