{"queryCost": 1, "latitude": 43.18, "longitude": -112.356, "resolvedAddress": "43.18000,-112.35600", "address": "43.18000,-112.35600", "timezone": "America/Boise", "tzoffset": -6.0, "days": [{"datetime": "2018-05-11", "datetimeEpoch": 1526018400, "tempmax": 50.3, "tempmin": 42.7, "temp": 46.8, "feelslikemax": 50.3, "feelslikemin": 37.7, "feelslike": 41.9, "dew": 39.4, "humidity": 75.75, "precip": 0.09, "precipprob": null, "precipcover": 25.0, "preciptype": null, "snow": 0.0, "snowdepth": 0.0, "windgust": 23.0, "windspeed": 19.6, "winddir": 221.8, "pressure": 1009.3, "cloudcover": 83.0, "visibility": 9.9, "solarradiation": 131.0, "solarenergy": 9.4, "uvindex": 4.0, "sunrise": "06:09:59", "sunriseEpoch": 1526040599, "sunset": "20:42:17", "sunsetEpoch": 1526092937, "moonphase": 0.91, "conditions": "Rain, Partially cloudy", "description": "Partly cloudy throughout the day with late afternoon rain.", "icon": "rain", "stations": ["BLK", "KPIH", "KIDA", "72578524145", "72578024156"], "source": "obs"}], "stations": {"BLK": {"distance": 2168.0, "latitude": 43.19, "longitude": -112.333, "useCount": 0, "id": "BLK", "name": "Blackfoot (MVMS)", "quality": 0, "contribution": 0.0}, "KIDA": {"distance": 44368.0, "latitude": 43.52, "longitude": -112.07, "useCount": 0, "id": "KIDA", "name": "IDAHO FALLS/FANG, ID", "quality": 100, "contribution": 0.0}, "72578524145": {"distance": 44529.0, "latitude": 43.519, "longitude": -112.064, "useCount": 0, "id": "72578524145", "name": "IDAHO FALLS FANNING FIELD, ID US", "quality": 100, "contribution": 0.0}, "KPIH": {"distance": 35095.0, "latitude": 42.92, "longitude": -112.6, "useCount": 0, "id": "KPIH", "name": "KPIH", "quality": 100, "contribution": 0.0}, "72578024156": {"distance": 33798.0, "latitude": 42.92, "longitude": -112.571, "useCount": 0, "id": "72578024156", "name": "POCATELLO REGIONAL AIRPORT, ID US", "quality": 100, "contribution": 0.0}}}