{"queryCost": 1, "latitude": 35.069, "longitude": -106.638, "resolvedAddress": "35.06900,-106.63800", "address": "35.06900,-106.63800", "timezone": "America/Denver", "tzoffset": -6.0, "days": [{"datetime": "2018-06-07", "datetimeEpoch": 1528351200, "tempmax": 92.9, "tempmin": 68.0, "temp": 81.8, "feelslikemax": 88.4, "feelslikemin": 68.0, "feelslike": 79.8, "dew": 31.3, "humidity": 17.59, "precip": 0.0, "precipprob": null, "precipcover": 0.0, "preciptype": null, "snow": 0.0, "snowdepth": 0.0, "windgust": 25.2, "windspeed": 20.7, "winddir": 233.9, "pressure": 1008.6, "cloudcover": 59.6, "visibility": 9.9, "solarradiation": 522.7, "solarenergy": 30.1, "uvindex": 10.0, "sunrise": "05:52:17", "sunriseEpoch": 1528372337, "sunset": "20:18:51", "sunsetEpoch": 1528424331, "moonphase": 0.79, "conditions": "Partially cloudy", "description": "Partly cloudy throughout the day.", "icon": "partly-cloudy-day", "stations": ["72365623049", "K0E0", "72072499999", "KABQ", "72365023050", "C3873", "KSAF"], "source": "obs"}], "stations": {"72365623049": {"distance": 78773.0, "latitude": 35.617, "longitude": -106.089, "useCount": 0, "id": "72365623049", "name": "SANTA FE CO MUNICIPAL AIRPORT, NM US", "quality": 100, "contribution": 0.0}, "K0E0": {"distance": 59199.0, "latitude": 34.97, "longitude": -106.0, "useCount": 0, "id": "K0E0", "name": "K0E0", "quality": 100, "contribution": 0.0}, "72072499999": {"distance": 50453.0, "latitude": 34.646, "longitude": -106.836, "useCount": 0, "id": "72072499999", "name": "BELEN REGIONAL AIRPORT, NM US", "quality": 92, "contribution": 0.0}, "KABQ": {"distance": 3621.0, "latitude": 35.04, "longitude": -106.62, "useCount": 0, "id": "KABQ", "name": "KABQ", "quality": 100, "contribution": 0.0}, "72365023050": {"distance": 3622.0, "latitude": 35.042, "longitude": -106.616, "useCount": 0, "id": "72365023050", "name": "ALBUQUERQUE INTERNATIONAL AIRPORT, NM US", "quality": 100, "contribution": 0.0}, "C3873": {"distance": 10173.0, "latitude": 35.111, "longitude": -106.737, "useCount": 0, "id": "C3873", "name": "CW3873 Albuquerque NM US", "quality": 0, "contribution": 0.0}, "KSAF": {"distance": 78704.0, "latitude": 35.61, "longitude": -106.08, "useCount": 0, "id": "KSAF", "name": "KSAF", "quality": 100, "contribution": 0.0}}}