{"queryCost": 1, "latitude": 40.665, "longitude": -73.563, "resolvedAddress": "40.66500,-73.56300", "address": "40.66500,-73.56300", "timezone": "America/New_York", "tzoffset": -4.0, "days": [{"datetime": "2018-06-06", "datetimeEpoch": 1528257600, "tempmax": 68.6, "tempmin": 55.8, "temp": 61.1, "feelslikemax": 68.6, "feelslikemin": 55.8, "feelslike": 61.1, "dew": 50.9, "humidity": 70.1, "precip": 0.0, "precipprob": 0.0, "precipcover": 0.0, "preciptype": null, "snow": 0.0, "snowdepth": 0.0, "windgust": 16.1, "windspeed": 11.1, "winddir": 95.5, "pressure": 1011.0, "cloudcover": 70.0, "visibility": 9.9, "solarradiation": 220.6, "solarenergy": 18.8, "uvindex": 8.0, "sunrise": "05:23:46", "sunriseEpoch": 1528277026, "sunset": "20:22:27", "sunsetEpoch": 1528330947, "moonphase": 0.74, "conditions": "Partially cloudy", "description": "Partly cloudy throughout the day.", "icon": "partly-cloudy-day", "stations": ["E0925", "KFRG", "KJFK", "74486094789", "KLGA", "74486454787", "72503014732"], "source": "obs"}], "stations": {"E0925": {"distance": 4571.0, "latitude": 40.661, "longitude": -73.509, "useCount": 0, "id": "E0925", "name": "EW0925 Wantagh NY US", "quality": 0, "contribution": 0.0}, "KFRG": {"distance": 13534.0, "latitude": 40.72, "longitude": -73.42, "useCount": 0, "id": "KFRG", "name": "KFRG", "quality": 100, "contribution": 0.0}, "KJFK": {"distance": 18401.0, "latitude": 40.65, "longitude": -73.78, "useCount": 0, "id": "KJFK", "name": "KJFK", "quality": 100, "contribution": 0.0}, "74486094789": {"distance": 17219.0, "latitude": 40.639, "longitude": -73.764, "useCount": 0, "id": "74486094789", "name": "JFK INTERNATIONAL AIRPORT, NY US", "quality": 100, "contribution": 0.0}, "KLGA": {"distance": 30742.0, "latitude": 40.77, "longitude": -73.9, "useCount": 0, "id": "KLGA", "name": "KLGA", "quality": 100, "contribution": 0.0}, "74486454787": {"distance": 14539.0, "latitude": 40.734, "longitude": -73.417, "useCount": 0, "id": "74486454787", "name": "FARMINGDALE REPUBLIC AIRPORT, NY US", "quality": 100, "contribution": 0.0}, "72503014732": {"distance": 29644.0, "latitude": 40.779, "longitude": -73.88, "useCount": 0, "id": "72503014732", "name": "LAGUARDIA AIRPORT, NY US", "quality": 100, "contribution": 0.0}}}