{"queryCost": 1, "latitude": 33.036, "longitude": -85.032, "resolvedAddress": "33.03600,-85.03200", "address": "33.03600,-85.03200", "timezone": "America/New_York", "tzoffset": -4.0, "days": [{"datetime": "2018-06-06", "datetimeEpoch": 1528257600, "tempmax": 89.5, "tempmin": 60.6, "temp": 74.5, "feelslikemax": 88.0, "feelslikemin": 60.6, "feelslike": 74.3, "dew": 61.7, "humidity": 71.3, "precip": 0.0, "precipprob": 0.0, "precipcover": 0.0, "preciptype": null, "snow": 0.0, "snowdepth": 0.0, "windgust": null, "windspeed": 8.1, "winddir": 93.1, "pressure": 1011.4, "cloudcover": 0.0, "visibility": 9.5, "solarradiation": 345.5, "solarenergy": 29.9, "uvindex": 10.0, "sunrise": "06:31:20", "sunriseEpoch": 1528281080, "sunset": "20:46:34", "sunsetEpoch": 1528332394, "moonphase": 0.74, "conditions": "Clear", "description": "Clear conditions throughout the day.", "icon": "clear-day", "stations": ["NNAG1", "72219753819", "72225593842", "74780703821", "KFFC", "KLGC", "KCSG"], "source": "obs"}], "stations": {"NNAG1": {"distance": 40017.0, "latitude": 33.365, "longitude": -84.86, "useCount": 0, "id": "NNAG1", "name": "NEWNAN GA US", "quality": 0, "contribution": 0.0}, "72219753819": {"distance": 56040.0, "latitude": 33.355, "longitude": -84.567, "useCount": 0, "id": "72219753819", "name": "PEACHTREE CITY FALCON FIELD, GA US", "quality": 100, "contribution": 0.0}, "72225593842": {"distance": 58482.0, "latitude": 32.516, "longitude": -84.942, "useCount": 0, "id": "72225593842", "name": "COLUMBUS METROPOLITAN AIRPORT, GA US", "quality": 100, "contribution": 0.0}, "74780703821": {"distance": 3886.0, "latitude": 33.017, "longitude": -85.067, "useCount": 0, "id": "74780703821", "name": "LA GRANGE CAA AIRPORT, GA US", "quality": 50, "contribution": 0.0}, "KFFC": {"distance": 56151.0, "latitude": 33.36, "longitude": -84.57, "useCount": 0, "id": "KFFC", "name": "KFFC", "quality": 100, "contribution": 0.0}, "KLGC": {"distance": 4578.0, "latitude": 33.01, "longitude": -85.07, "useCount": 0, "id": "KLGC", "name": "KLGC", "quality": 48, "contribution": 0.0}, "KCSG": {"distance": 58229.0, "latitude": 32.52, "longitude": -84.93, "useCount": 0, "id": "KCSG", "name": "KCSG", "quality": 100, "contribution": 0.0}}}