{"queryCost": 1, "latitude": 39.863, "longitude": -105.084, "resolvedAddress": "39.86300,-105.08400", "address": "39.86300,-105.08400", "timezone": "America/Denver", "tzoffset": -6.0, "days": [{"datetime": "2018-06-10", "datetimeEpoch": 1528610400, "tempmax": 95.8, "tempmin": 59.0, "temp": 79.4, "feelslikemax": 90.8, "feelslikemin": 59.0, "feelslike": 77.4, "dew": 27.2, "humidity": 18.9, "precip": 0.0, "precipprob": 0.0, "precipcover": 0.0, "preciptype": null, "snow": 0.0, "snowdepth": 0.0, "windgust": 23.0, "windspeed": 13.5, "winddir": 245.5, "pressure": 999.8, "cloudcover": 34.2, "visibility": 9.8, "solarradiation": 331.5, "solarenergy": 28.5, "uvindex": 10.0, "sunrise": "05:31:38", "sunriseEpoch": 1528630298, "sunset": "20:28:15", "sunsetEpoch": 1528684095, "moonphase": 0.93, "conditions": "Partially cloudy", "description": "Partly cloudy throughout the day.", "icon": "partly-cloudy-day", "stations": ["KLMO", "KBKF", "KDEN", "72469523036", "D7772", "72565003017", "72053800164"], "source": "obs"}], "stations": {"KLMO": {"distance": 32599.0, "latitude": 40.15, "longitude": -105.16, "useCount": 0, "id": "KLMO", "name": "KLMO", "quality": 96, "contribution": 0.0}, "KBKF": {"distance": 32704.0, "latitude": 39.72, "longitude": -104.75, "useCount": 0, "id": "KBKF", "name": "KBKF", "quality": 100, "contribution": 0.0}, "KDEN": {"distance": 35377.0, "latitude": 39.86, "longitude": -104.67, "useCount": 0, "id": "KDEN", "name": "KDEN", "quality": 100, "contribution": 0.0}, "72469523036": {"distance": 32885.0, "latitude": 39.717, "longitude": -104.75, "useCount": 0, "id": "72469523036", "name": "AURORA BUCKLEY FIELD ANGB, CO US", "quality": 100, "contribution": 0.0}, "D7772": {"distance": 9540.0, "latitude": 39.927, "longitude": -105.158, "useCount": 0, "id": "D7772", "name": "DW7772 Superior CO US", "quality": 0, "contribution": 0.0}, "72565003017": {"distance": 36563.0, "latitude": 39.833, "longitude": -104.658, "useCount": 0, "id": "72565003017", "name": "DENVER INTERNATIONAL AIRPORT, CO US", "quality": 100, "contribution": 0.0}, "72053800164": {"distance": 34573.0, "latitude": 40.167, "longitude": -105.167, "useCount": 0, "id": "72053800164", "name": "VANCE BRAND AIRPORT, CO US", "quality": 96, "contribution": 0.0}}}