{"queryCost": 1, "latitude": 39.838, "longitude": -75.097, "resolvedAddress": "39.83800,-75.09700", "address": "39.83800,-75.09700", "timezone": "America/New_York", "tzoffset": -4.0, "days": [{"datetime": "2018-06-09", "datetimeEpoch": 1528516800, "tempmax": 83.8, "tempmin": 66.9, "temp": 73.9, "feelslikemax": 84.8, "feelslikemin": 66.9, "feelslike": 74.1, "dew": 64.8, "humidity": 75.0, "precip": 0.01, "precipprob": 100.0, "precipcover": 4.17, "preciptype": ["rain"], "snow": 0.0, "snowdepth": 0.0, "windgust": null, "windspeed": 7.9, "winddir": 141.1, "pressure": 1018.8, "cloudcover": 68.5, "visibility": 9.3, "solarradiation": 107.4, "solarenergy": 9.3, "uvindex": 7.0, "sunrise": "05:31:55", "sunriseEpoch": 1528536715, "sunset": "20:27:39", "sunsetEpoch": 1528590459, "moonphase": 0.89, "conditions": "Rain, Partially cloudy", "description": "Partly cloudy throughout the day with afternoon rain.", "icon": "rain", "stations": ["KVAY", "C2037", "72408013739", "72408594732", "72407493780", "KPHL", "KPNE"], "source": "obs"}], "stations": {"KVAY": {"distance": 24714.0, "latitude": 39.94, "longitude": -74.84, "useCount": 0, "id": "KVAY", "name": "KVAY", "quality": 99, "contribution": 0.0}, "C2037": {"distance": 8597.0, "latitude": 39.884, "longitude": -75.016, "useCount": 0, "id": "C2037", "name": "CW2037 Cherry Hill NJ US", "quality": 0, "contribution": 0.0}, "72408013739": {"distance": 11768.0, "latitude": 39.873, "longitude": -75.227, "useCount": 0, "id": "72408013739", "name": "PHILADELPHIA INTERNATIONAL AIRPORT, PA US", "quality": 100, "contribution": 0.0}, "72408594732": {"distance": 27749.0, "latitude": 40.079, "longitude": -75.013, "useCount": 0, "id": "72408594732", "name": "NORTHEAST PHILADELPHIA AIRPORT, PA US", "quality": 100, "contribution": 0.0}, "72407493780": {"distance": 24695.0, "latitude": 39.941, "longitude": -74.841, "useCount": 0, "id": "72407493780", "name": "SOUTH JERSEY REGIONAL AIRPORT, NJ US", "quality": 98, "contribution": 0.0}, "KPHL": {"distance": 13885.0, "latitude": 39.88, "longitude": -75.25, "useCount": 0, "id": "KPHL", "name": "KPHL", "quality": 100, "contribution": 0.0}, "KPNE": {"distance": 27943.0, "latitude": 40.08, "longitude": -75.01, "useCount": 0, "id": "KPNE", "name": "KPNE", "quality": 100, "contribution": 0.0}}}