{"queryCost": 1, "latitude": 32.456, "longitude": -90.058, "resolvedAddress": "32.45600,-90.05800", "address": "32.45600,-90.05800", "timezone": "America/Chicago", "tzoffset": -5.0, "days": [{"datetime": "2018-06-08", "datetimeEpoch": 1528434000, "tempmax": 93.0, "tempmin": 67.8, "temp": 81.1, "feelslikemax": 94.7, "feelslikemin": 67.8, "feelslike": 82.3, "dew": 67.2, "humidity": 67.07, "precip": 0.0, "precipprob": null, "precipcover": 0.0, "preciptype": null, "snow": 0.0, "snowdepth": 0.0, "windgust": null, "windspeed": 4.9, "winddir": 87.2, "pressure": 1017.7, "cloudcover": 18.6, "visibility": 9.5, "solarradiation": 447.4, "solarenergy": 24.2, "uvindex": 10.0, "sunrise": "05:52:40", "sunriseEpoch": 1528455160, "sunset": "20:06:10", "sunsetEpoch": 1528506370, "moonphase": 0.84, "conditions": "Clear", "description": "Clear conditions throughout the day.", "icon": "clear-day", "stations": ["72078700278", "D5633", "KJVW", "72235413927", "KHKS", "72235003940", "KJAN"], "source": "obs"}], "stations": {"72078700278": {"distance": 37251.0, "latitude": 32.304, "longitude": -90.411, "useCount": 0, "id": "72078700278", "name": "JOHN BELL WILLIAMS AIRPORT, MS US", "quality": 50, "contribution": 0.0}, "D5633": {"distance": 28234.0, "latitude": 32.218, "longitude": -90.163, "useCount": 0, "id": "D5633", "name": "DW5633 Richland MS US", "quality": 0, "contribution": 0.0}, "KJVW": {"distance": 37904.0, "latitude": 32.29, "longitude": -90.41, "useCount": 0, "id": "KJVW", "name": "KJVW", "quality": 45, "contribution": 0.0}, "72235413927": {"distance": 20304.0, "latitude": 32.337, "longitude": -90.221, "useCount": 0, "id": "72235413927", "name": "JACKSON HAWKINS FIELD, MS US", "quality": 100, "contribution": 0.0}, "KHKS": {"distance": 20703.0, "latitude": 32.33, "longitude": -90.22, "useCount": 0, "id": "KHKS", "name": "KHKS", "quality": 100, "contribution": 0.0}, "72235003940": {"distance": 15197.0, "latitude": 32.321, "longitude": -90.078, "useCount": 0, "id": "72235003940", "name": "JACKSON INTERNATIONAL AIRPORT, MS US", "quality": 100, "contribution": 0.0}, "KJAN": {"distance": 15280.0, "latitude": 32.32, "longitude": -90.08, "useCount": 0, "id": "KJAN", "name": "KJAN", "quality": 100, "contribution": 0.0}}}