{"queryCost": 1, "latitude": 33.488, "longitude": -112.074, "resolvedAddress": "33.48800,-112.07400", "address": "33.48800,-112.07400", "timezone": "America/Phoenix", "tzoffset": -7.0, "days": [{"datetime": "2018-06-12", "datetimeEpoch": 1528786800, "tempmax": 106.2, "tempmin": 78.7, "temp": 94.5, "feelslikemax": 98.9, "feelslikemin": 78.7, "feelslike": 89.9, "dew": 25.5, "humidity": 10.07, "precip": 0.0, "precipprob": null, "precipcover": 0.0, "preciptype": null, "snow": 0.0, "snowdepth": 0.0, "windgust": null, "windspeed": 10.8, "winddir": 181.5, "pressure": 1005.1, "cloudcover": 33.9, "visibility": 9.9, "solarradiation": 538.1, "solarenergy": 29.1, "uvindex": 10.0, "sunrise": "05:17:54", "sunriseEpoch": 1528805874, "sunset": "19:38:39", "sunsetEpoch": 1528857519, "moonphase": 0.99, "conditions": "Partially cloudy", "description": "Partly cloudy throughout the day.", "icon": "partly-cloudy-day", "stations": ["72278903192", "72278403184", "KSDL", "KDVT", "A1351", "72278023183", "KPHX"], "source": "obs"}], "stations": {"72278903192": {"distance": 21303.0, "latitude": 33.623, "longitude": -111.911, "useCount": 0, "id": "72278903192", "name": "SCOTTSDALE MUNICIPAL AIRPORT, AZ US", "quality": 100, "contribution": 0.0}, "72278403184": {"distance": 22310.0, "latitude": 33.688, "longitude": -112.082, "useCount": 0, "id": "72278403184", "name": "PHOENIX DEER VALLEY MUNICIPAL AIRPORT, AZ US", "quality": 100, "contribution": 0.0}, "KSDL": {"distance": 19712.0, "latitude": 33.61, "longitude": -111.92, "useCount": 0, "id": "KSDL", "name": "KSDL", "quality": 100, "contribution": 0.0}, "KDVT": {"distance": 21377.0, "latitude": 33.68, "longitude": -112.07, "useCount": 0, "id": "KDVT", "name": "KDVT", "quality": 100, "contribution": 0.0}, "A1351": {"distance": 2611.0, "latitude": 33.504, "longitude": -112.095, "useCount": 0, "id": "A1351", "name": "Phoenix JLG Supersite AZ AZDEQ", "quality": 0, "contribution": 0.0}, "72278023183": {"distance": 9345.0, "latitude": 33.428, "longitude": -112.004, "useCount": 0, "id": "72278023183", "name": "PHOENIX AIRPORT, AZ US", "quality": 100, "contribution": 0.0}, "KPHX": {"distance": 8175.0, "latitude": 33.43, "longitude": -112.02, "useCount": 0, "id": "KPHX", "name": "KPHX", "quality": 100, "contribution": 0.0}}}