{"queryCost": 1, "latitude": 38.877, "longitude": -77.006, "resolvedAddress": "38.87700,-77.00600", "address": "38.87700,-77.00600", "timezone": "America/New_York", "tzoffset": -4.0, "days": [{"datetime": "2018-06-12", "datetimeEpoch": 1528776000, "tempmax": 77.8, "tempmin": 57.4, "temp": 67.6, "feelslikemax": 77.8, "feelslikemin": 57.4, "feelslike": 67.6, "dew": 57.0, "humidity": 70.1, "precip": 0.0, "precipprob": 0.0, "precipcover": 0.0, "preciptype": null, "snow": 0.0, "snowdepth": 0.0, "windgust": null, "windspeed": 11.7, "winddir": 131.7, "pressure": 1021.9, "cloudcover": 68.5, "visibility": 9.9, "solarradiation": 355.5, "solarenergy": 30.6, "uvindex": 10.0, "sunrise": "05:42:16", "sunriseEpoch": 1528796536, "sunset": "20:33:44", "sunsetEpoch": 1528850024, "moonphase": 0.99, "conditions": "Partially cloudy", "description": "Partly cloudy throughout the day.", "icon": "partly-cloudy-day", "stations": ["C8838", "KDCA", "72405013743", "72403793728", "KADW", "KDAA", "A3123", "74594013705"], "source": "obs"}], "stations": {"C8838": {"distance": 8202.0, "latitude": 38.85, "longitude": -77.094, "useCount": 0, "id": "C8838", "name": "CW8838 Douglas Park VA US", "quality": 0, "contribution": 0.0}, "KDCA": {"distance": 3655.0, "latitude": 38.85, "longitude": -77.03, "useCount": 0, "id": "KDCA", "name": "KDCA", "quality": 100, "contribution": 0.0}, "72405013743": {"distance": 4136.0, "latitude": 38.847, "longitude": -77.034, "useCount": 0, "id": "72405013743", "name": "WASHINGTON REAGAN NATIONAL AIRPORT, VA US", "quality": 100, "contribution": 0.0}, "72403793728": {"distance": 23559.0, "latitude": 38.717, "longitude": -77.183, "useCount": 0, "id": "72403793728", "name": "DAVISON ARMY AIR FIELD, VA US", "quality": 100, "contribution": 0.0}, "KADW": {"distance": 13390.0, "latitude": 38.82, "longitude": -76.87, "useCount": 0, "id": "KADW", "name": "KADW", "quality": 100, "contribution": 0.0}, "KDAA": {"distance": 23094.0, "latitude": 38.72, "longitude": -77.18, "useCount": 0, "id": "KDAA", "name": "KDAA", "quality": 100, "contribution": 0.0}, "A3123": {"distance": 5026.0, "latitude": 38.922, "longitude": -77.013, "useCount": 0, "id": "A3123", "name": "McMillan NCORE DC DCDEPENV", "quality": 0, "contribution": 0.0}, "74594013705": {"distance": 13817.0, "latitude": 38.817, "longitude": -76.867, "useCount": 0, "id": "74594013705", "name": "CAMP SPRINGS ANDREWS AFB, MD US", "quality": 100, "contribution": 0.0}}}