{"queryCost": 1, "latitude": 39.822, "longitude": -105.003, "resolvedAddress": "39.82200,-105.00300", "address": "39.82200,-105.00300", "timezone": "America/Denver", "tzoffset": -6.0, "days": [{"datetime": "2018-06-14", "datetimeEpoch": 1528956000, "tempmax": 93.9, "tempmin": 67.0, "temp": 79.9, "feelslikemax": 89.3, "feelslikemin": 67.0, "feelslike": 78.1, "dew": 35.4, "humidity": 21.7, "precip": 0.0, "precipprob": 0.0, "precipcover": 0.0, "preciptype": null, "snow": 0.0, "snowdepth": 0.0, "windgust": 37.9, "windspeed": 23.6, "winddir": 215.8, "pressure": 1004.1, "cloudcover": 64.8, "visibility": 9.9, "solarradiation": 200.1, "solarenergy": 17.3, "uvindex": 8.0, "sunrise": "05:31:13", "sunriseEpoch": 1528975873, "sunset": "20:29:36", "sunsetEpoch": 1529029776, "moonphase": 0.0, "conditions": "Partially cloudy", "description": "Partly cloudy throughout the day.", "icon": "partly-cloudy-day", "stations": ["KBKF", "KDEN", "72469523036", "KAPA", "D9882", "72565003017", "72466693067"], "source": "obs"}], "stations": {"KBKF": {"distance": 24444.0, "latitude": 39.72, "longitude": -104.75, "useCount": 0, "id": "KBKF", "name": "KBKF", "quality": 100, "contribution": 0.0}, "KDEN": {"distance": 28775.0, "latitude": 39.86, "longitude": -104.67, "useCount": 0, "id": "KDEN", "name": "KDEN", "quality": 100, "contribution": 0.0}, "72469523036": {"distance": 24617.0, "latitude": 39.717, "longitude": -104.75, "useCount": 0, "id": "72469523036", "name": "AURORA BUCKLEY FIELD ANGB, CO US", "quality": 100, "contribution": 0.0}, "KAPA": {"distance": 30963.0, "latitude": 39.57, "longitude": -104.85, "useCount": 0, "id": "KAPA", "name": "KAPA", "quality": 100, "contribution": 0.0}, "D9882": {"distance": 11382.0, "latitude": 39.768, "longitude": -105.116, "useCount": 0, "id": "D9882", "name": "DW9882 Wheat Ridge CO US", "quality": 0, "contribution": 0.0}, "72565003017": {"distance": 29519.0, "latitude": 39.833, "longitude": -104.658, "useCount": 0, "id": "72565003017", "name": "DENVER INTERNATIONAL AIRPORT, CO US", "quality": 100, "contribution": 0.0}, "72466693067": {"distance": 30969.0, "latitude": 39.57, "longitude": -104.849, "useCount": 0, "id": "72466693067", "name": "DENVER CENTENNIAL AIRPORT, CO US", "quality": 100, "contribution": 0.0}}}