{"queryCost": 1, "latitude": 34.262, "longitude": -83.856, "resolvedAddress": "34.26200,-83.85600", "address": "34.26200,-83.85600", "timezone": "America/New_York", "tzoffset": -4.0, "days": [{"datetime": "2018-06-14", "datetimeEpoch": 1528948800, "tempmax": 83.9, "tempmin": 70.1, "temp": 76.3, "feelslikemax": 89.0, "feelslikemin": 70.1, "feelslike": 77.5, "dew": 71.1, "humidity": 84.7, "precip": 0.0, "precipprob": 0.0, "precipcover": 0.0, "preciptype": null, "snow": 0.0, "snowdepth": 0.0, "windgust": null, "windspeed": 10.3, "winddir": 275.8, "pressure": 1016.3, "cloudcover": 7.2, "visibility": 9.9, "solarradiation": 243.1, "solarenergy": 21.0, "uvindex": 9.0, "sunrise": "06:23:01", "sunriseEpoch": 1528971781, "sunset": "20:48:34", "sunsetEpoch": 1529023714, "moonphase": 0.0, "conditions": "Clear", "description": "Clear conditions throughout the day.", "icon": "clear-day", "stations": ["KGVL", "72089799999", "DSVG1", "74780863803", "72218553838", "74948300394", "KLZU"], "source": "obs"}], "stations": {"KGVL": {"distance": 2552.0, "latitude": 34.27, "longitude": -83.83, "useCount": 0, "id": "KGVL", "name": "KGVL", "quality": 100, "contribution": 0.0}, "72089799999": {"distance": 55469.0, "latitude": 33.782, "longitude": -83.693, "useCount": 0, "id": "72089799999", "name": "MONROE WALTON CO, GA US", "quality": 100, "contribution": 0.0}, "DSVG1": {"distance": 22671.0, "latitude": 34.376, "longitude": -84.06, "useCount": 0, "id": "DSVG1", "name": "DAWSONVILLE GA US", "quality": 0, "contribution": 0.0}, "74780863803": {"distance": 32945.0, "latitude": 33.98, "longitude": -83.963, "useCount": 0, "id": "74780863803", "name": "LAWRENCEVILLE GWINNET CO BRISCOE FIELD AIRPORT, GA US", "quality": 96, "contribution": 0.0}, "72218553838": {"distance": 2609.0, "latitude": 34.272, "longitude": -83.83, "useCount": 0, "id": "72218553838", "name": "GAINESVILLE LEE GILMER MEMORIAL AIRPORT, GA US", "quality": 100, "contribution": 0.0}, "74948300394": {"distance": 30025.0, "latitude": 34.147, "longitude": -83.561, "useCount": 0, "id": "74948300394", "name": "JACKSON CO AIRPORT, GA US", "quality": 100, "contribution": 0.0}, "KLZU": {"distance": 32823.0, "latitude": 33.98, "longitude": -83.96, "useCount": 0, "id": "KLZU", "name": "LAWRENCEVILLE, GA", "quality": 98, "contribution": 0.0}}}