{"queryCost": 1, "latitude": 39.163, "longitude": -94.531, "resolvedAddress": "39.16300,-94.53100", "address": "39.16300,-94.53100", "timezone": "America/Chicago", "tzoffset": -5.0, "days": [{"datetime": "2018-06-14", "datetimeEpoch": 1528952400, "tempmax": 95.9, "tempmin": 73.7, "temp": 85.2, "feelslikemax": 103.3, "feelslikemin": 73.7, "feelslike": 88.2, "dew": 65.9, "humidity": 53.5, "precip": 0.0, "precipprob": 0.0, "precipcover": 0.0, "preciptype": null, "snow": 0.0, "snowdepth": 0.0, "windgust": 29.5, "windspeed": 16.8, "winddir": 153.2, "pressure": 1012.0, "cloudcover": 13.7, "visibility": 9.9, "solarradiation": 340.0, "solarenergy": 29.3, "uvindex": 10.0, "sunrise": "05:51:26", "sunriseEpoch": 1528973486, "sunset": "20:45:36", "sunsetEpoch": 1529027136, "moonphase": 0.0, "conditions": "Clear", "description": "Clear conditions throughout the day.", "icon": "clear-day", "stations": ["A1182", "72030653879", "72446003947", "KMKC", "KMCI", "KLXT", "72446313988"], "source": "obs"}], "stations": {"A1182": {"distance": 14578.0, "latitude": 39.048, "longitude": -94.45, "useCount": 0, "id": "A1182", "name": "Blue Ridge I-70 MO MODNR", "quality": 0, "contribution": 0.0}, "72030653879": {"distance": 26504.0, "latitude": 38.96, "longitude": -94.371, "useCount": 0, "id": "72030653879", "name": "LEES SUMMIT MUNICIPAL AIRPORT, MO US", "quality": 100, "contribution": 0.0}, "72446003947": {"distance": 22791.0, "latitude": 39.297, "longitude": -94.731, "useCount": 0, "id": "72446003947", "name": "KANSAS CITY INTERNATIONAL AIRPORT, MO US", "quality": 100, "contribution": 0.0}, "KMKC": {"distance": 8385.0, "latitude": 39.11, "longitude": -94.6, "useCount": 0, "id": "KMKC", "name": "KMKC", "quality": 100, "contribution": 0.0}, "KMCI": {"distance": 23895.0, "latitude": 39.32, "longitude": -94.72, "useCount": 0, "id": "KMCI", "name": "KMCI", "quality": 100, "contribution": 0.0}, "KLXT": {"distance": 26539.0, "latitude": 38.96, "longitude": -94.37, "useCount": 0, "id": "KLXT", "name": "KLXT", "quality": 100, "contribution": 0.0}, "72446313988": {"distance": 7378.0, "latitude": 39.121, "longitude": -94.597, "useCount": 0, "id": "72446313988", "name": "KANSAS CITY DOWNTOWN AIRPORT, MO US", "quality": 100, "contribution": 0.0}}}