{"queryCost": 1, "latitude": 47.731, "longitude": -122.176, "resolvedAddress": "47.73100,-122.17600", "address": "47.73100,-122.17600", "timezone": "America/Los_Angeles", "tzoffset": -7.0, "days": [{"datetime": "2018-06-14", "datetimeEpoch": 1528959600, "tempmax": 64.9, "tempmin": 53.2, "temp": 58.2, "feelslikemax": 64.9, "feelslikemin": 53.2, "feelslike": 58.2, "dew": 47.7, "humidity": 68.9, "precip": 0.05, "precipprob": 100.0, "precipcover": 16.67, "preciptype": ["rain"], "snow": 0.0, "snowdepth": 0.0, "windgust": null, "windspeed": 7.0, "winddir": 219.7, "pressure": 1018.1, "cloudcover": 84.0, "visibility": 9.6, "solarradiation": 138.9, "solarenergy": 12.1, "uvindex": 6.0, "sunrise": "05:09:56", "sunriseEpoch": 1528978196, "sunset": "21:08:21", "sunsetEpoch": 1529035701, "moonphase": 0.0, "conditions": "Rain, Partially cloudy", "description": "Partly cloudy throughout the day with early morning rain.", "icon": "rain", "stations": ["D3422", "KBFI", "KPAE", "72793524234", "72793494248", "72793724222", "KRNT"], "source": "obs"}], "stations": {"D3422": {"distance": 3112.0, "latitude": 47.706, "longitude": -122.194, "useCount": 0, "id": "D3422", "name": "DW3422 Kirkland WA US", "quality": 0, "contribution": 0.0}, "KBFI": {"distance": 24232.0, "latitude": 47.53, "longitude": -122.3, "useCount": 0, "id": "KBFI", "name": "KBFI", "quality": 100, "contribution": 0.0}, "KPAE": {"distance": 22429.0, "latitude": 47.92, "longitude": -122.28, "useCount": 0, "id": "KPAE", "name": "KPAE", "quality": 100, "contribution": 0.0}, "72793524234": {"distance": 24230.0, "latitude": 47.53, "longitude": -122.301, "useCount": 0, "id": "72793524234", "name": "SEATTLE BOEING FIELD, WA US", "quality": 100, "contribution": 0.0}, "72793494248": {"distance": 26614.0, "latitude": 47.493, "longitude": -122.214, "useCount": 0, "id": "72793494248", "name": "RENTON MUNICIPAL AIRPORT, WA US", "quality": 100, "contribution": 0.0}, "72793724222": {"distance": 21161.0, "latitude": 47.908, "longitude": -122.28, "useCount": 0, "id": "72793724222", "name": "EVERETT SNOHOMISH CO AIRPORT, WA US", "quality": 100, "contribution": 0.0}, "KRNT": {"distance": 25926.0, "latitude": 47.5, "longitude": -122.22, "useCount": 0, "id": "KRNT", "name": "KRNT", "quality": 100, "contribution": 0.0}}}