{"queryCost": 1, "latitude": 35.075, "longitude": -106.622, "resolvedAddress": "35.07500,-106.62200", "address": "35.07500,-106.62200", "timezone": "America/Denver", "tzoffset": -6.0, "days": [{"datetime": "2018-06-16", "datetimeEpoch": 1529128800, "tempmax": 78.1, "tempmin": 60.2, "temp": 66.5, "feelslikemax": 78.1, "feelslikemin": 60.2, "feelslike": 66.5, "dew": 57.9, "humidity": 75.79, "precip": 0.83, "precipprob": null, "precipcover": 70.83, "preciptype": null, "snow": 0.0, "snowdepth": 0.0, "windgust": 44.7, "windspeed": 20.7, "winddir": 192.2, "pressure": 1005.5, "cloudcover": 88.7, "visibility": 9.1, "solarradiation": 191.3, "solarenergy": 11.0, "uvindex": 6.0, "sunrise": "05:52:00", "sunriseEpoch": 1529149920, "sunset": "20:22:35", "sunsetEpoch": 1529202155, "moonphase": 0.05, "conditions": "Rain, Partially cloudy", "description": "Partly cloudy throughout the day with rain.", "icon": "rain", "stations": ["72365623049", "K0E0", "72072499999", "72365023050", "KABQ", "C3873", "KSAF", "C8328"], "source": "obs"}], "stations": {"72365623049": {"distance": 77338.0, "latitude": 35.617, "longitude": -106.089, "useCount": 0, "id": "72365623049", "name": "SANTA FE CO MUNICIPAL AIRPORT, NM US", "quality": 100, "contribution": 0.0}, "K0E0": {"distance": 57895.0, "latitude": 34.97, "longitude": -106.0, "useCount": 0, "id": "K0E0", "name": "K0E0", "quality": 100, "contribution": 0.0}, "72072499999": {"distance": 51612.0, "latitude": 34.646, "longitude": -106.836, "useCount": 0, "id": "72072499999", "name": "BELEN REGIONAL AIRPORT, NM US", "quality": 92, "contribution": 0.0}, "72365023050": {"distance": 3725.0, "latitude": 35.042, "longitude": -106.616, "useCount": 0, "id": "72365023050", "name": "ALBUQUERQUE INTERNATIONAL AIRPORT, NM US", "quality": 100, "contribution": 0.0}, "KABQ": {"distance": 3900.0, "latitude": 35.04, "longitude": -106.62, "useCount": 0, "id": "KABQ", "name": "KABQ", "quality": 100, "contribution": 0.0}, "C3873": {"distance": 11227.0, "latitude": 35.111, "longitude": -106.737, "useCount": 0, "id": "C3873", "name": "CW3873 Albuquerque NM US", "quality": 0, "contribution": 0.0}, "KSAF": {"distance": 77260.0, "latitude": 35.61, "longitude": -106.08, "useCount": 0, "id": "KSAF", "name": "KSAF", "quality": 100, "contribution": 0.0}, "C8328": {"distance": 10780.0, "latitude": 35.126, "longitude": -106.521, "useCount": 0, "id": "C8328", "name": "CW8328 Albuquerque NM US", "quality": 0, "contribution": 0.0}}}