{"queryCost": 1, "latitude": 30.171, "longitude": -85.702, "resolvedAddress": "30.17100,-85.70200", "address": "30.17100,-85.70200", "timezone": "America/Chicago", "tzoffset": -5.0, "days": [{"datetime": "2015-04-18", "datetimeEpoch": 1429333200, "tempmax": 76.5, "tempmin": 67.5, "temp": 73.1, "feelslikemax": 76.5, "feelslikemin": 67.5, "feelslike": 73.1, "dew": 70.6, "humidity": 91.9, "precip": 0.0, "precipprob": 0.0, "precipcover": 0.0, "preciptype": null, "snow": 0.0, "snowdepth": 0.0, "windgust": 11.4, "windspeed": 4.5, "winddir": 204.1, "pressure": 1014.1, "cloudcover": 52.7, "visibility": 7.3, "solarradiation": 121.0, "solarenergy": 10.6, "uvindex": 4.0, "sunrise": "06:12:44", "sunriseEpoch": 1429355564, "sunset": "19:12:03", "sunsetEpoch": 1429402323, "moonphase": 1.0, "conditions": "Partially cloudy", "description": "Partly cloudy throughout the day.", "icon": "partly-cloudy-day", "stations": ["72073573805", "99735299999", "KPAM", "KECP", "74775013846", "72096400338"], "source": "obs"}], "stations": {"72073573805": {"distance": 21471.0, "latitude": 30.349, "longitude": -85.788, "useCount": 0, "id": "72073573805", "name": "NORTHWEST FLORIDA BEACHES INTERNATIONAL AIRPORT, FL US", "quality": 100, "contribution": 0.0}, "99735299999": {"distance": 17974.0, "latitude": 30.22, "longitude": -85.88, "useCount": 0, "id": "99735299999", "name": "PANAMA CITY BEACH, FL US", "quality": 48, "contribution": 0.0}, "KPAM": {"distance": 16261.0, "latitude": 30.07, "longitude": -85.58, "useCount": 0, "id": "KPAM", "name": "KPAM", "quality": 100, "contribution": 0.0}, "KECP": {"distance": 23053.0, "latitude": 30.36, "longitude": -85.8, "useCount": 0, "id": "KECP", "name": "KECP", "quality": 100, "contribution": 0.0}, "74775013846": {"distance": 16292.0, "latitude": 30.067, "longitude": -85.583, "useCount": 0, "id": "74775013846", "name": "TYNDALL AFB, FL US", "quality": 99, "contribution": 0.0}, "72096400338": {"distance": 22381.0, "latitude": 30.033, "longitude": -85.533, "useCount": 0, "id": "72096400338", "name": "TYNDALL DRONE RUNWAY, FL US", "quality": 94, "contribution": 0.0}}}