{"queryCost": 1, "latitude": 41.761, "longitude": -87.572, "resolvedAddress": "41.76100,-87.57200", "address": "41.76100,-87.57200", "timezone": "America/Chicago", "tzoffset": -5.0, "days": [{"datetime": "2015-04-17", "datetimeEpoch": 1429246800, "tempmax": 77.4, "tempmin": 48.2, "temp": 63.7, "feelslikemax": 77.4, "feelslikemin": 48.2, "feelslike": 63.6, "dew": 45.8, "humidity": 56.2, "precip": 0.0, "precipprob": 0.0, "precipcover": 0.0, "preciptype": null, "snow": 0.0, "snowdepth": 0.0, "windgust": null, "windspeed": 9.2, "winddir": 215.3, "pressure": 1017.4, "cloudcover": 42.9, "visibility": 8.8, "solarradiation": 268.5, "solarenergy": 23.4, "uvindex": 9.0, "sunrise": "06:07:21", "sunriseEpoch": 1429268841, "sunset": "19:33:08", "sunsetEpoch": 1429317188, "moonphase": 0.99, "conditions": "Partially cloudy", "description": "Partly cloudy throughout the day.", "icon": "partly-cloudy-day", "stations": ["72534014819", "72212604879", "KORD", "KMDW", "72530094846", "KIGQ"], "source": "obs"}], "stations": {"72534014819": {"distance": 15219.0, "latitude": 41.786, "longitude": -87.752, "useCount": 0, "id": "72534014819", "name": "CHICAGO MIDWAY AIRPORT, IL US", "quality": 100, "contribution": 0.0}, "72212604879": {"distance": 24860.0, "latitude": 41.54, "longitude": -87.532, "useCount": 0, "id": "72212604879", "name": "CHICAGO LANSING MUNICIPAL AIRPORT, IL US", "quality": 100, "contribution": 0.0}, "KORD": {"distance": 36518.0, "latitude": 41.98, "longitude": -87.9, "useCount": 0, "id": "KORD", "name": "KORD", "quality": 100, "contribution": 0.0}, "KMDW": {"distance": 14929.0, "latitude": 41.78, "longitude": -87.75, "useCount": 0, "id": "KMDW", "name": "KMDW", "quality": 100, "contribution": 0.0}, "72530094846": {"distance": 37156.0, "latitude": 41.96, "longitude": -87.932, "useCount": 0, "id": "72530094846", "name": "CHICAGO OHARE INTERNATIONAL AIRPORT, IL US", "quality": 100, "contribution": 0.0}, "KIGQ": {"distance": 24848.0, "latitude": 41.54, "longitude": -87.53, "useCount": 0, "id": "KIGQ", "name": "KIGQ", "quality": 100, "contribution": 0.0}}}