{"queryCost": 1, "latitude": 32.722, "longitude": -117.169, "resolvedAddress": "32.72200,-117.16900", "address": "32.72200,-117.16900", "timezone": "America/Los_Angeles", "tzoffset": -7.0, "days": [{"datetime": "2018-06-23", "datetimeEpoch": 1529737200, "tempmax": 65.9, "tempmin": 63.0, "temp": 64.5, "feelslikemax": 65.9, "feelslikemin": 63.0, "feelslike": 64.5, "dew": 57.7, "humidity": 78.7, "precip": 0.0, "precipprob": 0.0, "precipcover": 0.0, "preciptype": null, "snow": 0.0, "snowdepth": 0.0, "windgust": 19.7, "windspeed": 14.8, "winddir": 200.6, "pressure": 1011.6, "cloudcover": 100.0, "visibility": 8.7, "solarradiation": 104.0, "solarenergy": 9.1, "uvindex": 4.0, "sunrise": "05:41:49", "sunriseEpoch": 1529757709, "sunset": "20:00:05", "sunsetEpoch": 1529809205, "moonphase": 0.4, "conditions": "Overcast", "description": "Cloudy skies throughout the day.", "icon": "cloudy", "stations": ["KNZY", "KSAN", "72290693112", "72290023188", "KMYF", "E8360", "72290303131"], "source": "obs"}], "stations": {"KNZY": {"distance": 5368.0, "latitude": 32.7, "longitude": -117.22, "useCount": 0, "id": "KNZY", "name": "KNZY", "quality": 100, "contribution": 0.0}, "KSAN": {"distance": 895.0, "latitude": 32.73, "longitude": -117.17, "useCount": 0, "id": "KSAN", "name": "SAN DIEGO/LINDBE, CA", "quality": 100, "contribution": 0.0}, "72290693112": {"distance": 3799.0, "latitude": 32.7, "longitude": -117.2, "useCount": 0, "id": "72290693112", "name": "NORTH ISLAND NAS, CA US", "quality": 100, "contribution": 0.0}, "72290023188": {"distance": 1840.0, "latitude": 32.734, "longitude": -117.183, "useCount": 0, "id": "72290023188", "name": "SAN DIEGO INTERNATIONAL AIRPORT, CA US", "quality": 100, "contribution": 0.0}, "KMYF": {"distance": 11504.0, "latitude": 32.82, "longitude": -117.13, "useCount": 0, "id": "KMYF", "name": "KMYF", "quality": 100, "contribution": 0.0}, "E8360": {"distance": 4387.0, "latitude": 32.761, "longitude": -117.159, "useCount": 0, "id": "E8360", "name": "EW8360 San Diego CA US", "quality": 0, "contribution": 0.0}, "72290303131": {"distance": 10813.0, "latitude": 32.816, "longitude": -117.139, "useCount": 0, "id": "72290303131", "name": "SAN DIEGO MONTGOMERY FIELD, CA US", "quality": 100, "contribution": 0.0}}}