{"queryCost": 1, "latitude": 39.602, "longitude": -104.904, "resolvedAddress": "39.60200,-104.90400", "address": "39.60200,-104.90400", "timezone": "America/Denver", "tzoffset": -6.0, "days": [{"datetime": "2018-06-23", "datetimeEpoch": 1529733600, "tempmax": 84.1, "tempmin": 53.1, "temp": 70.0, "feelslikemax": 81.3, "feelslikemin": 53.1, "feelslike": 69.4, "dew": 43.7, "humidity": 44.6, "precip": 0.0, "precipprob": 0.0, "precipcover": 0.0, "preciptype": null, "snow": 0.0, "snowdepth": 0.0, "windgust": 32.2, "windspeed": 14.9, "winddir": 176.8, "pressure": 1007.6, "cloudcover": 43.3, "visibility": 9.9, "solarradiation": 320.1, "solarenergy": 27.6, "uvindex": 10.0, "sunrise": "05:32:49", "sunriseEpoch": 1529753569, "sunset": "20:30:56", "sunsetEpoch": 1529807456, "moonphase": 0.4, "conditions": "Partially cloudy", "description": "Partly cloudy throughout the day.", "icon": "partly-cloudy-day", "stations": ["KBKF", "KDEN", "C2323", "KAPA", "72469523036", "72565003017", "72466693067"], "source": "obs"}], "stations": {"KBKF": {"distance": 18620.0, "latitude": 39.72, "longitude": -104.75, "useCount": 0, "id": "KBKF", "name": "KBKF", "quality": 100, "contribution": 0.0}, "KDEN": {"distance": 35017.0, "latitude": 39.86, "longitude": -104.67, "useCount": 0, "id": "KDEN", "name": "KDEN", "quality": 100, "contribution": 0.0}, "C2323": {"distance": 8946.0, "latitude": 39.524, "longitude": -104.928, "useCount": 0, "id": "C2323", "name": "CW2323 Highlands Ranch CO US", "quality": 0, "contribution": 0.0}, "KAPA": {"distance": 5844.0, "latitude": 39.57, "longitude": -104.85, "useCount": 0, "id": "KAPA", "name": "KAPA", "quality": 100, "contribution": 0.0}, "72469523036": {"distance": 18363.0, "latitude": 39.717, "longitude": -104.75, "useCount": 0, "id": "72469523036", "name": "AURORA BUCKLEY FIELD ANGB, CO US", "quality": 100, "contribution": 0.0}, "72565003017": {"distance": 33224.0, "latitude": 39.833, "longitude": -104.658, "useCount": 0, "id": "72565003017", "name": "DENVER INTERNATIONAL AIRPORT, CO US", "quality": 100, "contribution": 0.0}, "72466693067": {"distance": 5892.0, "latitude": 39.57, "longitude": -104.849, "useCount": 0, "id": "72466693067", "name": "DENVER CENTENNIAL AIRPORT, CO US", "quality": 100, "contribution": 0.0}}}