{"queryCost": 1, "latitude": 40.295, "longitude": -83.038, "resolvedAddress": "40.29500,-83.03800", "address": "40.29500,-83.03800", "timezone": "America/New_York", "tzoffset": -4.0, "days": [{"datetime": "2018-06-06", "datetimeEpoch": 1528257600, "tempmax": 67.9, "tempmin": 49.9, "temp": 58.3, "feelslikemax": 67.9, "feelslikemin": 49.9, "feelslike": 58.3, "dew": 47.5, "humidity": 69.08, "precip": 0.0, "precipprob": null, "precipcover": 0.0, "preciptype": null, "snow": 0.0, "snowdepth": 0.0, "windgust": 16.1, "windspeed": 11.3, "winddir": 116.0, "pressure": 1014.5, "cloudcover": 31.4, "visibility": 9.9, "solarradiation": 383.6, "solarenergy": 22.1, "uvindex": 9.0, "sunrise": "06:02:51", "sunriseEpoch": 1528279371, "sunset": "20:59:11", "sunsetEpoch": 1528333151, "moonphase": 0.74, "conditions": "Partially cloudy", "description": "Partly cloudy throughout the day.", "icon": "partly-cloudy-day", "stations": ["KMNN", "KDLZ", "KOSU", "C4829", "KMRT", "72092800315", "72428804804"], "source": "obs"}], "stations": {"KMNN": {"distance": 35115.0, "latitude": 40.61, "longitude": -83.06, "useCount": 0, "id": "KMNN", "name": "KMNN", "quality": 99, "contribution": 0.0}, "KDLZ": {"distance": 6985.0, "latitude": 40.29, "longitude": -83.12, "useCount": 0, "id": "KDLZ", "name": "KDLZ", "quality": 100, "contribution": 0.0}, "KOSU": {"distance": 24088.0, "latitude": 40.08, "longitude": -83.07, "useCount": 0, "id": "KOSU", "name": "KOSU", "quality": 100, "contribution": 0.0}, "C4829": {"distance": 10909.0, "latitude": 40.204, "longitude": -83.086, "useCount": 0, "id": "C4829", "name": "CW4829 Powell OH US", "quality": 0, "contribution": 0.0}, "KMRT": {"distance": 27789.0, "latitude": 40.22, "longitude": -83.35, "useCount": 0, "id": "KMRT", "name": "KMRT", "quality": 100, "contribution": 0.0}, "72092800315": {"distance": 6748.0, "latitude": 40.28, "longitude": -83.115, "useCount": 0, "id": "72092800315", "name": "DELAWARE MUNICIPAL JIM MOORE FIELD AIRPORT, OH US", "quality": 100, "contribution": 0.0}, "72428804804": {"distance": 24385.0, "latitude": 40.078, "longitude": -83.078, "useCount": 0, "id": "72428804804", "name": "COLUMBUS OHIO STATE UNIVERSITY AIRPORT, OH US", "quality": 100, "contribution": 0.0}}}