{"queryCost": 1, "latitude": 45.51, "longitude": -122.685, "resolvedAddress": "45.51000,-122.68500", "address": "45.51000,-122.68500", "timezone": "America/Los_Angeles", "tzoffset": -7.0, "days": [{"datetime": "2018-06-29", "datetimeEpoch": 1530255600, "tempmax": 77.7, "tempmin": 53.6, "temp": 66.2, "feelslikemax": 77.7, "feelslikemin": 53.6, "feelslike": 66.2, "dew": 50.6, "humidity": 59.2, "precip": 0.0, "precipprob": 0.0, "precipcover": 0.0, "preciptype": null, "snow": 0.0, "snowdepth": 0.0, "windgust": 18.3, "windspeed": 10.8, "winddir": 289.8, "pressure": 1019.4, "cloudcover": 26.4, "visibility": 9.9, "solarradiation": 208.7, "solarenergy": 17.9, "uvindex": 8.0, "sunrise": "05:24:58", "sunriseEpoch": 1530275098, "sunset": "21:03:23", "sunsetEpoch": 1530331403, "moonphase": 0.51, "conditions": "Partially cloudy", "description": "Partly cloudy throughout the day.", "icon": "partly-cloudy-day", "stations": ["KHIO", "KVUO", "72698024229", "KPDX", "72698694261", "E8319", "72791894298"], "source": "obs"}], "stations": {"KHIO": {"distance": 21140.0, "latitude": 45.55, "longitude": -122.95, "useCount": 0, "id": "KHIO", "name": "KHIO", "quality": 100, "contribution": 0.0}, "KVUO": {"distance": 12399.0, "latitude": 45.62, "longitude": -122.66, "useCount": 0, "id": "KVUO", "name": "KVUO", "quality": 100, "contribution": 0.0}, "72698024229": {"distance": 11239.0, "latitude": 45.596, "longitude": -122.609, "useCount": 0, "id": "72698024229", "name": "PORTLAND INTERNATIONAL AIRPORT, OR US", "quality": 100, "contribution": 0.0}, "KPDX": {"distance": 12011.0, "latitude": 45.6, "longitude": -122.6, "useCount": 0, "id": "KPDX", "name": "KPDX", "quality": 100, "contribution": 0.0}, "72698694261": {"distance": 20869.0, "latitude": 45.541, "longitude": -122.949, "useCount": 0, "id": "72698694261", "name": "PORTLAND HILLSBORO AIRPORT, OR US", "quality": 100, "contribution": 0.0}, "E8319": {"distance": 8629.0, "latitude": 45.457, "longitude": -122.605, "useCount": 0, "id": "E8319", "name": "EW8319 Milwaukie OR US", "quality": 0, "contribution": 0.0}, "72791894298": {"distance": 12526.0, "latitude": 45.621, "longitude": -122.657, "useCount": 0, "id": "72791894298", "name": "VANCOUVER PEARSON AIRPORT, WA US", "quality": 100, "contribution": 0.0}}}