{"queryCost": 1, "latitude": 43.587, "longitude": -116.296, "resolvedAddress": "43.58700,-116.29600", "address": "43.58700,-116.29600", "timezone": "America/Boise", "tzoffset": -6.0, "days": [{"datetime": "2018-07-01", "datetimeEpoch": 1530424800, "tempmax": 84.0, "tempmin": 56.5, "temp": 71.8, "feelslikemax": 81.4, "feelslikemin": 56.5, "feelslike": 71.2, "dew": 44.2, "humidity": 39.3, "precip": 0.0, "precipprob": 0.0, "precipcover": 0.0, "preciptype": null, "snow": 0.0, "snowdepth": 0.0, "windgust": 23.1, "windspeed": 15.5, "winddir": 280.0, "pressure": 1015.6, "cloudcover": 0.2, "visibility": 9.9, "solarradiation": 330.3, "solarenergy": 28.2, "uvindex": 9.0, "sunrise": "06:07:52", "sunriseEpoch": 1530446872, "sunset": "21:30:08", "sunsetEpoch": 1530502208, "moonphase": 0.55, "conditions": "Clear", "description": "Clear conditions throughout the day.", "icon": "clear-day", "stations": ["TT325", "KBOI", "KEUL", "99999904127", "KMAN", "72681394195", "72681024131"], "source": "obs"}], "stations": {"TT325": {"distance": 2000.0, "latitude": 43.572, "longitude": -116.283, "useCount": 0, "id": "TT325", "name": "DENNIS TECH CENTER ID US", "quality": 0, "contribution": 0.0}, "KBOI": {"distance": 6414.0, "latitude": 43.57, "longitude": -116.22, "useCount": 0, "id": "KBOI", "name": "KBOI", "quality": 100, "contribution": 0.0}, "KEUL": {"distance": 27344.0, "latitude": 43.63, "longitude": -116.63, "useCount": 0, "id": "KEUL", "name": "CALDWELL (AWOS), ID", "quality": 100, "contribution": 0.0}, "99999904127": {"distance": 56289.0, "latitude": 43.204, "longitude": -116.751, "useCount": 0, "id": "99999904127", "name": "MURPHY 10 W, ID US", "quality": 100, "contribution": 0.0}, "KMAN": {"distance": 18079.0, "latitude": 43.58, "longitude": -116.52, "useCount": 0, "id": "KMAN", "name": "KMAN", "quality": 99, "contribution": 0.0}, "72681394195": {"distance": 28050.0, "latitude": 43.65, "longitude": -116.633, "useCount": 0, "id": "72681394195", "name": "CALDWELL INDUSTRIAL AIRPORT, ID US", "quality": 100, "contribution": 0.0}, "72681024131": {"distance": 4983.0, "latitude": 43.567, "longitude": -116.241, "useCount": 0, "id": "72681024131", "name": "BOISE AIR TERMINAL, ID US", "quality": 100, "contribution": 0.0}}}