{"queryCost": 1, "latitude": 41.692, "longitude": -94.371, "resolvedAddress": "41.69200,-94.37100", "address": "41.69200,-94.37100", "timezone": "America/Chicago", "tzoffset": -5.0, "days": [{"datetime": "2018-07-01", "datetimeEpoch": 1530421200, "tempmax": 79.7, "tempmin": 65.5, "temp": 73.0, "feelslikemax": 79.7, "feelslikemin": 65.5, "feelslike": 73.0, "dew": 67.8, "humidity": 85.2, "precip": 0.3, "precipprob": 100.0, "precipcover": 20.83, "preciptype": ["rain"], "snow": 0.0, "snowdepth": 0.0, "windgust": 26.2, "windspeed": 16.5, "winddir": 231.4, "pressure": null, "cloudcover": 63.9, "visibility": 9.4, "solarradiation": 243.8, "solarenergy": 21.1, "uvindex": 9.0, "sunrise": "05:46:51", "sunriseEpoch": 1530442011, "sunset": "20:55:44", "sunsetEpoch": 1530496544, "moonphase": 0.55, "conditions": "Rain, Partially cloudy", "description": "Partly cloudy throughout the day with early morning rain.", "icon": "rain", "stations": ["KPRO", "KBNW", "72549894998", "KADU", "C2001", "72041254943", "KCIN"], "source": "obs"}], "stations": {"KPRO": {"distance": 23302.0, "latitude": 41.83, "longitude": -94.16, "useCount": 0, "id": "KPRO", "name": "KPRO", "quality": 95, "contribution": 0.0}, "KBNW": {"distance": 58765.0, "latitude": 42.05, "longitude": -93.85, "useCount": 0, "id": "KBNW", "name": "KBNW", "quality": 100, "contribution": 0.0}, "72549894998": {"distance": 45368.0, "latitude": 41.7, "longitude": -94.917, "useCount": 0, "id": "72549894998", "name": "AUDUBON MUNICIPAL AIRPORT, IA US", "quality": 100, "contribution": 0.0}, "KADU": {"distance": 45642.0, "latitude": 41.7, "longitude": -94.92, "useCount": 0, "id": "KADU", "name": "KADU", "quality": 99, "contribution": 0.0}, "C2001": {"distance": 50469.0, "latitude": 41.872, "longitude": -93.813, "useCount": 0, "id": "C2001", "name": "CW2001 Madrid IA US", "quality": 0, "contribution": 0.0}, "72041254943": {"distance": 23168.0, "latitude": 41.828, "longitude": -94.16, "useCount": 0, "id": "72041254943", "name": "PERRY MUNICIPAL AIRPORT, IA US", "quality": 100, "contribution": 0.0}, "KCIN": {"distance": 52323.0, "latitude": 42.05, "longitude": -94.78, "useCount": 0, "id": "KCIN", "name": "KCIN", "quality": 100, "contribution": 0.0}}}