{"queryCost": 1, "latitude": 40.156, "longitude": -122.221, "resolvedAddress": "40.15600,-122.22100", "address": "40.15600,-122.22100", "timezone": "America/Los_Angeles", "tzoffset": -7.0, "days": [{"datetime": "2018-07-04", "datetimeEpoch": 1530687600, "tempmax": 87.2, "tempmin": 65.0, "temp": 75.6, "feelslikemax": 84.1, "feelslikemin": 65.0, "feelslike": 74.9, "dew": 52.1, "humidity": 46.78, "precip": 0.0, "precipprob": null, "precipcover": 0.0, "preciptype": null, "snow": 0.0, "snowdepth": 0.0, "windgust": 26.4, "windspeed": 18.3, "winddir": 160.5, "pressure": 1011.7, "cloudcover": 9.9, "visibility": 9.8, "solarradiation": 433.9, "solarenergy": 26.6, "uvindex": 8.0, "sunrise": "05:44:59", "sunriseEpoch": 1530708299, "sunset": "20:41:30", "sunsetEpoch": 1530762090, "moonphase": 0.66, "conditions": "Clear", "description": "Clear conditions throughout the day.", "icon": "clear-day", "stations": ["CRGC1", "KCIC", "KRBL", "KRDD", "72592024257", "99999904222", "72591024216", "CI222"], "source": "obs"}], "stations": {"CRGC1": {"distance": 24555.0, "latitude": 39.939, "longitude": -122.17, "useCount": 0, "id": "CRGC1", "name": "CORNING CA US", "quality": 0, "contribution": 0.0}, "KCIC": {"distance": 51592.0, "latitude": 39.79, "longitude": -121.85, "useCount": 0, "id": "KCIC", "name": "KCIC", "quality": 82, "contribution": 0.0}, "KRBL": {"distance": 2556.0, "latitude": 40.15, "longitude": -122.25, "useCount": 0, "id": "KRBL", "name": "KRBL", "quality": 100, "contribution": 0.0}, "KRDD": {"distance": 38876.0, "latitude": 40.5, "longitude": -122.3, "useCount": 0, "id": "KRDD", "name": "KRDD", "quality": 100, "contribution": 0.0}, "72592024257": {"distance": 40783.0, "latitude": 40.518, "longitude": -122.299, "useCount": 0, "id": "72592024257", "name": "REDDING MUNICIPAL AIRPORT, CA US", "quality": 100, "contribution": 0.0}, "99999904222": {"distance": 64057.0, "latitude": 40.651, "longitude": -122.607, "useCount": 0, "id": "99999904222", "name": "REDDING 12 WNW, CA US", "quality": 100, "contribution": 0.0}, "72591024216": {"distance": 2845.0, "latitude": 40.152, "longitude": -122.254, "useCount": 0, "id": "72591024216", "name": "RED BLUFF MUNICIPAL AIRPORT, CA US", "quality": 100, "contribution": 0.0}, "CI222": {"distance": 15203.0, "latitude": 40.029, "longitude": -122.156, "useCount": 0, "id": "CI222", "name": "Gerber South CA US CIMIS", "quality": 0, "contribution": 0.0}}}