{"queryCost": 1, "latitude": 33.963, "longitude": -118.355, "resolvedAddress": "33.96300,-118.35500", "address": "33.96300,-118.35500", "timezone": "America/Los_Angeles", "tzoffset": -7.0, "days": [{"datetime": "2018-06-22", "datetimeEpoch": 1529650800, "tempmax": 71.8, "tempmin": 63.0, "temp": 66.2, "feelslikemax": 71.8, "feelslikemin": 63.0, "feelslike": 66.2, "dew": 60.8, "humidity": 82.9, "precip": 0.0, "precipprob": 0.0, "precipcover": 0.0, "preciptype": null, "snow": 0.0, "snowdepth": 0.0, "windgust": 17.2, "windspeed": 12.0, "winddir": 256.8, "pressure": 1011.4, "cloudcover": 91.5, "visibility": 6.9, "solarradiation": 170.4, "solarenergy": 14.6, "uvindex": 7.0, "sunrise": "05:43:01", "sunriseEpoch": 1529671381, "sunset": "20:07:57", "sunsetEpoch": 1529723277, "moonphase": 0.36, "conditions": "Overcast", "description": "Cloudy skies throughout the day.", "icon": "cloudy", "stations": ["KHHR", "D4674", "72295023174", "KCQT", "72295603167", "KLAX", "72287493134"], "source": "obs"}], "stations": {"KHHR": {"distance": 5314.0, "latitude": 33.92, "longitude": -118.33, "useCount": 0, "id": "KHHR", "name": "KHHR", "quality": 100, "contribution": 0.0}, "D4674": {"distance": 8452.0, "latitude": 33.993, "longitude": -118.439, "useCount": 0, "id": "D4674", "name": "DW4674 Venice CA US", "quality": 0, "contribution": 0.0}, "72295023174": {"distance": 4196.0, "latitude": 33.938, "longitude": -118.389, "useCount": 0, "id": "72295023174", "name": "LOS ANGELES INTERNATIONAL AIRPORT, CA US", "quality": 100, "contribution": 0.0}, "KCQT": {"distance": 9390.0, "latitude": 34.02, "longitude": -118.28, "useCount": 0, "id": "KCQT", "name": "KCQT", "quality": 100, "contribution": 0.0}, "72295603167": {"distance": 4877.0, "latitude": 33.923, "longitude": -118.334, "useCount": 0, "id": "72295603167", "name": "HAWTHORNE MUNICIPAL AIRPORT, CA US", "quality": 100, "contribution": 0.0}, "KLAX": {"distance": 5547.0, "latitude": 33.93, "longitude": -118.4, "useCount": 0, "id": "KLAX", "name": "KLAX", "quality": 100, "contribution": 0.0}, "72287493134": {"distance": 8967.0, "latitude": 34.024, "longitude": -118.291, "useCount": 0, "id": "72287493134", "name": "LOS ANGELES DOWNTOWN USC, CA US", "quality": 100, "contribution": 0.0}}}