{"queryCost": 1, "latitude": 35.131, "longitude": -106.716, "resolvedAddress": "35.13100,-106.71600", "address": "35.13100,-106.71600", "timezone": "America/Denver", "tzoffset": -6.0, "days": [{"datetime": "2018-07-18", "datetimeEpoch": 1531893600, "tempmax": 94.9, "tempmin": 68.8, "temp": 82.2, "feelslikemax": 91.6, "feelslikemin": 68.8, "feelslike": 80.8, "dew": 51.0, "humidity": 35.8, "precip": 0.0, "precipprob": 0.0, "precipcover": 0.0, "preciptype": null, "snow": 0.0, "snowdepth": 0.0, "windgust": 19.7, "windspeed": 13.3, "winddir": 211.8, "pressure": 1013.0, "cloudcover": 46.6, "visibility": 9.9, "solarradiation": 288.0, "solarenergy": 24.9, "uvindex": 9.0, "sunrise": "06:05:59", "sunriseEpoch": 1531915559, "sunset": "20:19:55", "sunsetEpoch": 1531966795, "moonphase": 0.18, "conditions": "Partially cloudy", "description": "Becoming cloudy in the afternoon.", "icon": "partly-cloudy-day", "stations": ["72365623049", "K0E0", "72072499999", "KABQ", "72365023050", "D6392", "KSAF"], "source": "obs"}], "stations": {"72365623049": {"distance": 78515.0, "latitude": 35.617, "longitude": -106.089, "useCount": 0, "id": "72365623049", "name": "SANTA FE CO MUNICIPAL AIRPORT, NM US", "quality": 100, "contribution": 0.0}, "K0E0": {"distance": 67666.0, "latitude": 34.97, "longitude": -106.0, "useCount": 0, "id": "K0E0", "name": "K0E0", "quality": 100, "contribution": 0.0}, "72072499999": {"distance": 55102.0, "latitude": 34.646, "longitude": -106.836, "useCount": 0, "id": "72072499999", "name": "BELEN REGIONAL AIRPORT, NM US", "quality": 92, "contribution": 0.0}, "KABQ": {"distance": 13382.0, "latitude": 35.04, "longitude": -106.62, "useCount": 0, "id": "KABQ", "name": "KABQ", "quality": 100, "contribution": 0.0}, "72365023050": {"distance": 13467.0, "latitude": 35.042, "longitude": -106.616, "useCount": 0, "id": "72365023050", "name": "ALBUQUERQUE INTERNATIONAL AIRPORT, NM US", "quality": 100, "contribution": 0.0}, "D6392": {"distance": 4199.0, "latitude": 35.163, "longitude": -106.691, "useCount": 0, "id": "D6392", "name": "DW6392 Albuquerque NM US", "quality": 0, "contribution": 0.0}, "KSAF": {"distance": 78588.0, "latitude": 35.61, "longitude": -106.08, "useCount": 0, "id": "KSAF", "name": "KSAF", "quality": 100, "contribution": 0.0}}}