{"queryCost": 1, "latitude": 33.393, "longitude": -111.875, "resolvedAddress": "33.39300,-111.87500", "address": "33.39300,-111.87500", "timezone": "America/Phoenix", "tzoffset": -7.0, "days": [{"datetime": "2018-07-21", "datetimeEpoch": 1532156400, "tempmax": 100.8, "tempmin": 81.3, "temp": 93.1, "feelslikemax": 101.7, "feelslikemin": 84.8, "feelslike": 94.2, "dew": 62.2, "humidity": 38.0, "precip": 0.01, "precipprob": 100.0, "precipcover": 4.17, "preciptype": ["rain"], "snow": 0.0, "snowdepth": 0.0, "windgust": 30.8, "windspeed": 15.9, "winddir": 257.8, "pressure": 1010.4, "cloudcover": 62.8, "visibility": 12.2, "solarradiation": 282.2, "solarenergy": 24.4, "uvindex": 9.0, "sunrise": "05:32:43", "sunriseEpoch": 1532176363, "sunset": "19:34:48", "sunsetEpoch": 1532226888, "moonphase": 0.34, "conditions": "Rain, Partially cloudy", "description": "Partly cloudy throughout the day with morning rain.", "icon": "rain", "stations": ["72278903192", "KSDL", "72278023183", "SRP40", "KPHX", "72278303185", "KFFZ"], "source": "obs"}], "stations": {"72278903192": {"distance": 25799.0, "latitude": 33.623, "longitude": -111.911, "useCount": 0, "id": "72278903192", "name": "SCOTTSDALE MUNICIPAL AIRPORT, AZ US", "quality": 100, "contribution": 0.0}, "KSDL": {"distance": 24515.0, "latitude": 33.61, "longitude": -111.92, "useCount": 0, "id": "KSDL", "name": "KSDL", "quality": 100, "contribution": 0.0}, "72278023183": {"distance": 12594.0, "latitude": 33.428, "longitude": -112.004, "useCount": 0, "id": "72278023183", "name": "PHOENIX AIRPORT, AZ US", "quality": 100, "contribution": 0.0}, "SRP40": {"distance": 4196.0, "latitude": 33.39, "longitude": -111.92, "useCount": 0, "id": "SRP40", "name": "Alameda AZ US SRP", "quality": 0, "contribution": 0.0}, "KPHX": {"distance": 14089.0, "latitude": 33.43, "longitude": -112.02, "useCount": 0, "id": "KPHX", "name": "KPHX", "quality": 100, "contribution": 0.0}, "72278303185": {"distance": 15535.0, "latitude": 33.467, "longitude": -111.733, "useCount": 0, "id": "72278303185", "name": "MESA FALCON FIELD, AZ US", "quality": 100, "contribution": 0.0}, "KFFZ": {"distance": 15967.0, "latitude": 33.47, "longitude": -111.73, "useCount": 0, "id": "KFFZ", "name": "FALCON FLD MESA, AZ", "quality": 100, "contribution": 0.0}}}