{"queryCost": 1, "latitude": 47.646, "longitude": -117.363, "resolvedAddress": "47.64600,-117.36300", "address": "47.64600,-117.36300", "timezone": "America/Los_Angeles", "tzoffset": -7.0, "days": [{"datetime": "2018-07-25", "datetimeEpoch": 1532502000, "tempmax": 94.7, "tempmin": 61.1, "temp": 78.2, "feelslikemax": 90.2, "feelslikemin": 61.1, "feelslike": 76.5, "dew": 42.3, "humidity": 31.3, "precip": 0.0, "precipprob": 0.0, "precipcover": 0.0, "preciptype": null, "snow": 0.0, "snowdepth": 0.0, "windgust": 19.7, "windspeed": 10.3, "winddir": 165.6, "pressure": 1017.3, "cloudcover": 3.3, "visibility": 9.9, "solarradiation": 307.4, "solarenergy": 26.5, "uvindex": 8.0, "sunrise": "05:18:19", "sunriseEpoch": 1532521099, "sunset": "20:32:54", "sunsetEpoch": 1532575974, "moonphase": 0.48, "conditions": "Clear", "description": "Clear conditions throughout the day.", "icon": "clear-day", "stations": ["TWRW1", "72785524114", "72785694176", "72785024157", "KSFF", "KGEG", "KSKA"], "source": "obs"}], "stations": {"TWRW1": {"distance": 28299.0, "latitude": 47.418, "longitude": -117.528, "useCount": 0, "id": "TWRW1", "name": "CHENEY WA US", "quality": 0, "contribution": 0.0}, "72785524114": {"distance": 21573.0, "latitude": 47.633, "longitude": -117.65, "useCount": 0, "id": "72785524114", "name": "FAIRCHILD AFB, WA US", "quality": 96, "contribution": 0.0}, "72785694176": {"distance": 5193.0, "latitude": 47.683, "longitude": -117.321, "useCount": 0, "id": "72785694176", "name": "SPOKANE FELTS FIELD, WA US", "quality": 100, "contribution": 0.0}, "72785024157": {"distance": 12672.0, "latitude": 47.622, "longitude": -117.528, "useCount": 0, "id": "72785024157", "name": "SPOKANE INTERNATIONAL AIRPORT, WA US", "quality": 100, "contribution": 0.0}, "KSFF": {"distance": 4972.0, "latitude": 47.68, "longitude": -117.32, "useCount": 0, "id": "KSFF", "name": "KSFF", "quality": 100, "contribution": 0.0}, "KGEG": {"distance": 12652.0, "latitude": 47.63, "longitude": -117.53, "useCount": 0, "id": "KGEG", "name": "KGEG", "quality": 100, "contribution": 0.0}, "KSKA": {"distance": 21723.0, "latitude": 47.62, "longitude": -117.65, "useCount": 0, "id": "KSKA", "name": "KSKA", "quality": 100, "contribution": 0.0}}}