{"queryCost": 1, "latitude": 39.747, "longitude": -104.824, "resolvedAddress": "39.74700,-104.82400", "address": "39.74700,-104.82400", "timezone": "America/Denver", "tzoffset": -6.0, "days": [{"datetime": "2018-07-30", "datetimeEpoch": 1532930400, "tempmax": 76.1, "tempmin": 55.9, "temp": 65.7, "feelslikemax": 76.1, "feelslikemin": 55.9, "feelslike": 65.7, "dew": 47.8, "humidity": 57.3, "precip": 0.0, "precipprob": 0.0, "precipcover": 0.0, "preciptype": null, "snow": 0.0, "snowdepth": 0.0, "windgust": 23.1, "windspeed": 13.3, "winddir": 153.0, "pressure": 1021.7, "cloudcover": 46.0, "visibility": 9.9, "solarradiation": 283.2, "solarenergy": 24.5, "uvindex": 10.0, "sunrise": "05:56:32", "sunriseEpoch": 1532951792, "sunset": "20:14:21", "sunsetEpoch": 1533003261, "moonphase": 0.53, "conditions": "Partially cloudy", "description": "Partly cloudy throughout the day.", "icon": "partly-cloudy-day", "stations": ["KBKF", "KDEN", "72469523036", "KAPA", "72565003017", "72466693067", "C9516"], "source": "obs"}], "stations": {"KBKF": {"distance": 7012.0, "latitude": 39.72, "longitude": -104.75, "useCount": 0, "id": "KBKF", "name": "KBKF", "quality": 100, "contribution": 0.0}, "KDEN": {"distance": 18212.0, "latitude": 39.86, "longitude": -104.67, "useCount": 0, "id": "KDEN", "name": "KDEN", "quality": 100, "contribution": 0.0}, "72469523036": {"distance": 7177.0, "latitude": 39.717, "longitude": -104.75, "useCount": 0, "id": "72469523036", "name": "AURORA BUCKLEY FIELD ANGB, CO US", "quality": 100, "contribution": 0.0}, "KAPA": {"distance": 19829.0, "latitude": 39.57, "longitude": -104.85, "useCount": 0, "id": "KAPA", "name": "KAPA", "quality": 100, "contribution": 0.0}, "72565003017": {"distance": 17113.0, "latitude": 39.833, "longitude": -104.658, "useCount": 0, "id": "72565003017", "name": "DENVER INTERNATIONAL AIRPORT, CO US", "quality": 100, "contribution": 0.0}, "72466693067": {"distance": 19786.0, "latitude": 39.57, "longitude": -104.849, "useCount": 0, "id": "72466693067", "name": "DENVER CENTENNIAL AIRPORT, CO US", "quality": 100, "contribution": 0.0}, "C9516": {"distance": 7457.0, "latitude": 39.744, "longitude": -104.911, "useCount": 0, "id": "C9516", "name": "CW9516 Denver CO US", "quality": 0, "contribution": 0.0}}}