{"queryCost": 1, "latitude": 39.814, "longitude": -105.02, "resolvedAddress": "39.81400,-105.02000", "address": "39.81400,-105.02000", "timezone": "America/Denver", "tzoffset": -6.0, "days": [{"datetime": "2018-07-29", "datetimeEpoch": 1532844000, "tempmax": 78.9, "tempmin": 56.0, "temp": 64.1, "feelslikemax": 78.9, "feelslikemin": 56.0, "feelslike": 64.1, "dew": 55.8, "humidity": 76.6, "precip": 0.0, "precipprob": 0.0, "precipcover": 0.0, "preciptype": null, "snow": 0.0, "snowdepth": 0.0, "windgust": 49.4, "windspeed": 20.9, "winddir": 148.9, "pressure": 1018.1, "cloudcover": 73.9, "visibility": 7.8, "solarradiation": 185.3, "solarenergy": 16.2, "uvindex": 6.0, "sunrise": "05:56:15", "sunriseEpoch": 1532865375, "sunset": "20:16:18", "sunsetEpoch": 1532916978, "moonphase": 0.52, "conditions": "Partially cloudy", "description": "Partly cloudy throughout the day.", "icon": "partly-cloudy-day", "stations": ["KBKF", "KDEN", "72469523036", "KAPA", "D9882", "72565003017", "C5621", "72466693067"], "source": "obs"}], "stations": {"KBKF": {"distance": 25362.0, "latitude": 39.72, "longitude": -104.75, "useCount": 0, "id": "KBKF", "name": "KBKF", "quality": 100, "contribution": 0.0}, "KDEN": {"distance": 30353.0, "latitude": 39.86, "longitude": -104.67, "useCount": 0, "id": "KDEN", "name": "KDEN", "quality": 100, "contribution": 0.0}, "72469523036": {"distance": 25516.0, "latitude": 39.717, "longitude": -104.75, "useCount": 0, "id": "72469523036", "name": "AURORA BUCKLEY FIELD ANGB, CO US", "quality": 100, "contribution": 0.0}, "KAPA": {"distance": 30819.0, "latitude": 39.57, "longitude": -104.85, "useCount": 0, "id": "KAPA", "name": "KAPA", "quality": 100, "contribution": 0.0}, "D9882": {"distance": 9677.0, "latitude": 39.768, "longitude": -105.116, "useCount": 0, "id": "D9882", "name": "DW9882 Wheat Ridge CO US", "quality": 0, "contribution": 0.0}, "72565003017": {"distance": 31020.0, "latitude": 39.833, "longitude": -104.658, "useCount": 0, "id": "72565003017", "name": "DENVER INTERNATIONAL AIRPORT, CO US", "quality": 100, "contribution": 0.0}, "C5621": {"distance": 9605.0, "latitude": 39.9, "longitude": -105.033, "useCount": 0, "id": "C5621", "name": "CW5621 Westminster CO US", "quality": 0, "contribution": 0.0}, "72466693067": {"distance": 30830.0, "latitude": 39.57, "longitude": -104.849, "useCount": 0, "id": "72466693067", "name": "DENVER CENTENNIAL AIRPORT, CO US", "quality": 100, "contribution": 0.0}}}