{"queryCost": 1, "latitude": 35.134, "longitude": -79.478, "resolvedAddress": "35.13400,-79.47800", "address": "35.13400,-79.47800", "timezone": "America/New_York", "tzoffset": -4.0, "days": [{"datetime": "2018-07-28", "datetimeEpoch": 1532750400, "tempmax": 90.3, "tempmin": 73.6, "temp": 79.2, "feelslikemax": 96.8, "feelslikemin": 73.6, "feelslike": 81.7, "dew": 72.9, "humidity": 82.8, "precip": 0.39, "precipprob": 100.0, "precipcover": 20.83, "preciptype": ["rain"], "snow": 0.0, "snowdepth": 0.0, "windgust": null, "windspeed": 8.1, "winddir": 176.7, "pressure": 1017.6, "cloudcover": 55.3, "visibility": 8.6, "solarradiation": 208.9, "solarenergy": 18.2, "uvindex": 8.0, "sunrise": "06:24:05", "sunriseEpoch": 1532773445, "sunset": "20:24:19", "sunsetEpoch": 1532823859, "moonphase": 0.5, "conditions": "Rain, Partially cloudy", "description": "Partly cloudy throughout the day with rain.", "icon": "rain", "stations": ["RKGN7", "72310993782", "72224303738", "72314303720", "KSOP", "72303493747", "KHFF"], "source": "obs"}], "stations": {"RKGN7": {"distance": 27322.0, "latitude": 34.96, "longitude": -79.69, "useCount": 0, "id": "RKGN7", "name": "ROCKINGHAM NC US", "quality": 0, "contribution": 0.0}, "72310993782": {"distance": 39448.0, "latitude": 34.792, "longitude": -79.366, "useCount": 0, "id": "72310993782", "name": "LAURINBURG MAXTON AIRPORT, NC US", "quality": 100, "contribution": 0.0}, "72224303738": {"distance": 37262.0, "latitude": 34.891, "longitude": -79.759, "useCount": 0, "id": "72224303738", "name": "ROCKINGHAM HAMLET AIRPORT, NC US", "quality": 100, "contribution": 0.0}, "72314303720": {"distance": 13946.0, "latitude": 35.237, "longitude": -79.391, "useCount": 0, "id": "72314303720", "name": "MOORE CO AIRPORT, NC US", "quality": 100, "contribution": 0.0}, "KSOP": {"distance": 12828.0, "latitude": 35.23, "longitude": -79.4, "useCount": 0, "id": "KSOP", "name": "SOUTHERN PINES A, NC", "quality": 100, "contribution": 0.0}, "72303493747": {"distance": 11388.0, "latitude": 35.033, "longitude": -79.5, "useCount": 0, "id": "72303493747", "name": "FORT BRAGG MACKALL ARMY AIR FIELD, NC US", "quality": 99, "contribution": 0.0}, "KHFF": {"distance": 11749.0, "latitude": 35.03, "longitude": -79.5, "useCount": 0, "id": "KHFF", "name": "KHFF", "quality": 100, "contribution": 0.0}}}