{"queryCost": 1, "latitude": 36.83, "longitude": -76.34, "resolvedAddress": "36.83000,-76.34000", "address": "36.83000,-76.34000", "timezone": "America/New_York", "tzoffset": -4.0, "days": [{"datetime": "2015-04-22", "datetimeEpoch": 1429675200, "tempmax": 79.0, "tempmin": 52.6, "temp": 66.7, "feelslikemax": 79.0, "feelslikemin": 52.6, "feelslike": 66.7, "dew": 40.5, "humidity": 42.8, "precip": 0.0, "precipprob": 0.0, "precipcover": 0.0, "preciptype": null, "snow": 0.0, "snowdepth": 0.0, "windgust": 31.6, "windspeed": 18.8, "winddir": 218.0, "pressure": 1008.8, "cloudcover": 16.0, "visibility": 9.9, "solarradiation": 314.7, "solarenergy": 27.1, "uvindex": 10.0, "sunrise": "06:22:25", "sunriseEpoch": 1429698145, "sunset": "19:45:58", "sunsetEpoch": 1429746358, "moonphase": 0.09, "conditions": "Clear", "description": "Clear conditions throughout the day.", "icon": "clear-day", "stations": ["KNFE", "KNGU", "72308513750", "KORF", "72308013737", "72517213762"], "source": "obs"}], "stations": {"KNFE": {"distance": 23667.0, "latitude": 36.7, "longitude": -76.13, "useCount": 0, "id": "KNFE", "name": "KNFE", "quality": 100, "contribution": 0.0}, "KNGU": {"distance": 12348.0, "latitude": 36.93, "longitude": -76.28, "useCount": 0, "id": "KNGU", "name": "KNGU", "quality": 100, "contribution": 0.0}, "72308513750": {"distance": 12790.0, "latitude": 36.938, "longitude": -76.289, "useCount": 0, "id": "72308513750", "name": "NORFOLK NAS, VA US", "quality": 100, "contribution": 0.0}, "KORF": {"distance": 14703.0, "latitude": 36.9, "longitude": -76.2, "useCount": 0, "id": "KORF", "name": "KORF", "quality": 100, "contribution": 0.0}, "72308013737": {"distance": 15487.0, "latitude": 36.903, "longitude": -76.192, "useCount": 0, "id": "72308013737", "name": "NORFOLK INTERNATIONAL AIRPORT, VA US", "quality": 100, "contribution": 0.0}, "72517213762": {"distance": 23625.0, "latitude": 36.695, "longitude": -76.136, "useCount": 0, "id": "72517213762", "name": "FENTRESS NAVAL AUXILIARY FIELD, VA US", "quality": 100, "contribution": 0.0}}}