{"queryCost": 1, "latitude": 36.183, "longitude": -115.17, "resolvedAddress": "36.18300,-115.17000", "address": "36.18300,-115.17000", "timezone": "America/Los_Angeles", "tzoffset": -7.0, "days": [{"datetime": "2018-08-06", "datetimeEpoch": 1533538800, "tempmax": 107.9, "tempmin": 79.2, "temp": 95.0, "feelslikemax": 100.8, "feelslikemin": 78.6, "feelslike": 90.3, "dew": 28.1, "humidity": 9.9, "precip": 0.0, "precipprob": 0.0, "precipcover": 0.0, "preciptype": null, "snow": 0.0, "snowdepth": 0.0, "windgust": 17.2, "windspeed": 8.7, "winddir": 186.7, "pressure": 1009.1, "cloudcover": 0.0, "visibility": 9.9, "solarradiation": 318.2, "solarenergy": 27.5, "uvindex": 10.0, "sunrise": "05:51:41", "sunriseEpoch": 1533559901, "sunset": "19:40:53", "sunsetEpoch": 1533609653, "moonphase": 0.85, "conditions": "Clear", "description": "Clear conditions throughout the day.", "icon": "clear-day", "stations": ["KLAS", "CMP12", "74614023112", "KLSV", "72386023169", "KVGT", "72484653123"], "source": "obs"}], "stations": {"KLAS": {"distance": 11466.0, "latitude": 36.08, "longitude": -115.17, "useCount": 0, "id": "KLAS", "name": "KLAS", "quality": 100, "contribution": 0.0}, "CMP12": {"distance": 7942.0, "latitude": 36.114, "longitude": -115.148, "useCount": 0, "id": "CMP12", "name": "Las Vegas NV US CEMP", "quality": 0, "contribution": 0.0}, "74614023112": {"distance": 14388.0, "latitude": 36.25, "longitude": -115.033, "useCount": 0, "id": "74614023112", "name": "LAS VEGAS NELLIS AFB, NV US", "quality": 96, "contribution": 0.0}, "KLSV": {"distance": 13233.0, "latitude": 36.22, "longitude": -115.03, "useCount": 0, "id": "KLSV", "name": "KLSV", "quality": 99, "contribution": 0.0}, "72386023169": {"distance": 12384.0, "latitude": 36.072, "longitude": -115.163, "useCount": 0, "id": "72386023169", "name": "MCCARRAN INTERNATIONAL AIRPORT, NV US", "quality": 100, "contribution": 0.0}, "KVGT": {"distance": 4037.0, "latitude": 36.21, "longitude": -115.2, "useCount": 0, "id": "KVGT", "name": "KVGT", "quality": 100, "contribution": 0.0}, "72484653123": {"distance": 3958.0, "latitude": 36.212, "longitude": -115.196, "useCount": 0, "id": "72484653123", "name": "LAS VEGAS AIR TERMINAL, NV US", "quality": 100, "contribution": 0.0}}}