{"queryCost": 1, "latitude": 26.451, "longitude": -80.101, "resolvedAddress": "26.45100,-80.10100", "address": "26.45100,-80.10100", "timezone": "America/New_York", "tzoffset": -4.0, "days": [{"datetime": "2018-08-04", "datetimeEpoch": 1533355200, "tempmax": 89.0, "tempmin": 82.2, "temp": 85.3, "feelslikemax": 98.8, "feelslikemin": 88.6, "feelslike": 93.7, "dew": 75.0, "humidity": 71.6, "precip": 0.0, "precipprob": 0.0, "precipcover": 0.0, "preciptype": null, "snow": 0.0, "snowdepth": 0.0, "windgust": 22.2, "windspeed": 14.5, "winddir": 100.0, "pressure": 1019.4, "cloudcover": 49.8, "visibility": 9.9, "solarradiation": 244.5, "solarenergy": 21.3, "uvindex": 10.0, "sunrise": "06:47:08", "sunriseEpoch": 1533379628, "sunset": "20:05:31", "sunsetEpoch": 1533427531, "moonphase": 0.74, "conditions": "Partially cloudy", "description": "Partly cloudy throughout the day.", "icon": "partly-cloudy-day", "stations": ["72203012844", "72204992805", "72203912885", "KPMP", "KFXE", "D4717", "KPBI"], "source": "obs"}], "stations": {"72203012844": {"distance": 26016.0, "latitude": 26.685, "longitude": -80.099, "useCount": 0, "id": "72203012844", "name": "WEST PALM BEACH INTERNATIONAL AIRPORT, FL US", "quality": 100, "contribution": 0.0}, "72204992805": {"distance": 22387.0, "latitude": 26.25, "longitude": -80.108, "useCount": 0, "id": "72204992805", "name": "POMPANO BEACH AIRPARK, FL US", "quality": 99, "contribution": 0.0}, "72203912885": {"distance": 29131.0, "latitude": 26.197, "longitude": -80.171, "useCount": 0, "id": "72203912885", "name": "FORT LAUDERDALE EXECUTIVE AIRPORT, FL US", "quality": 99, "contribution": 0.0}, "KPMP": {"distance": 22393.0, "latitude": 26.25, "longitude": -80.11, "useCount": 0, "id": "KPMP", "name": "KPMP", "quality": 100, "contribution": 0.0}, "KFXE": {"distance": 28777.0, "latitude": 26.2, "longitude": -80.17, "useCount": 0, "id": "KFXE", "name": "KFXE", "quality": 100, "contribution": 0.0}, "D4717": {"distance": 3611.0, "latitude": 26.479, "longitude": -80.119, "useCount": 0, "id": "D4717", "name": "DW4717 Delray Beach FL US", "quality": 0, "contribution": 0.0}, "KPBI": {"distance": 25562.0, "latitude": 26.68, "longitude": -80.12, "useCount": 0, "id": "KPBI", "name": "KPBI", "quality": 100, "contribution": 0.0}}}