{"queryCost": 1, "latitude": 40.025, "longitude": -75.164, "resolvedAddress": "40.02500,-75.16400", "address": "40.02500,-75.16400", "timezone": "America/New_York", "tzoffset": -4.0, "days": [{"datetime": "2018-08-06", "datetimeEpoch": 1533528000, "tempmax": 91.7, "tempmin": 72.4, "temp": 81.6, "feelslikemax": 97.0, "feelslikemin": 72.4, "feelslike": 84.5, "dew": 71.0, "humidity": 72.15, "precip": 0.0, "precipprob": null, "precipcover": 0.0, "preciptype": null, "snow": 0.0, "snowdepth": 0.0, "windgust": 20.8, "windspeed": 7.6, "winddir": 264.6, "pressure": 1018.8, "cloudcover": 16.3, "visibility": 8.9, "solarradiation": 261.7, "solarenergy": 14.1, "uvindex": 7.0, "sunrise": "06:03:38", "sunriseEpoch": 1533549818, "sunset": "20:08:48", "sunsetEpoch": 1533600528, "moonphase": 0.85, "conditions": "Clear", "description": "Clear conditions throughout the day.", "icon": "clear-day", "stations": ["72408594732", "72408013739", "72030464752", "E8199", "KPHL", "KLOM", "KPNE"], "source": "obs"}], "stations": {"72408594732": {"distance": 14166.0, "latitude": 40.079, "longitude": -75.013, "useCount": 0, "id": "72408594732", "name": "NORTHEAST PHILADELPHIA AIRPORT, PA US", "quality": 100, "contribution": 0.0}, "72408013739": {"distance": 17717.0, "latitude": 39.873, "longitude": -75.227, "useCount": 0, "id": "72408013739", "name": "PHILADELPHIA INTERNATIONAL AIRPORT, PA US", "quality": 100, "contribution": 0.0}, "72030464752": {"distance": 12094.0, "latitude": 40.1, "longitude": -75.267, "useCount": 0, "id": "72030464752", "name": "WINGS FIELD, PA US", "quality": 100, "contribution": 0.0}, "E8199": {"distance": 9118.0, "latitude": 39.944, "longitude": -75.151, "useCount": 0, "id": "E8199", "name": "EW8199 Phildelphia PA US", "quality": 0, "contribution": 0.0}, "KPHL": {"distance": 17731.0, "latitude": 39.88, "longitude": -75.25, "useCount": 0, "id": "KPHL", "name": "KPHL", "quality": 100, "contribution": 0.0}, "KLOM": {"distance": 15665.0, "latitude": 40.14, "longitude": -75.27, "useCount": 0, "id": "KLOM", "name": "KLOM", "quality": 100, "contribution": 0.0}, "KPNE": {"distance": 14480.0, "latitude": 40.08, "longitude": -75.01, "useCount": 0, "id": "KPNE", "name": "KPNE", "quality": 100, "contribution": 0.0}}}