{"queryCost": 1, "latitude": 33.517, "longitude": -111.767, "resolvedAddress": "33.51700,-111.76700", "address": "33.51700,-111.76700", "timezone": "America/Phoenix", "tzoffset": -7.0, "days": [{"datetime": "2018-08-07", "datetimeEpoch": 1533625200, "tempmax": 109.7, "tempmin": 85.8, "temp": 98.7, "feelslikemax": 111.0, "feelslikemin": 91.5, "feelslike": 99.6, "dew": 60.0, "humidity": 29.6, "precip": 0.01, "precipprob": 100.0, "precipcover": 4.17, "preciptype": ["rain"], "snow": 0.0, "snowdepth": 0.0, "windgust": 32.8, "windspeed": 20.3, "winddir": 225.1, "pressure": 1006.2, "cloudcover": 25.1, "visibility": 15.1, "solarradiation": 287.9, "solarenergy": 24.9, "uvindex": 9.0, "sunrise": "05:43:46", "sunriseEpoch": 1533645826, "sunset": "19:21:23", "sunsetEpoch": 1533694883, "moonphase": 0.9, "conditions": "Rain, Partially cloudy", "description": "Partly cloudy throughout the day with late afternoon rain.", "icon": "rain", "stations": ["72278903192", "KSDL", "72278023183", "KPHX", "72278303185", "SRP36", "KFFZ"], "source": "obs"}], "stations": {"72278903192": {"distance": 17807.0, "latitude": 33.623, "longitude": -111.911, "useCount": 0, "id": "72278903192", "name": "SCOTTSDALE MUNICIPAL AIRPORT, AZ US", "quality": 100, "contribution": 0.0}, "KSDL": {"distance": 17567.0, "latitude": 33.61, "longitude": -111.92, "useCount": 0, "id": "KSDL", "name": "KSDL", "quality": 100, "contribution": 0.0}, "72278023183": {"distance": 24148.0, "latitude": 33.428, "longitude": -112.004, "useCount": 0, "id": "72278023183", "name": "PHOENIX AIRPORT, AZ US", "quality": 100, "contribution": 0.0}, "KPHX": {"distance": 25411.0, "latitude": 33.43, "longitude": -112.02, "useCount": 0, "id": "KPHX", "name": "KPHX", "quality": 100, "contribution": 0.0}, "72278303185": {"distance": 6428.0, "latitude": 33.467, "longitude": -111.733, "useCount": 0, "id": "72278303185", "name": "MESA FALCON FIELD, AZ US", "quality": 100, "contribution": 0.0}, "SRP36": {"distance": 5801.0, "latitude": 33.47, "longitude": -111.74, "useCount": 0, "id": "SRP36", "name": "Falcon Field AZ US SRP", "quality": 0, "contribution": 0.0}, "KFFZ": {"distance": 6259.0, "latitude": 33.47, "longitude": -111.73, "useCount": 0, "id": "KFFZ", "name": "FALCON FLD MESA, AZ", "quality": 100, "contribution": 0.0}}}