{"queryCost": 1, "latitude": 32.492, "longitude": -93.746, "resolvedAddress": "32.49200,-93.74600", "address": "32.49200,-93.74600", "timezone": "America/Chicago", "tzoffset": -5.0, "days": [{"datetime": "2018-08-07", "datetimeEpoch": 1533618000, "tempmax": 95.3, "tempmin": 74.0, "temp": 82.9, "feelslikemax": 101.1, "feelslikemin": 74.0, "feelslike": 86.0, "dew": 70.5, "humidity": 68.6, "precip": 0.04, "precipprob": 100.0, "precipcover": 4.17, "preciptype": ["rain"], "snow": 0.0, "snowdepth": 0.0, "windgust": 34.8, "windspeed": 14.9, "winddir": 161.4, "pressure": 1016.9, "cloudcover": 25.2, "visibility": 9.9, "solarradiation": 209.2, "solarenergy": 18.1, "uvindex": 9.0, "sunrise": "06:33:27", "sunriseEpoch": 1533641607, "sunset": "20:07:34", "sunsetEpoch": 1533690454, "moonphase": 0.9, "conditions": "Rain, Partially cloudy", "description": "Partly cloudy throughout the day with late afternoon rain.", "icon": "rain", "stations": ["KDTN", "72248513944", "72248013957", "E7656", "KSHV", "72248453905", "KBAD", "CADT2"], "source": "obs"}], "stations": {"KDTN": {"distance": 4247.0, "latitude": 32.53, "longitude": -93.75, "useCount": 0, "id": "KDTN", "name": "KDTN", "quality": 100, "contribution": 0.0}, "72248513944": {"distance": 7499.0, "latitude": 32.5, "longitude": -93.667, "useCount": 0, "id": "72248513944", "name": "SHREVEPORT BARKSDALE AFB, LA US", "quality": 98, "contribution": 0.0}, "72248013957": {"distance": 8893.0, "latitude": 32.447, "longitude": -93.824, "useCount": 0, "id": "72248013957", "name": "SHREVEPORT REGIONAL AIRPORT, LA US", "quality": 100, "contribution": 0.0}, "E7656": {"distance": 9183.0, "latitude": 32.567, "longitude": -93.787, "useCount": 0, "id": "E7656", "name": "EW7656 Shreveport LA US", "quality": 0, "contribution": 0.0}, "KSHV": {"distance": 7368.0, "latitude": 32.47, "longitude": -93.82, "useCount": 0, "id": "KSHV", "name": "KSHV", "quality": 100, "contribution": 0.0}, "72248453905": {"distance": 5656.0, "latitude": 32.543, "longitude": -93.745, "useCount": 0, "id": "72248453905", "name": "SHREVEPORT DOWNTOWN AIRPORT, LA US", "quality": 100, "contribution": 0.0}, "KBAD": {"distance": 7191.0, "latitude": 32.5, "longitude": -93.67, "useCount": 0, "id": "KBAD", "name": "KBAD", "quality": 100, "contribution": 0.0}, "CADT2": {"distance": 39370.0, "latitude": 32.658, "longitude": -94.116, "useCount": 0, "id": "CADT2", "name": "CADDO LAKE TX US", "quality": 0, "contribution": 0.0}}}