{"queryCost": 1, "latitude": 36.102, "longitude": -115.054, "resolvedAddress": "36.10200,-115.05400", "address": "36.10200,-115.05400", "timezone": "America/Los_Angeles", "tzoffset": -7.0, "days": [{"datetime": "2018-08-08", "datetimeEpoch": 1533711600, "tempmax": 106.0, "tempmin": 88.0, "temp": 96.1, "feelslikemax": 106.4, "feelslikemin": 85.1, "feelslike": 94.5, "dew": 53.0, "humidity": 24.3, "precip": 0.0, "precipprob": 0.0, "precipcover": 0.0, "preciptype": null, "snow": 0.0, "snowdepth": 0.0, "windgust": 31.1, "windspeed": 15.8, "winddir": 147.7, "pressure": 1008.6, "cloudcover": 15.0, "visibility": 9.5, "solarradiation": 299.7, "solarenergy": 26.0, "uvindex": 9.0, "sunrise": "05:52:58", "sunriseEpoch": 1533732778, "sunset": "19:38:09", "sunsetEpoch": 1533782289, "moonphase": 0.94, "conditions": "Clear", "description": "Clear conditions throughout the day.", "icon": "clear-day", "stations": ["KLAS", "D2751", "74614023112", "KLSV", "72386023169", "KVGT", "72484653123"], "source": "obs"}], "stations": {"KLAS": {"distance": 10718.0, "latitude": 36.08, "longitude": -115.17, "useCount": 0, "id": "KLAS", "name": "KLAS", "quality": 100, "contribution": 0.0}, "D2751": {"distance": 3834.0, "latitude": 36.068, "longitude": -115.049, "useCount": 0, "id": "D2751", "name": "DW2751 Henderson NV US", "quality": 0, "contribution": 0.0}, "74614023112": {"distance": 16583.0, "latitude": 36.25, "longitude": -115.033, "useCount": 0, "id": "74614023112", "name": "LAS VEGAS NELLIS AFB, NV US", "quality": 96, "contribution": 0.0}, "KLSV": {"distance": 13312.0, "latitude": 36.22, "longitude": -115.03, "useCount": 0, "id": "KLSV", "name": "KLSV", "quality": 99, "contribution": 0.0}, "72386023169": {"distance": 10362.0, "latitude": 36.072, "longitude": -115.163, "useCount": 0, "id": "72386023169", "name": "MCCARRAN INTERNATIONAL AIRPORT, NV US", "quality": 100, "contribution": 0.0}, "KVGT": {"distance": 17797.0, "latitude": 36.21, "longitude": -115.2, "useCount": 0, "id": "KVGT", "name": "KVGT", "quality": 100, "contribution": 0.0}, "72484653123": {"distance": 17664.0, "latitude": 36.212, "longitude": -115.196, "useCount": 0, "id": "72484653123", "name": "LAS VEGAS AIR TERMINAL, NV US", "quality": 100, "contribution": 0.0}}}