{"queryCost": 1, "latitude": 43.021, "longitude": -87.924, "resolvedAddress": "43.02100,-87.92400", "address": "43.02100,-87.92400", "timezone": "America/Chicago", "tzoffset": -5.0, "days": [{"datetime": "2018-08-13", "datetimeEpoch": 1534136400, "tempmax": 83.9, "tempmin": 65.3, "temp": 75.5, "feelslikemax": 86.0, "feelslikemin": 65.3, "feelslike": 76.0, "dew": 64.2, "humidity": 70.3, "precip": 0.0, "precipprob": 0.0, "precipcover": 0.0, "preciptype": null, "snow": 0.0, "snowdepth": 0.0, "windgust": null, "windspeed": 12.5, "winddir": 151.6, "pressure": 1018.0, "cloudcover": 23.5, "visibility": 9.7, "solarradiation": 212.8, "solarenergy": 18.5, "uvindex": 7.0, "sunrise": "05:55:22", "sunriseEpoch": 1534157722, "sunset": "19:56:56", "sunsetEpoch": 1534208216, "moonphase": 0.03, "conditions": "Partially cloudy", "description": "Partly cloudy throughout the day.", "icon": "partly-cloudy-day", "stations": ["KENW", "AN659", "72640014839", "KRAC", "KMWC", "KMKE", "72642494818"], "source": "obs"}], "stations": {"KENW": {"distance": 46868.0, "latitude": 42.6, "longitude": -87.93, "useCount": 0, "id": "KENW", "name": "KENW", "quality": 100, "contribution": 0.0}, "AN659": {"distance": 4561.0, "latitude": 43.061, "longitude": -87.912, "useCount": 0, "id": "AN659", "name": "MILWAUKEE SER DNR WI WIDNR", "quality": 0, "contribution": 0.0}, "72640014839": {"distance": 7518.0, "latitude": 42.955, "longitude": -87.904, "useCount": 0, "id": "72640014839", "name": "MILWAUKEE MITCHELL INTERNATIONAL AIRPORT, WI US", "quality": 100, "contribution": 0.0}, "KRAC": {"distance": 30506.0, "latitude": 42.76, "longitude": -87.81, "useCount": 0, "id": "KRAC", "name": "KRAC", "quality": 100, "contribution": 0.0}, "KMWC": {"distance": 13991.0, "latitude": 43.12, "longitude": -88.03, "useCount": 0, "id": "KMWC", "name": "KMWC", "quality": 73, "contribution": 0.0}, "KMKE": {"distance": 8142.0, "latitude": 42.95, "longitude": -87.9, "useCount": 0, "id": "KMKE", "name": "KMKE", "quality": 100, "contribution": 0.0}, "72642494818": {"distance": 30301.0, "latitude": 42.761, "longitude": -87.814, "useCount": 0, "id": "72642494818", "name": "RACINE BATTEN AIRPORT, WI US", "quality": 100, "contribution": 0.0}}}