{"queryCost": 1, "latitude": 41.053, "longitude": -94.386, "resolvedAddress": "41.05300,-94.38600", "address": "41.05300,-94.38600", "timezone": "America/Chicago", "tzoffset": -5.0, "days": [{"datetime": "2018-08-13", "datetimeEpoch": 1534136400, "tempmax": 91.4, "tempmin": 62.6, "temp": 76.9, "feelslikemax": 94.2, "feelslikemin": 62.6, "feelslike": 78.3, "dew": 64.6, "humidity": 68.1, "precip": 0.0, "precipprob": 0.0, "precipcover": 0.0, "preciptype": null, "snow": 0.0, "snowdepth": 0.0, "windgust": null, "windspeed": 9.1, "winddir": 146.0, "pressure": 1016.4, "cloudcover": 22.1, "visibility": 9.7, "solarradiation": 246.0, "solarenergy": 21.2, "uvindex": 8.0, "sunrise": "06:25:13", "sunriseEpoch": 1534159513, "sunset": "20:18:49", "sunsetEpoch": 1534209529, "moonphase": 0.03, "conditions": "Partially cloudy", "description": "Becoming cloudy in the afternoon.", "icon": "partly-cloudy-day", "stations": ["72547404915", "C7529", "KCSQ", "72549994991", "KLWD", "72070154942", "KI75"], "source": "obs"}], "stations": {"72547404915": {"distance": 5449.0, "latitude": 41.007, "longitude": -94.363, "useCount": 0, "id": "72547404915", "name": "CRESTON MUNICIPAL AIRPORT, IA US", "quality": 50, "contribution": 0.0}, "C7529": {"distance": 72517.0, "latitude": 41.462, "longitude": -93.711, "useCount": 0, "id": "C7529", "name": "CW7529 Norwalk IA US", "quality": 0, "contribution": 0.0}, "KCSQ": {"distance": 3912.0, "latitude": 41.02, "longitude": -94.37, "useCount": 0, "id": "KCSQ", "name": "KCSQ", "quality": 99, "contribution": 0.0}, "72549994991": {"distance": 62295.0, "latitude": 40.631, "longitude": -93.901, "useCount": 0, "id": "72549994991", "name": "LAMONI MUNICIPAL AIRPORT, IA US", "quality": 100, "contribution": 0.0}, "KLWD": {"distance": 62389.0, "latitude": 40.63, "longitude": -93.9, "useCount": 0, "id": "KLWD", "name": "KLWD", "quality": 100, "contribution": 0.0}, "72070154942": {"distance": 58502.0, "latitude": 41.052, "longitude": -93.689, "useCount": 0, "id": "72070154942", "name": "OSCEOLA MUNICIPAL AIRPORT, IA US", "quality": 100, "contribution": 0.0}, "KI75": {"distance": 59268.0, "latitude": 41.05, "longitude": -93.68, "useCount": 0, "id": "KI75", "name": "KI75", "quality": 99, "contribution": 0.0}}}