{"queryCost": 1, "latitude": 37.58, "longitude": -120.801, "resolvedAddress": "37.58000,-120.80100", "address": "37.58000,-120.80100", "timezone": "America/Los_Angeles", "tzoffset": -7.0, "days": [{"datetime": "2018-08-18", "datetimeEpoch": 1534575600, "tempmax": 100.0, "tempmin": 67.0, "temp": 83.8, "feelslikemax": 95.7, "feelslikemin": 67.0, "feelslike": 81.8, "dew": 43.4, "humidity": 26.9, "precip": 0.0, "precipprob": 0.0, "precipcover": 0.0, "preciptype": null, "snow": 0.0, "snowdepth": 0.0, "windgust": null, "windspeed": 14.0, "winddir": 281.6, "pressure": 1014.4, "cloudcover": 0.0, "visibility": 9.4, "solarradiation": 195.7, "solarenergy": 16.9, "uvindex": 6.0, "sunrise": "06:21:40", "sunriseEpoch": 1534598500, "sunset": "19:51:42", "sunsetEpoch": 1534647102, "moonphase": 0.26, "conditions": "Clear", "description": "Clear conditions throughout the day.", "icon": "clear-day", "stations": ["KMOD", "KMCE", "72492623258", "72492023237", "D7479", "72481523257", "99999993243"], "source": "obs"}], "stations": {"KMOD": {"distance": 14271.0, "latitude": 37.63, "longitude": -120.95, "useCount": 0, "id": "KMOD", "name": "KMOD", "quality": 100, "contribution": 0.0}, "KMCE": {"distance": 42700.0, "latitude": 37.28, "longitude": -120.5, "useCount": 0, "id": "KMCE", "name": "KMCE", "quality": 100, "contribution": 0.0}, "72492623258": {"distance": 14111.0, "latitude": 37.624, "longitude": -120.951, "useCount": 0, "id": "72492623258", "name": "MODESTO CITY CO AIRPORT, CA US", "quality": 100, "contribution": 0.0}, "72492023237": {"distance": 50832.0, "latitude": 37.889, "longitude": -121.226, "useCount": 0, "id": "72492023237", "name": "STOCKTON METROPOLITAN AIRPORT, CA US", "quality": 100, "contribution": 0.0}, "D7479": {"distance": 22138.0, "latitude": 37.744, "longitude": -120.944, "useCount": 0, "id": "D7479", "name": "DW7479 Riverbank CA US", "quality": 0, "contribution": 0.0}, "72481523257": {"distance": 41578.0, "latitude": 37.285, "longitude": -120.513, "useCount": 0, "id": "72481523257", "name": "MERCED MUNICIPAL AIRPORT, CA US", "quality": 100, "contribution": 0.0}, "99999993243": {"distance": 38728.0, "latitude": 37.238, "longitude": -120.882, "useCount": 0, "id": "99999993243", "name": "MERCED 23 WSW, CA US", "quality": 100, "contribution": 0.0}}}