{"queryCost": 1, "latitude": 34.073, "longitude": -81.2, "resolvedAddress": "34.07300,-81.20000", "address": "34.07300,-81.20000", "timezone": "America/New_York", "tzoffset": -4.0, "days": [{"datetime": "2015-04-21", "datetimeEpoch": 1429588800, "tempmax": 74.3, "tempmin": 52.2, "temp": 65.2, "feelslikemax": 74.3, "feelslikemin": 52.2, "feelslike": 65.2, "dew": 45.6, "humidity": 53.1, "precip": 0.0, "precipprob": 0.0, "precipcover": 0.0, "preciptype": null, "snow": 0.0, "snowdepth": 0.0, "windgust": 23.1, "windspeed": 16.3, "winddir": 268.0, "pressure": 1011.6, "cloudcover": 8.3, "visibility": 9.9, "solarradiation": 324.1, "solarenergy": 28.0, "uvindex": 10.0, "sunrise": "06:46:48", "sunriseEpoch": 1429613208, "sunset": "20:00:48", "sunsetEpoch": 1429660848, "moonphase": 0.05, "conditions": "Clear", "description": "Clear conditions throughout the day.", "icon": "clear-day", "stations": ["KCUB", "72310013883", "72063400220", "KFDW", "72310453867", "KCAE"], "source": "obs"}], "stations": {"KCUB": {"distance": 23313.0, "latitude": 33.97, "longitude": -80.98, "useCount": 0, "id": "KCUB", "name": "KCUB", "quality": 100, "contribution": 0.0}, "72310013883": {"distance": 16400.0, "latitude": 33.942, "longitude": -81.118, "useCount": 0, "id": "72310013883", "name": "COLUMBIA METROPOLITAN AIRPORT, SC US", "quality": 100, "contribution": 0.0}, "72063400220": {"distance": 28212.0, "latitude": 34.315, "longitude": -81.109, "useCount": 0, "id": "72063400220", "name": "FAIRFIELD CO AIRPORT, SC US", "quality": 100, "contribution": 0.0}, "KFDW": {"distance": 28465.0, "latitude": 34.32, "longitude": -81.12, "useCount": 0, "id": "KFDW", "name": "KFDW", "quality": 100, "contribution": 0.0}, "72310453867": {"distance": 22020.0, "latitude": 33.971, "longitude": -80.996, "useCount": 0, "id": "72310453867", "name": "COLUMBIA OWENS DOWNTOWN AIRPORT, SC US", "quality": 100, "contribution": 0.0}, "KCAE": {"distance": 15555.0, "latitude": 33.95, "longitude": -81.12, "useCount": 0, "id": "KCAE", "name": "KCAE", "quality": 100, "contribution": 0.0}}}