{"queryCost": 1, "latitude": 33.727, "longitude": -84.408, "resolvedAddress": "33.72700,-84.40800", "address": "33.72700,-84.40800", "timezone": "America/New_York", "tzoffset": -4.0, "days": [{"datetime": "2018-08-19", "datetimeEpoch": 1534651200, "tempmax": 83.3, "tempmin": 73.0, "temp": 76.7, "feelslikemax": 88.8, "feelslikemin": 73.0, "feelslike": 77.8, "dew": 71.8, "humidity": 85.4, "precip": 0.07, "precipprob": 100.0, "precipcover": 8.33, "preciptype": ["rain"], "snow": 0.0, "snowdepth": 0.0, "windgust": null, "windspeed": 8.9, "winddir": 235.0, "pressure": 1015.0, "cloudcover": 84.5, "visibility": 9.6, "solarradiation": 103.0, "solarenergy": 9.1, "uvindex": 6.0, "sunrise": "07:02:25", "sunriseEpoch": 1534676545, "sunset": "20:19:29", "sunsetEpoch": 1534724369, "moonphase": 0.31, "conditions": "Rain, Partially cloudy", "description": "Partly cloudy throughout the day with rain.", "icon": "rain", "stations": ["KFTY", "72219013874", "E9807", "KATL", "72219503888", "72219653863", "KPDK"], "source": "obs"}], "stations": {"KFTY": {"distance": 11928.0, "latitude": 33.78, "longitude": -84.52, "useCount": 0, "id": "KFTY", "name": "KFTY", "quality": 100, "contribution": 0.0}, "72219013874": {"distance": 11232.0, "latitude": 33.63, "longitude": -84.442, "useCount": 0, "id": "72219013874", "name": "ATLANTA HARTSFIELD INTERNATIONAL AIRPORT, GA US", "quality": 100, "contribution": 0.0}, "E9807": {"distance": 28350.0, "latitude": 33.475, "longitude": -84.452, "useCount": 0, "id": "E9807", "name": "EW9807 Fayetteville GA US", "quality": 0, "contribution": 0.0}, "KATL": {"distance": 8643.0, "latitude": 33.65, "longitude": -84.42, "useCount": 0, "id": "KATL", "name": "KATL", "quality": 100, "contribution": 0.0}, "72219503888": {"distance": 11997.0, "latitude": 33.779, "longitude": -84.521, "useCount": 0, "id": "72219503888", "name": "ATLANTA FULTON CO AIRPORT, GA US", "quality": 100, "contribution": 0.0}, "72219653863": {"distance": 19163.0, "latitude": 33.875, "longitude": -84.302, "useCount": 0, "id": "72219653863", "name": "ATLANTA DEKALB PEACHTREE AIRPORT, GA US", "quality": 100, "contribution": 0.0}, "KPDK": {"distance": 19746.0, "latitude": 33.88, "longitude": -84.3, "useCount": 0, "id": "KPDK", "name": "KPDK", "quality": 100, "contribution": 0.0}}}