{"queryCost": 1, "latitude": 34.015, "longitude": -118.401, "resolvedAddress": "34.01500,-118.40100", "address": "34.01500,-118.40100", "timezone": "America/Los_Angeles", "tzoffset": -7.0, "days": [{"datetime": "2018-08-18", "datetimeEpoch": 1534575600, "tempmax": 80.2, "tempmin": 72.7, "temp": 75.8, "feelslikemax": 82.3, "feelslikemin": 72.7, "feelslike": 75.8, "dew": 66.1, "humidity": 72.4, "precip": 0.0, "precipprob": 0.0, "precipcover": 0.0, "preciptype": null, "snow": 0.0, "snowdepth": 0.0, "windgust": null, "windspeed": 10.8, "winddir": 224.8, "pressure": 1016.3, "cloudcover": 42.3, "visibility": 8.9, "solarradiation": 215.2, "solarenergy": 18.6, "uvindex": 8.0, "sunrise": "06:17:21", "sunriseEpoch": 1534598241, "sunset": "19:36:54", "sunsetEpoch": 1534646214, "moonphase": 0.26, "conditions": "Partially cloudy", "description": "Clearing in the afternoon.", "icon": "partly-cloudy-day", "stations": ["72288593197", "D4674", "72295023174", "KSMO", "KLAX", "72287493134"], "source": "obs"}], "stations": {"72288593197": {"distance": 4614.0, "latitude": 34.016, "longitude": -118.451, "useCount": 0, "id": "72288593197", "name": "SANTA MONICA MUNICIPAL AIRPORT, CA US", "quality": 100, "contribution": 0.0}, "D4674": {"distance": 4265.0, "latitude": 33.993, "longitude": -118.439, "useCount": 0, "id": "D4674", "name": "DW4674 Venice CA US", "quality": 0, "contribution": 0.0}, "72295023174": {"distance": 8643.0, "latitude": 33.938, "longitude": -118.389, "useCount": 0, "id": "72295023174", "name": "LOS ANGELES INTERNATIONAL AIRPORT, CA US", "quality": 100, "contribution": 0.0}, "KSMO": {"distance": 4555.0, "latitude": 34.02, "longitude": -118.45, "useCount": 0, "id": "KSMO", "name": "KSMO", "quality": 97, "contribution": 0.0}, "KLAX": {"distance": 9463.0, "latitude": 33.93, "longitude": -118.4, "useCount": 0, "id": "KLAX", "name": "KLAX", "quality": 100, "contribution": 0.0}, "72287493134": {"distance": 10194.0, "latitude": 34.024, "longitude": -118.291, "useCount": 0, "id": "72287493134", "name": "LOS ANGELES DOWNTOWN USC, CA US", "quality": 100, "contribution": 0.0}}}