{"queryCost": 1, "latitude": 34.693, "longitude": -81.836, "resolvedAddress": "34.69300,-81.83600", "address": "34.69300,-81.83600", "timezone": "America/New_York", "tzoffset": -4.0, "days": [{"datetime": "2018-08-24", "datetimeEpoch": 1535083200, "tempmax": 79.6, "tempmin": 56.8, "temp": 67.8, "feelslikemax": 79.6, "feelslikemin": 56.8, "feelslike": 67.8, "dew": 55.5, "humidity": 67.5, "precip": 0.03, "precipprob": 100.0, "precipcover": 12.5, "preciptype": ["rain"], "snow": 0.0, "snowdepth": 0.0, "windgust": null, "windspeed": 7.8, "winddir": 43.6, "pressure": 1021.5, "cloudcover": 2.8, "visibility": 9.7, "solarradiation": 273.7, "solarenergy": 23.8, "uvindex": 9.0, "sunrise": "06:54:27", "sunriseEpoch": 1535108067, "sunset": "20:04:19", "sunsetEpoch": 1535155459, "moonphase": 0.48, "conditions": "Rain", "description": "Clear conditions throughout the day with rain.", "icon": "rain", "stations": ["72312003870", "KLUX", "KSPA", "99999993804", "72059700190", "72312699999", "WHIS1"], "source": "obs"}], "stations": {"72312003870": {"distance": 41800.0, "latitude": 34.906, "longitude": -82.212, "useCount": 0, "id": "72312003870", "name": "GRNVL SPART INTERNATIONAL AIRPORT, SC US", "quality": 100, "contribution": 0.0}, "KLUX": {"distance": 23890.0, "latitude": 34.5, "longitude": -81.95, "useCount": 0, "id": "KLUX", "name": "KLUX", "quality": 95, "contribution": 0.0}, "KSPA": {"distance": 25290.0, "latitude": 34.9, "longitude": -81.95, "useCount": 0, "id": "KSPA", "name": "KSPA", "quality": 99, "contribution": 0.0}, "99999993804": {"distance": 26994.0, "latitude": 34.917, "longitude": -81.95, "useCount": 0, "id": "99999993804", "name": "SPARTANBURG, SC US", "quality": 99, "contribution": 0.0}, "72059700190": {"distance": 23890.0, "latitude": 34.5, "longitude": -81.95, "useCount": 0, "id": "72059700190", "name": "LAURENS CO AIRPORT, SC US", "quality": 100, "contribution": 0.0}, "72312699999": {"distance": 27127.0, "latitude": 34.916, "longitude": -81.956, "useCount": 0, "id": "72312699999", "name": "SPARTANBURG DOWNTOWN MEM, SC US", "quality": 100, "contribution": 0.0}, "WHIS1": {"distance": 30468.0, "latitude": 34.538, "longitude": -81.562, "useCount": 0, "id": "WHIS1", "name": "WHITMIRE SC US", "quality": 0, "contribution": 0.0}}}