{"queryCost": 1, "latitude": 34.133, "longitude": -95.157, "resolvedAddress": "34.13300,-95.15700", "address": "34.13300,-95.15700", "timezone": "America/Chicago", "tzoffset": -5.0, "days": [{"datetime": "2015-04-23", "datetimeEpoch": 1429765200, "tempmax": 67.0, "tempmin": 57.3, "temp": 61.7, "feelslikemax": 67.0, "feelslikemin": 57.3, "feelslike": 61.7, "dew": 55.1, "humidity": 79.4, "precip": 0.15, "precipprob": 100.0, "precipcover": 29.17, "preciptype": ["rain"], "snow": 0.0, "snowdepth": 0.0, "windgust": 22.3, "windspeed": 14.5, "winddir": 90.2, "pressure": 1014.4, "cloudcover": 88.9, "visibility": 9.4, "solarradiation": 143.3, "solarenergy": 12.6, "uvindex": 5.0, "sunrise": "06:40:10", "sunriseEpoch": 1429789210, "sunset": "19:58:17", "sunsetEpoch": 1429837097, "moonphase": 0.13, "conditions": "Rain, Partially cloudy", "description": "Partly cloudy throughout the day with rain clearing later.", "icon": "rain", "stations": ["72375953990", "74331253925", "KDEQ", "KPRX", "72258793955", "K4O4"], "source": "obs"}], "stations": {"72375953990": {"distance": 37061.0, "latitude": 33.909, "longitude": -94.859, "useCount": 0, "id": "72375953990", "name": "IDABEL MCCURTAIN CO REGIONAL AIRPORT, OK US", "quality": 100, "contribution": 0.0}, "74331253925": {"distance": 70322.0, "latitude": 34.05, "longitude": -94.401, "useCount": 0, "id": "74331253925", "name": "DE QUEEN SEVIER CO AIRPORT, AR US", "quality": 100, "contribution": 0.0}, "KDEQ": {"distance": 70554.0, "latitude": 34.04, "longitude": -94.4, "useCount": 0, "id": "KDEQ", "name": "KDEQ", "quality": 100, "contribution": 0.0}, "KPRX": {"distance": 62197.0, "latitude": 33.63, "longitude": -95.45, "useCount": 0, "id": "KPRX", "name": "PARIS/COX, TX", "quality": 100, "contribution": 0.0}, "72258793955": {"distance": 61867.0, "latitude": 33.633, "longitude": -95.45, "useCount": 0, "id": "72258793955", "name": "PARIS, TX US", "quality": 99, "contribution": 0.0}, "K4O4": {"distance": 37732.0, "latitude": 33.9, "longitude": -94.86, "useCount": 0, "id": "K4O4", "name": "K4O4", "quality": 100, "contribution": 0.0}}}