{"queryCost": 1, "latitude": 34.023, "longitude": -117.116, "resolvedAddress": "34.02300,-117.11600", "address": "34.02300,-117.11600", "timezone": "America/Los_Angeles", "tzoffset": -7.0, "days": [{"datetime": "2018-08-28", "datetimeEpoch": 1535439600, "tempmax": 86.1, "tempmin": 59.0, "temp": 70.9, "feelslikemax": 83.7, "feelslikemin": 59.0, "feelslike": 70.5, "dew": 52.7, "humidity": 56.6, "precip": 0.0, "precipprob": 0.0, "precipcover": 0.0, "preciptype": null, "snow": 0.0, "snowdepth": 0.0, "windgust": 20.8, "windspeed": 12.4, "winddir": 263.0, "pressure": 1012.5, "cloudcover": 14.8, "visibility": 9.5, "solarradiation": 269.8, "solarenergy": 23.3, "uvindex": 8.0, "sunrise": "06:19:16", "sunriseEpoch": 1535462356, "sunset": "19:19:26", "sunsetEpoch": 1535509166, "moonphase": 0.52, "conditions": "Clear", "description": "Clear conditions throughout the day.", "icon": "clear-day", "stations": ["KL35", "KRAL", "72286023119", "KRIV", "MMKC1", "72286903171"], "source": "obs"}], "stations": {"KL35": {"distance": 35389.0, "latitude": 34.26, "longitude": -116.86, "useCount": 0, "id": "KL35", "name": "KL35", "quality": 100, "contribution": 0.0}, "KRAL": {"distance": 31882.0, "latitude": 33.95, "longitude": -117.45, "useCount": 0, "id": "KRAL", "name": "KRAL", "quality": 100, "contribution": 0.0}, "72286023119": {"distance": 18454.0, "latitude": 33.9, "longitude": -117.25, "useCount": 0, "id": "72286023119", "name": "MARCH AFB, CA US", "quality": 97, "contribution": 0.0}, "KRIV": {"distance": 21345.0, "latitude": 33.88, "longitude": -117.27, "useCount": 0, "id": "KRIV", "name": "KRIV", "quality": 100, "contribution": 0.0}, "MMKC1": {"distance": 8971.0, "latitude": 34.08, "longitude": -117.047, "useCount": 0, "id": "MMKC1", "name": "MILL CREEK (BDF) CA US", "quality": 0, "contribution": 0.0}, "72286903171": {"distance": 30846.0, "latitude": 33.952, "longitude": -117.439, "useCount": 0, "id": "72286903171", "name": "RIVERSIDE MUNICIPAL AIRPORT, CA US", "quality": 100, "contribution": 0.0}}}