{"queryCost": 1, "latitude": 42.908, "longitude": -78.892, "resolvedAddress": "42.90800,-78.89200", "address": "42.90800,-78.89200", "timezone": "America/New_York", "tzoffset": -4.0, "days": [{"datetime": "2018-09-12", "datetimeEpoch": 1536724800, "tempmax": 74.5, "tempmin": 59.0, "temp": 66.6, "feelslikemax": 74.5, "feelslikemin": 59.0, "feelslike": 66.6, "dew": 61.6, "humidity": 84.8, "precip": 0.0, "precipprob": 0.0, "precipcover": 0.0, "preciptype": null, "snow": 0.0, "snowdepth": 0.0, "windgust": 19.5, "windspeed": 10.7, "winddir": 55.3, "pressure": 1023.9, "cloudcover": 77.3, "visibility": 24.3, "solarradiation": 168.4, "solarenergy": 14.5, "uvindex": 7.0, "sunrise": "06:51:56", "sunriseEpoch": 1536749516, "sunset": "19:30:55", "sunsetEpoch": 1536795055, "moonphase": 0.05, "conditions": "Partially cloudy", "description": "Partly cloudy throughout the day.", "icon": "partly-cloudy-day", "stations": ["71752099999", "71432099999", "72528014733", "KIAG", "E5040", "72528704724", "KBUF"], "source": "obs"}], "stations": {"71752099999": {"distance": 36356.0, "latitude": 42.97, "longitude": -79.33, "useCount": 0, "id": "71752099999", "name": "WELLAND PELHAM, CA", "quality": 98, "contribution": 0.0}, "71432099999": {"distance": 46330.0, "latitude": 43.25, "longitude": -79.217, "useCount": 0, "id": "71432099999", "name": "PORT WELLER AUT ONT, CA", "quality": 100, "contribution": 0.0}, "72528014733": {"distance": 13246.0, "latitude": 42.941, "longitude": -78.736, "useCount": 0, "id": "72528014733", "name": "BUFFALO NIAGARA INTERNATIONAL, NY US", "quality": 100, "contribution": 0.0}, "KIAG": {"distance": 21889.0, "latitude": 43.1, "longitude": -78.95, "useCount": 0, "id": "KIAG", "name": "KIAG", "quality": 100, "contribution": 0.0}, "E5040": {"distance": 10502.0, "latitude": 42.895, "longitude": -79.019, "useCount": 0, "id": "E5040", "name": "EW5040 Ridgeway CA", "quality": 0, "contribution": 0.0}, "72528704724": {"distance": 22611.0, "latitude": 43.108, "longitude": -78.938, "useCount": 0, "id": "72528704724", "name": "NIAGARA FALLS INTERNATIONAL AIRPORT, NY US", "quality": 99, "contribution": 0.0}, "KBUF": {"distance": 13432.0, "latitude": 42.93, "longitude": -78.73, "useCount": 0, "id": "KBUF", "name": "KBUF", "quality": 100, "contribution": 0.0}}}