{"queryCost": 1, "latitude": 36.076, "longitude": -115.056, "resolvedAddress": "36.07600,-115.05600", "address": "36.07600,-115.05600", "timezone": "America/Los_Angeles", "tzoffset": -7.0, "days": [{"datetime": "2018-09-13", "datetimeEpoch": 1536822000, "tempmax": 94.8, "tempmin": 77.7, "temp": 85.9, "feelslikemax": 90.0, "feelslikemin": 77.7, "feelslike": 83.1, "dew": 25.1, "humidity": 11.7, "precip": 0.0, "precipprob": 0.0, "precipcover": 0.0, "preciptype": null, "snow": 0.0, "snowdepth": 0.0, "windgust": 33.8, "windspeed": 22.3, "winddir": 203.5, "pressure": 1007.8, "cloudcover": 5.6, "visibility": 9.9, "solarradiation": 294.8, "solarenergy": 25.5, "uvindex": 9.0, "sunrise": "06:21:11", "sunriseEpoch": 1536844871, "sunset": "18:50:22", "sunsetEpoch": 1536889822, "moonphase": 0.09, "conditions": "Clear", "description": "Clear conditions throughout the day.", "icon": "clear-day", "stations": ["KLAS", "KHND", "D2751", "74614023112", "KLSV", "72386023169", "72209653127"], "source": "obs"}], "stations": {"KLAS": {"distance": 10266.0, "latitude": 36.08, "longitude": -115.17, "useCount": 0, "id": "KLAS", "name": "KLAS", "quality": 100, "contribution": 0.0}, "KHND": {"distance": 13551.0, "latitude": 35.97, "longitude": -115.13, "useCount": 0, "id": "KHND", "name": "LAS VEGAS/HENDER, NV", "quality": 95, "contribution": 0.0}, "D2751": {"distance": 1109.0, "latitude": 36.068, "longitude": -115.049, "useCount": 0, "id": "D2751", "name": "DW2751 Henderson NV US", "quality": 0, "contribution": 0.0}, "74614023112": {"distance": 19480.0, "latitude": 36.25, "longitude": -115.033, "useCount": 0, "id": "74614023112", "name": "LAS VEGAS NELLIS AFB, NV US", "quality": 96, "contribution": 0.0}, "KLSV": {"distance": 16199.0, "latitude": 36.22, "longitude": -115.03, "useCount": 0, "id": "KLSV", "name": "KLSV", "quality": 99, "contribution": 0.0}, "72386023169": {"distance": 9638.0, "latitude": 36.072, "longitude": -115.163, "useCount": 0, "id": "72386023169", "name": "MCCARRAN INTERNATIONAL AIRPORT, NV US", "quality": 100, "contribution": 0.0}, "72209653127": {"distance": 13057.0, "latitude": 35.976, "longitude": -115.132, "useCount": 0, "id": "72209653127", "name": "LAS VEGAS HENDERSON AIRPORT, NV US", "quality": 95, "contribution": 0.0}}}