{"queryCost": 1, "latitude": 21.278, "longitude": -157.828, "resolvedAddress": "21.27800,-157.82800", "address": "21.27800,-157.82800", "timezone": "Pacific/Honolulu", "tzoffset": -10.0, "days": [{"datetime": "2018-09-20", "datetimeEpoch": 1537437600, "tempmax": 87.5, "tempmin": 74.2, "temp": 80.8, "feelslikemax": 99.0, "feelslikemin": 74.2, "feelslike": 85.5, "dew": 72.4, "humidity": 75.9, "precip": 0.0, "precipprob": 0.0, "precipcover": 0.0, "preciptype": null, "snow": 0.0, "snowdepth": 0.0, "windgust": null, "windspeed": 11.8, "winddir": 197.5, "pressure": 1012.7, "cloudcover": 44.2, "visibility": 9.9, "solarradiation": 137.9, "solarenergy": 11.8, "uvindex": 9.0, "sunrise": "06:19:35", "sunriseEpoch": 1537460375, "sunset": "18:29:20", "sunsetEpoch": 1537504160, "moonphase": 0.41, "conditions": "Partially cloudy", "description": "Becoming cloudy in the afternoon.", "icon": "partly-cloudy-day", "stations": ["91176022519", "PHNL", "PHNG", "C9190", "91178022551", "91182022521"], "source": "obs"}], "stations": {"91176022519": {"distance": 20185.0, "latitude": 21.451, "longitude": -157.768, "useCount": 0, "id": "91176022519", "name": "KANEOHE BAY MCAS, HI US", "quality": 98, "contribution": 0.0}, "PHNL": {"distance": 13272.0, "latitude": 21.35, "longitude": -157.93, "useCount": 0, "id": "PHNL", "name": "HONOLULU INTL,HI", "quality": 100, "contribution": 0.0}, "PHNG": {"distance": 20069.0, "latitude": 21.45, "longitude": -157.77, "useCount": 0, "id": "PHNG", "name": "PHNG", "quality": 97, "contribution": 0.0}, "C9190": {"distance": 14145.0, "latitude": 21.374, "longitude": -157.739, "useCount": 0, "id": "C9190", "name": "CW9190 Kailua HI US", "quality": 0, "contribution": 0.0}, "91178022551": {"distance": 25160.0, "latitude": 21.317, "longitude": -158.067, "useCount": 0, "id": "91178022551", "name": "EWA KALAELOA AIRPORT, HI US", "quality": 98, "contribution": 0.0}, "91182022521": {"distance": 11660.0, "latitude": 21.324, "longitude": -157.929, "useCount": 0, "id": "91182022521", "name": "HONOLULU INTERNATIONAL AIRPORT, HI US", "quality": 100, "contribution": 0.0}}}