{"queryCost": 1, "latitude": 36.396, "longitude": -97.878, "resolvedAddress": "36.39600,-97.87800", "address": "36.39600,-97.87800", "timezone": "America/Chicago", "tzoffset": -5.0, "days": [{"datetime": "2018-09-27", "datetimeEpoch": 1538024400, "tempmax": 73.8, "tempmin": 43.4, "temp": 58.7, "feelslikemax": 73.8, "feelslikemin": 43.4, "feelslike": 58.6, "dew": 46.8, "humidity": 69.3, "precip": 0.0, "precipprob": 0.0, "precipcover": 0.0, "preciptype": null, "snow": 0.0, "snowdepth": 0.0, "windgust": 16.1, "windspeed": 13.8, "winddir": 112.5, "pressure": 1017.6, "cloudcover": 7.5, "visibility": 9.5, "solarradiation": 213.9, "solarenergy": 18.4, "uvindex": 7.0, "sunrise": "07:23:24", "sunriseEpoch": 1538051004, "sunset": "19:20:55", "sunsetEpoch": 1538094055, "moonphase": 0.53, "conditions": "Clear", "description": "Clear conditions throughout the day.", "icon": "clear-day", "stations": ["KEND", "72353513909", "72353653986", "KBKN", "KWDG", "72062500212", "AS677"], "source": "obs"}], "stations": {"KEND": {"distance": 8256.0, "latitude": 36.33, "longitude": -97.92, "useCount": 0, "id": "KEND", "name": "KEND", "quality": 100, "contribution": 0.0}, "72353513909": {"distance": 7794.0, "latitude": 36.333, "longitude": -97.917, "useCount": 0, "id": "72353513909", "name": "ENID VANCE AFB, OK US", "quality": 99, "contribution": 0.0}, "72353653986": {"distance": 7131.0, "latitude": 36.383, "longitude": -97.8, "useCount": 0, "id": "72353653986", "name": "ENID WOODRING AIRPORT, OK US", "quality": 83, "contribution": 0.0}, "KBKN": {"distance": 61490.0, "latitude": 36.75, "longitude": -97.35, "useCount": 0, "id": "KBKN", "name": "KBKN", "quality": 99, "contribution": 0.0}, "KWDG": {"distance": 8961.0, "latitude": 36.38, "longitude": -97.78, "useCount": 0, "id": "KWDG", "name": "KWDG", "quality": 73, "contribution": 0.0}, "72062500212": {"distance": 61490.0, "latitude": 36.75, "longitude": -97.35, "useCount": 0, "id": "72062500212", "name": "BLACKWELL TONKAWA MUNICIPAL AIRPORT, OK US", "quality": 100, "contribution": 0.0}, "AS677": {"distance": 41791.0, "latitude": 36.476, "longitude": -97.422, "useCount": 0, "id": "AS677", "name": "W5YDW Billings OK US", "quality": 0, "contribution": 0.0}}}