{"queryCost": 1, "latitude": 32.295, "longitude": -106.763, "resolvedAddress": "32.29500,-106.76300", "address": "32.29500,-106.76300", "timezone": "America/Denver", "tzoffset": -6.0, "days": [{"datetime": "2018-09-27", "datetimeEpoch": 1538028000, "tempmax": 87.4, "tempmin": 55.8, "temp": 71.0, "feelslikemax": 84.0, "feelslikemin": 55.8, "feelslike": 70.3, "dew": 49.4, "humidity": 52.87, "precip": 0.0, "precipprob": null, "precipcover": 0.0, "preciptype": null, "snow": 0.0, "snowdepth": 0.0, "windgust": null, "windspeed": 7.9, "winddir": 178.2, "pressure": 1013.6, "cloudcover": 1.9, "visibility": 9.9, "solarradiation": 450.5, "solarenergy": 21.1, "uvindex": 8.0, "sunrise": "06:58:25", "sunriseEpoch": 1538053105, "sunset": "18:57:02", "sunsetEpoch": 1538096222, "moonphase": 0.53, "conditions": "Clear", "description": "Clear conditions throughout the day.", "icon": "clear-day", "stations": ["99999903074", "NMC07", "KLRU", "KBIF", "72270499999", "72364099999", "72269593041"], "source": "obs"}], "stations": {"99999903074": {"distance": 35538.0, "latitude": 32.614, "longitude": -106.741, "useCount": 0, "id": "99999903074", "name": "LAS CRUCES 20 N, NM US", "quality": 100, "contribution": 0.0}, "NMC07": {"distance": 1453.0, "latitude": 32.282, "longitude": -106.76, "useCount": 0, "id": "NMC07", "name": "NMSU Main Campus NM US NMCC", "quality": 0, "contribution": 0.0}, "KLRU": {"distance": 14869.0, "latitude": 32.28, "longitude": -106.92, "useCount": 0, "id": "KLRU", "name": "KLRU", "quality": 100, "contribution": 0.0}, "KBIF": {"distance": 61312.0, "latitude": 31.85, "longitude": -106.38, "useCount": 0, "id": "KBIF", "name": "KBIF", "quality": 98, "contribution": 0.0}, "72270499999": {"distance": 61357.0, "latitude": 31.85, "longitude": -106.38, "useCount": 0, "id": "72270499999", "name": "BIGGS ARMY AIR FIELD FORT BLISS TEXAS USA, TX US", "quality": 98, "contribution": 0.0}, "72364099999": {"distance": 46499.0, "latitude": 31.88, "longitude": -106.703, "useCount": 0, "id": "72364099999", "name": "DONA ANA CO INTERNATIONAL JETPORT ARPT SANTA TERESA, NM US", "quality": 100, "contribution": 0.0}, "72269593041": {"distance": 14551.0, "latitude": 32.283, "longitude": -106.917, "useCount": 0, "id": "72269593041", "name": "LAS CRUCES MUNICIPAL AIRPORT, NM US", "quality": 100, "contribution": 0.0}}}