{"queryCost": 1, "latitude": 30.504, "longitude": -90.462, "resolvedAddress": "30.50400,-90.46200", "address": "30.50400,-90.46200", "timezone": "America/Chicago", "tzoffset": -5.0, "days": [{"datetime": "2018-09-27", "datetimeEpoch": 1538024400, "tempmax": 86.0, "tempmin": 70.7, "temp": 75.2, "feelslikemax": 91.9, "feelslikemin": 70.7, "feelslike": 76.1, "dew": 71.7, "humidity": 90.1, "precip": 1.53, "precipprob": 100.0, "precipcover": 29.17, "preciptype": ["rain"], "snow": 0.0, "snowdepth": 0.0, "windgust": null, "windspeed": 6.9, "winddir": 237.4, "pressure": 1015.5, "cloudcover": 69.6, "visibility": 9.1, "solarradiation": 128.1, "solarenergy": 11.0, "uvindex": 5.0, "sunrise": "06:52:58", "sunriseEpoch": 1538049178, "sunset": "18:52:08", "sunsetEpoch": 1538092328, "moonphase": 0.53, "conditions": "Rain, Partially cloudy", "description": "Partly cloudy throughout the day with rain.", "icon": "rain", "stations": ["72104600460", "KASD", "72231203908", "72231012916", "KMSY", "E5825", "KHDC"], "source": "obs"}], "stations": {"72104600460": {"distance": 58944.0, "latitude": 30.173, "longitude": -90.941, "useCount": 0, "id": "72104600460", "name": "LOUISIANA REGIONAL AIRPORT, LA US", "quality": 100, "contribution": 0.0}, "KASD": {"distance": 63964.0, "latitude": 30.35, "longitude": -89.82, "useCount": 0, "id": "KASD", "name": "KASD", "quality": 100, "contribution": 0.0}, "72231203908": {"distance": 4660.0, "latitude": 30.521, "longitude": -90.417, "useCount": 0, "id": "72231203908", "name": "HAMMOND MUNICIPAL AIRPORT, LA US", "quality": 100, "contribution": 0.0}, "72231012916": {"distance": 59172.0, "latitude": 29.997, "longitude": -90.277, "useCount": 0, "id": "72231012916", "name": "NEW ORLEANS AIRPORT, LA US", "quality": 100, "contribution": 0.0}, "KMSY": {"distance": 61792.0, "latitude": 29.98, "longitude": -90.25, "useCount": 0, "id": "KMSY", "name": "KMSY", "quality": 100, "contribution": 0.0}, "E5825": {"distance": 3568.0, "latitude": 30.495, "longitude": -90.426, "useCount": 0, "id": "E5825", "name": "EW5825 Hammond LA US", "quality": 0, "contribution": 0.0}, "KHDC": {"distance": 4404.0, "latitude": 30.52, "longitude": -90.42, "useCount": 0, "id": "KHDC", "name": "KHDC", "quality": 100, "contribution": 0.0}}}