{"queryCost": 1, "latitude": 33.696, "longitude": -117.956, "resolvedAddress": "33.69600,-117.95600", "address": "33.69600,-117.95600", "timezone": "America/Los_Angeles", "tzoffset": -7.0, "days": [{"datetime": "2015-04-26", "datetimeEpoch": 1430031600, "tempmax": 70.7, "tempmin": 53.3, "temp": 62.2, "feelslikemax": 70.7, "feelslikemin": 53.3, "feelslike": 62.2, "dew": 48.9, "humidity": 63.7, "precip": 0.0, "precipprob": 0.0, "precipcover": 0.0, "preciptype": null, "snow": 0.0, "snowdepth": 0.0, "windgust": 18.3, "windspeed": 10.8, "winddir": 160.4, "pressure": 1014.0, "cloudcover": 34.8, "visibility": 9.8, "solarradiation": 322.8, "solarenergy": 27.9, "uvindex": 10.0, "sunrise": "06:08:33", "sunriseEpoch": 1430053713, "sunset": "19:31:13", "sunsetEpoch": 1430101873, "moonphase": 0.27, "conditions": "Partially cloudy", "description": "Partly cloudy throughout the day.", "icon": "partly-cloudy-day", "stations": ["KFUL", "72297793184", "KSLI", "KSNA", "72297603166", "72297023129"], "source": "obs"}], "stations": {"KFUL": {"distance": 18391.0, "latitude": 33.86, "longitude": -117.98, "useCount": 0, "id": "KFUL", "name": "KFUL", "quality": 100, "contribution": 0.0}, "72297793184": {"distance": 8524.0, "latitude": 33.68, "longitude": -117.866, "useCount": 0, "id": "72297793184", "name": "SANTA ANA JOHN WAYNE AIRPORT, CA US", "quality": 100, "contribution": 0.0}, "KSLI": {"distance": 12773.0, "latitude": 33.78, "longitude": -118.05, "useCount": 0, "id": "KSLI", "name": "KSLI", "quality": 93, "contribution": 0.0}, "KSNA": {"distance": 8163.0, "latitude": 33.68, "longitude": -117.87, "useCount": 0, "id": "KSNA", "name": "KSNA", "quality": 100, "contribution": 0.0}, "72297603166": {"distance": 19696.0, "latitude": 33.872, "longitude": -117.979, "useCount": 0, "id": "72297603166", "name": "FULLERTON MUNICIPAL AIRPORT, CA US", "quality": 100, "contribution": 0.0}, "72297023129": {"distance": 21791.0, "latitude": 33.812, "longitude": -118.146, "useCount": 0, "id": "72297023129", "name": "LONG BEACH DAUGHERTY AIRPORT, CA US", "quality": 100, "contribution": 0.0}}}