{"queryCost": 1, "latitude": 38.938, "longitude": -121.107, "resolvedAddress": "38.93800,-121.10700", "address": "38.93800,-121.10700", "timezone": "America/Los_Angeles", "tzoffset": -7.0, "days": [{"datetime": "2018-10-07", "datetimeEpoch": 1538895600, "tempmax": 75.1, "tempmin": 51.7, "temp": 63.5, "feelslikemax": 75.1, "feelslikemin": 51.7, "feelslike": 63.5, "dew": 34.5, "humidity": 36.29, "precip": 0.0, "precipprob": null, "precipcover": 0.0, "preciptype": null, "snow": 0.0, "snowdepth": 0.0, "windgust": 21.9, "windspeed": 16.1, "winddir": 268.9, "pressure": 1012.1, "cloudcover": 0.0, "visibility": 9.9, "solarradiation": 300.5, "solarenergy": 14.1, "uvindex": 7.0, "sunrise": "07:06:06", "sunriseEpoch": 1538921166, "sunset": "18:37:39", "sunsetEpoch": 1538962659, "moonphase": 0.99, "conditions": "Clear", "description": "Clear conditions throughout the day.", "icon": "clear-day", "stations": ["72483893205", "72061400205", "C0713", "KBAB", "KAUN", "72483793216", "KGOO"], "source": "obs"}], "stations": {"72483893205": {"distance": 43847.0, "latitude": 39.102, "longitude": -121.568, "useCount": 0, "id": "72483893205", "name": "MARYSVILLE YUBA CO AIRPORT, CA US", "quality": 100, "contribution": 0.0}, "72061400205": {"distance": 21377.0, "latitude": 38.909, "longitude": -121.351, "useCount": 0, "id": "72061400205", "name": "LINCOLN REGIONAL AIRPORT KARL HARDER FIELD, CA US", "quality": 100, "contribution": 0.0}, "C0713": {"distance": 10272.0, "latitude": 39.016, "longitude": -121.044, "useCount": 0, "id": "C0713", "name": "CW0713 Auburn CA US", "quality": 0, "contribution": 0.0}, "KBAB": {"distance": 35169.0, "latitude": 39.13, "longitude": -121.43, "useCount": 0, "id": "KBAB", "name": "KBAB", "quality": 100, "contribution": 0.0}, "KAUN": {"distance": 2692.0, "latitude": 38.95, "longitude": -121.08, "useCount": 0, "id": "KAUN", "name": "KAUN", "quality": 100, "contribution": 0.0}, "72483793216": {"distance": 35598.0, "latitude": 39.133, "longitude": -121.433, "useCount": 0, "id": "72483793216", "name": "BEALE AFB, CA US", "quality": 96, "contribution": 0.0}, "KGOO": {"distance": 31659.0, "latitude": 39.21, "longitude": -121.0, "useCount": 0, "id": "KGOO", "name": "KGOO", "quality": 97, "contribution": 0.0}}}