{"queryCost": 1, "latitude": 39.947, "longitude": -83.064, "resolvedAddress": "39.94700,-83.06400", "address": "39.94700,-83.06400", "timezone": "America/New_York", "tzoffset": -4.0, "days": [{"datetime": "2018-10-15", "datetimeEpoch": 1539576000, "tempmax": 58.8, "tempmin": 42.5, "temp": 53.2, "feelslikemax": 58.8, "feelslikemin": 39.1, "feelslike": 52.3, "dew": 50.0, "humidity": 89.16, "precip": 0.06, "precipprob": null, "precipcover": 33.33, "preciptype": null, "snow": 0.0, "snowdepth": 0.0, "windgust": 18.3, "windspeed": 16.5, "winddir": 253.0, "pressure": 1017.6, "cloudcover": 86.3, "visibility": 7.1, "solarradiation": 55.0, "solarenergy": 2.4, "uvindex": 1.0, "sunrise": "07:42:38", "sunriseEpoch": 1539603758, "sunset": "18:52:43", "sunsetEpoch": 1539643963, "moonphase": 0.19, "conditions": "Rain, Partially cloudy", "description": "Partly cloudy throughout the day with rain in the morning and afternoon.", "icon": "rain", "stations": ["KCMH", "KTZR", "KUYF", "KOSU", "72428804804", "E5493", "72428014821"], "source": "obs"}], "stations": {"KCMH": {"distance": 16769.0, "latitude": 40.0, "longitude": -82.88, "useCount": 0, "id": "KCMH", "name": "KCMH", "quality": 100, "contribution": 0.0}, "KTZR": {"distance": 7689.0, "latitude": 39.9, "longitude": -83.13, "useCount": 0, "id": "KTZR", "name": "KTZR", "quality": 86, "contribution": 0.0}, "KUYF": {"distance": 33852.0, "latitude": 39.93, "longitude": -83.46, "useCount": 0, "id": "KUYF", "name": "KUYF", "quality": 100, "contribution": 0.0}, "KOSU": {"distance": 14814.0, "latitude": 40.08, "longitude": -83.07, "useCount": 0, "id": "KOSU", "name": "KOSU", "quality": 100, "contribution": 0.0}, "72428804804": {"distance": 14643.0, "latitude": 40.078, "longitude": -83.078, "useCount": 0, "id": "72428804804", "name": "COLUMBUS OHIO STATE UNIVERSITY AIRPORT, OH US", "quality": 100, "contribution": 0.0}, "E5493": {"distance": 6668.0, "latitude": 40.004, "longitude": -83.039, "useCount": 0, "id": "E5493", "name": "EW5493 Columbus OH US", "quality": 0, "contribution": 0.0}, "72428014821": {"distance": 16679.0, "latitude": 39.991, "longitude": -82.877, "useCount": 0, "id": "72428014821", "name": "PORT COLUMBUS INTERNATIONAL AIRPORT, OH US", "quality": 100, "contribution": 0.0}}}