{"queryCost": 1, "latitude": 42.723, "longitude": -88.543, "resolvedAddress": "42.72300,-88.54300", "address": "42.72300,-88.54300", "timezone": "America/Chicago", "tzoffset": -5.0, "days": [{"datetime": "2018-10-18", "datetimeEpoch": 1539838800, "tempmax": 57.6, "tempmin": 23.4, "temp": 41.7, "feelslikemax": 57.6, "feelslikemin": 23.4, "feelslike": 41.0, "dew": 27.8, "humidity": 63.17, "precip": 0.0, "precipprob": null, "precipcover": 0.0, "preciptype": null, "snow": 0.0, "snowdepth": 0.0, "windgust": 18.8, "windspeed": 11.4, "winddir": 258.5, "pressure": 1030.7, "cloudcover": 0.0, "visibility": 9.9, "solarradiation": 308.2, "solarenergy": 14.4, "uvindex": 6.0, "sunrise": "07:10:56", "sunriseEpoch": 1539864656, "sunset": "18:06:57", "sunsetEpoch": 1539904017, "moonphase": 0.33, "conditions": "Clear", "description": "Clear conditions throughout the day.", "icon": "clear-day", "stations": ["KENW", "C8077", "KBUU", "72646454834", "KRYV", "72650504845", "F0313", "72205904866", "AR976"], "source": "obs"}], "stations": {"KENW": {"distance": 52015.0, "latitude": 42.6, "longitude": -87.93, "useCount": 0, "id": "KENW", "name": "KENW", "quality": 100, "contribution": 0.0}, "C8077": {"distance": 16991.0, "latitude": 42.854, "longitude": -88.436, "useCount": 0, "id": "C8077", "name": "CW8077 Eagle WI US", "quality": 0, "contribution": 0.0}, "KBUU": {"distance": 20214.0, "latitude": 42.69, "longitude": -88.3, "useCount": 0, "id": "KBUU", "name": "KBUU", "quality": 99, "contribution": 0.0}, "72646454834": {"distance": 51380.0, "latitude": 43.167, "longitude": -88.717, "useCount": 0, "id": "72646454834", "name": "WATERTOWN MUNICIPAL AIRPORT, WI US", "quality": 100, "contribution": 0.0}, "KRYV": {"distance": 51808.0, "latitude": 43.17, "longitude": -88.72, "useCount": 0, "id": "KRYV", "name": "KRYV", "quality": 99, "contribution": 0.0}, "72650504845": {"distance": 51529.0, "latitude": 42.595, "longitude": -87.938, "useCount": 0, "id": "72650504845", "name": "KENOSHA REGIONAL AIRPORT, WI US", "quality": 100, "contribution": 0.0}, "F0313": {"distance": 46175.0, "latitude": 42.441, "longitude": -88.955, "useCount": 0, "id": "F0313", "name": "FW0313 Roscoe IL US", "quality": 0, "contribution": 0.0}, "72205904866": {"distance": 19925.0, "latitude": 42.69, "longitude": -88.304, "useCount": 0, "id": "72205904866", "name": "BURLINGTON MUNICIPAL AIRPORT, WI US", "quality": 100, "contribution": 0.0}, "AR976": {"distance": 37736.0, "latitude": 42.892, "longitude": -88.142, "useCount": 0, "id": "AR976", "name": "NO9B Muskego WI US", "quality": 0, "contribution": 0.0}}}