{"queryCost": 1, "latitude": 33.662, "longitude": -95.536, "resolvedAddress": "33.66200,-95.53600", "address": "33.66200,-95.53600", "timezone": "America/Chicago", "tzoffset": -5.0, "days": [{"datetime": "2018-10-20", "datetimeEpoch": 1540011600, "tempmax": 73.1, "tempmin": 54.0, "temp": 60.6, "feelslikemax": 73.1, "feelslikemin": 54.0, "feelslike": 60.6, "dew": 52.8, "humidity": 78.5, "precip": 0.01, "precipprob": 100.0, "precipcover": 4.17, "preciptype": ["rain"], "snow": 0.0, "snowdepth": 0.0, "windgust": 18.4, "windspeed": 13.8, "winddir": 280.7, "pressure": 1024.9, "cloudcover": 39.2, "visibility": 9.3, "solarradiation": 146.3, "solarenergy": 12.9, "uvindex": 7.0, "sunrise": "07:30:55", "sunriseEpoch": 1540038655, "sunset": "18:42:21", "sunsetEpoch": 1540078941, "moonphase": 0.41, "conditions": "Rain, Partially cloudy", "description": "Clearing in the afternoon with morning rain.", "icon": "rain", "stations": ["72375953990", "CDDT2", "KPRX", "72236293937", "72258793955", "K4O4", "KSLR"], "source": "obs"}], "stations": {"72375953990": {"distance": 68389.0, "latitude": 33.909, "longitude": -94.859, "useCount": 0, "id": "72375953990", "name": "IDABEL MCCURTAIN CO REGIONAL AIRPORT, OK US", "quality": 100, "contribution": 0.0}, "CDDT2": {"distance": 36847.0, "latitude": 33.741, "longitude": -95.922, "useCount": 0, "id": "CDDT2", "name": "CADDO TX US", "quality": 0, "contribution": 0.0}, "KPRX": {"distance": 8730.0, "latitude": 33.63, "longitude": -95.45, "useCount": 0, "id": "KPRX", "name": "PARIS/COX, TX", "quality": 100, "contribution": 0.0}, "72236293937": {"distance": 55644.0, "latitude": 33.167, "longitude": -95.617, "useCount": 0, "id": "72236293937", "name": "SULPHUR SPRINGS MUNICIPAL AIRPORT, TX US", "quality": 100, "contribution": 0.0}, "72258793955": {"distance": 8586.0, "latitude": 33.633, "longitude": -95.45, "useCount": 0, "id": "72258793955", "name": "PARIS, TX US", "quality": 99, "contribution": 0.0}, "K4O4": {"distance": 67927.0, "latitude": 33.9, "longitude": -94.86, "useCount": 0, "id": "K4O4", "name": "K4O4", "quality": 100, "contribution": 0.0}, "KSLR": {"distance": 57528.0, "latitude": 33.15, "longitude": -95.62, "useCount": 0, "id": "KSLR", "name": "KSLR", "quality": 100, "contribution": 0.0}}}