{"queryCost": 1, "latitude": 41.587, "longitude": -90.572, "resolvedAddress": "41.58700,-90.57200", "address": "41.58700,-90.57200", "timezone": "America/Chicago", "tzoffset": -5.0, "days": [{"datetime": "2018-10-23", "datetimeEpoch": 1540270800, "tempmax": 57.0, "tempmin": 31.2, "temp": 44.3, "feelslikemax": 57.0, "feelslikemin": 24.6, "feelslike": 41.8, "dew": 28.2, "humidity": 55.6, "precip": 0.0, "precipprob": 0.0, "precipcover": 0.0, "preciptype": null, "snow": 0.0, "snowdepth": 0.0, "windgust": null, "windspeed": 9.2, "winddir": 211.7, "pressure": 1026.4, "cloudcover": 0.0, "visibility": 9.9, "solarradiation": 173.4, "solarenergy": 14.8, "uvindex": 7.0, "sunrise": "07:23:29", "sunriseEpoch": 1540297409, "sunset": "18:09:02", "sunsetEpoch": 1540336142, "moonphase": 0.49, "conditions": "Clear", "description": "Clear conditions throughout the day.", "icon": "clear-day", "stations": ["KDVN", "72547394979", "KCWI", "72544014923", "E1961", "KMLI", "74455094982"], "source": "obs"}], "stations": {"KDVN": {"distance": 2646.0, "latitude": 41.61, "longitude": -90.58, "useCount": 0, "id": "KDVN", "name": "KDVN", "quality": 100, "contribution": 0.0}, "72547394979": {"distance": 33841.0, "latitude": 41.833, "longitude": -90.333, "useCount": 0, "id": "72547394979", "name": "CLINTON MUNICIPAL AIRPORT, IA US", "quality": 99, "contribution": 0.0}, "KCWI": {"distance": 33708.0, "latitude": 41.83, "longitude": -90.33, "useCount": 0, "id": "KCWI", "name": "CLINTON MUNI, IA", "quality": 100, "contribution": 0.0}, "72544014923": {"distance": 14142.0, "latitude": 41.465, "longitude": -90.523, "useCount": 0, "id": "72544014923", "name": "MOLINE QUAD CITY INTERNATIONAL AIRPORT, IL US", "quality": 100, "contribution": 0.0}, "E1961": {"distance": 55510.0, "latitude": 41.818, "longitude": -89.98, "useCount": 0, "id": "E1961", "name": "EW1961 Morrison IL US", "quality": 0, "contribution": 0.0}, "KMLI": {"distance": 15855.0, "latitude": 41.45, "longitude": -90.52, "useCount": 0, "id": "KMLI", "name": "KMLI", "quality": 100, "contribution": 0.0}, "74455094982": {"distance": 3402.0, "latitude": 41.614, "longitude": -90.591, "useCount": 0, "id": "74455094982", "name": "DAVENPORT MUNICIPAL AIRPORT, IA US", "quality": 100, "contribution": 0.0}}}