{"queryCost": 1, "latitude": 34.365, "longitude": -80.221, "resolvedAddress": "34.36500,-80.22100", "address": "34.36500,-80.22100", "timezone": "America/New_York", "tzoffset": -4.0, "days": [{"datetime": "2018-10-20", "datetimeEpoch": 1540008000, "tempmax": 71.9, "tempmin": 61.2, "temp": 66.2, "feelslikemax": 71.9, "feelslikemin": 61.2, "feelslike": 66.2, "dew": 63.3, "humidity": 90.5, "precip": 0.0, "precipprob": 0.0, "precipcover": 0.0, "preciptype": null, "snow": 0.0, "snowdepth": 0.0, "windgust": 20.8, "windspeed": 11.7, "winddir": 247.0, "pressure": 1013.8, "cloudcover": 67.9, "visibility": 9.7, "solarradiation": 67.8, "solarenergy": 5.8, "uvindex": 3.0, "sunrise": "07:30:21", "sunriseEpoch": 1540035021, "sunset": "18:40:24", "sunsetEpoch": 1540075224, "moonphase": 0.41, "conditions": "Partially cloudy", "description": "Partly cloudy throughout the day.", "icon": "partly-cloudy-day", "stations": ["KCDN", "72060300195", "72063300219", "KHVS", "JEFS1", "72311603742", "AS845", "KUDG"], "source": "obs"}], "stations": {"KCDN": {"distance": 32571.0, "latitude": 34.28, "longitude": -80.56, "useCount": 0, "id": "KCDN", "name": "KCDN", "quality": 100, "contribution": 0.0}, "72060300195": {"distance": 33093.0, "latitude": 34.283, "longitude": -80.567, "useCount": 0, "id": "72060300195", "name": "WOODWARD FIELD AIRPORT, SC US", "quality": 100, "contribution": 0.0}, "72063300219": {"distance": 10318.0, "latitude": 34.4, "longitude": -80.117, "useCount": 0, "id": "72063300219", "name": "HARTSVILLE REGIONAL AIRPORT, SC US", "quality": 99, "contribution": 0.0}, "KHVS": {"distance": 10064.0, "latitude": 34.4, "longitude": -80.12, "useCount": 0, "id": "KHVS", "name": "KHVS", "quality": 99, "contribution": 0.0}, "JEFS1": {"distance": 33409.0, "latitude": 34.662, "longitude": -80.274, "useCount": 0, "id": "JEFS1", "name": "CAROLINA SANDHILLS SC US", "quality": 0, "contribution": 0.0}, "72311603742": {"distance": 32376.0, "latitude": 34.466, "longitude": -79.89, "useCount": 0, "id": "72311603742", "name": "DARLINGTON CO JETPORT AIRPORT, SC US", "quality": 95, "contribution": 0.0}, "AS845": {"distance": 46242.0, "latitude": 34.701, "longitude": -79.925, "useCount": 0, "id": "AS845", "name": "KE4QPN Cheraw SC US", "quality": 0, "contribution": 0.0}, "KUDG": {"distance": 33067.0, "latitude": 34.3, "longitude": -79.87, "useCount": 0, "id": "KUDG", "name": "DARLINGTON, SC", "quality": 96, "contribution": 0.0}}}