{"queryCost": 1, "latitude": 30.055, "longitude": -95.177, "resolvedAddress": "30.05500,-95.17700", "address": "30.05500,-95.17700", "timezone": "America/Chicago", "tzoffset": -5.0, "days": [{"datetime": "2018-10-27", "datetimeEpoch": 1540616400, "tempmax": 81.7, "tempmin": 52.5, "temp": 66.1, "feelslikemax": 82.1, "feelslikemin": 52.5, "feelslike": 66.1, "dew": 57.3, "humidity": 77.0, "precip": 0.0, "precipprob": 0.0, "precipcover": 0.0, "preciptype": null, "snow": 0.0, "snowdepth": 0.0, "windgust": 18.3, "windspeed": 11.3, "winddir": 148.6, "pressure": 1017.4, "cloudcover": 8.7, "visibility": 9.1, "solarradiation": 81.8, "solarenergy": 7.0, "uvindex": 6.0, "sunrise": "07:30:54", "sunriseEpoch": 1540643454, "sunset": "18:37:45", "sunsetEpoch": 1540683465, "moonphase": 0.55, "conditions": "Clear", "description": "Clear conditions throughout the day.", "icon": "clear-day", "stations": ["72242953910", "KIAH", "KDWH", "D2150", "99999900378", "72243012960", "K6R3"], "source": "obs"}], "stations": {"72242953910": {"distance": 36551.0, "latitude": 30.068, "longitude": -95.556, "useCount": 0, "id": "72242953910", "name": "HOUSTON HOOKS MEMORIAL AIRPORT, TX US", "quality": 100, "contribution": 0.0}, "KIAH": {"distance": 19173.0, "latitude": 29.97, "longitude": -95.35, "useCount": 0, "id": "KIAH", "name": "KIAH", "quality": 100, "contribution": 0.0}, "KDWH": {"distance": 35975.0, "latitude": 30.07, "longitude": -95.55, "useCount": 0, "id": "KDWH", "name": "KDWH", "quality": 100, "contribution": 0.0}, "D2150": {"distance": 19377.0, "latitude": 29.886, "longitude": -95.127, "useCount": 0, "id": "D2150", "name": "DW2150 League City TX US", "quality": 0, "contribution": 0.0}, "99999900378": {"distance": 37243.0, "latitude": 30.356, "longitude": -95.008, "useCount": 0, "id": "99999900378", "name": null, "quality": 100, "contribution": 0.0}, "72243012960": {"distance": 19515.0, "latitude": 29.98, "longitude": -95.36, "useCount": 0, "id": "72243012960", "name": "HOUSTON INTERCONTINENTAL AIRPORT, TX US", "quality": 100, "contribution": 0.0}, "K6R3": {"distance": 37562.0, "latitude": 30.36, "longitude": -95.01, "useCount": 0, "id": "K6R3", "name": "K6R3", "quality": 100, "contribution": 0.0}}}