{"queryCost": 1, "latitude": 42.351, "longitude": -83.19, "resolvedAddress": "42.35100,-83.19000", "address": "42.35100,-83.19000", "timezone": "America/Detroit", "tzoffset": -4.0, "days": [{"datetime": "2018-10-24", "datetimeEpoch": 1540353600, "tempmax": 49.3, "tempmin": 34.3, "temp": 41.2, "feelslikemax": 47.2, "feelslikemin": 28.1, "feelslike": 37.6, "dew": 28.9, "humidity": 62.59, "precip": 0.0, "precipprob": null, "precipcover": 0.0, "preciptype": null, "snow": 0.0, "snowdepth": 0.0, "windgust": null, "windspeed": 11.8, "winddir": 258.4, "pressure": 1028.3, "cloudcover": 20.0, "visibility": 9.8, "solarradiation": 229.9, "solarenergy": 9.9, "uvindex": 6.0, "sunrise": "07:56:14", "sunriseEpoch": 1540382174, "sunset": "18:36:58", "sunsetEpoch": 1540420618, "moonphase": 0.5, "conditions": "Clear", "description": "Partly cloudy throughout the day.", "icon": "clear-day", "stations": ["72537094847", "71538099999", "KONZ", "E7790", "KDET", "72537514822", "KDTW"], "source": "obs"}], "stations": {"72537094847": {"distance": 17663.0, "latitude": 42.231, "longitude": -83.331, "useCount": 0, "id": "72537094847", "name": "DETROIT METRO AIRPORT, MI US", "quality": 100, "contribution": 0.0}, "71538099999": {"distance": 21042.0, "latitude": 42.276, "longitude": -82.956, "useCount": 0, "id": "71538099999", "name": "WINDSOR, CA", "quality": 100, "contribution": 0.0}, "KONZ": {"distance": 28050.0, "latitude": 42.1, "longitude": -83.16, "useCount": 0, "id": "KONZ", "name": "KONZ", "quality": 100, "contribution": 0.0}, "E7790": {"distance": 28052.0, "latitude": 42.555, "longitude": -83.39, "useCount": 0, "id": "E7790", "name": "EW7790 West Bloomfield MI US", "quality": 0, "contribution": 0.0}, "KDET": {"distance": 15949.0, "latitude": 42.42, "longitude": -83.02, "useCount": 0, "id": "KDET", "name": "KDET", "quality": 100, "contribution": 0.0}, "72537514822": {"distance": 16157.0, "latitude": 42.409, "longitude": -83.01, "useCount": 0, "id": "72537514822", "name": "DETROIT CITY AIRPORT, MI US", "quality": 100, "contribution": 0.0}, "KDTW": {"distance": 17730.0, "latitude": 42.23, "longitude": -83.33, "useCount": 0, "id": "KDTW", "name": "KDTW", "quality": 100, "contribution": 0.0}}}