{"queryCost": 1, "latitude": 29.106, "longitude": -81.031, "resolvedAddress": "29.10600,-81.03100", "address": "29.10600,-81.03100", "timezone": "America/New_York", "tzoffset": -4.0, "days": [{"datetime": "2018-10-31", "datetimeEpoch": 1540958400, "tempmax": 79.5, "tempmin": 60.0, "temp": 69.4, "feelslikemax": 79.5, "feelslikemin": 60.0, "feelslike": 69.4, "dew": 61.9, "humidity": 79.2, "precip": 0.0, "precipprob": 0.0, "precipcover": 0.0, "preciptype": null, "snow": 0.0, "snowdepth": 0.0, "windgust": 17.2, "windspeed": 10.4, "winddir": 67.1, "pressure": 1021.1, "cloudcover": 36.5, "visibility": 9.9, "solarradiation": 190.0, "solarenergy": 16.3, "uvindex": 8.0, "sunrise": "07:36:03", "sunriseEpoch": 1540985763, "sunset": "18:38:59", "sunsetEpoch": 1541025539, "moonphase": 0.74, "conditions": "Partially cloudy", "description": "Partly cloudy throughout the day.", "icon": "partly-cloudy-day", "stations": ["72205712854", "KSFB", "KDAB", "KDED", "74787012834", "72090400299", "E9392"], "source": "obs"}], "stations": {"72205712854": {"distance": 41813.0, "latitude": 28.78, "longitude": -81.244, "useCount": 0, "id": "72205712854", "name": "ORLANDO SANFORD AIRPORT, FL US", "quality": 100, "contribution": 0.0}, "KSFB": {"distance": 41143.0, "latitude": 28.78, "longitude": -81.23, "useCount": 0, "id": "KSFB", "name": "KSFB", "quality": 100, "contribution": 0.0}, "KDAB": {"distance": 8442.0, "latitude": 29.18, "longitude": -81.05, "useCount": 0, "id": "KDAB", "name": "KDAB", "quality": 100, "contribution": 0.0}, "KDED": {"distance": 24759.0, "latitude": 29.06, "longitude": -81.28, "useCount": 0, "id": "KDED", "name": "KDED", "quality": 96, "contribution": 0.0}, "74787012834": {"distance": 8713.0, "latitude": 29.183, "longitude": -81.048, "useCount": 0, "id": "74787012834", "name": "DAYTONA BEACH INTERNATIONAL AIRPORT, FL US", "quality": 100, "contribution": 0.0}, "72090400299": {"distance": 24896.0, "latitude": 29.067, "longitude": -81.283, "useCount": 0, "id": "72090400299", "name": "DELAND MUNICIPAL AIRPORT SYDNEY H TAYLOR FIELD, FL US", "quality": 100, "contribution": 0.0}, "E9392": {"distance": 10038.0, "latitude": 29.188, "longitude": -81.073, "useCount": 0, "id": "E9392", "name": "EW9392 Daytona Beach FL US", "quality": 0, "contribution": 0.0}}}