{"queryCost": 1, "latitude": 42.496, "longitude": -82.898, "resolvedAddress": "42.49600,-82.89800", "address": "42.49600,-82.89800", "timezone": "America/Detroit", "tzoffset": -4.0, "days": [{"datetime": "2018-11-04", "datetimeEpoch": 1541304000, "tempmax": 51.0, "tempmin": 33.4, "temp": 44.2, "feelslikemax": 51.0, "feelslikemin": 30.7, "feelslike": 41.1, "dew": 38.0, "humidity": 79.1, "precip": 0.0, "precipprob": 0.0, "precipcover": 0.0, "preciptype": null, "snow": 0.0, "snowdepth": 0.0, "windgust": 26.4, "windspeed": 17.6, "winddir": 88.4, "pressure": 1025.4, "cloudcover": 61.1, "visibility": 10.0, "solarradiation": 60.5, "solarenergy": 5.5, "uvindex": 3.0, "sunrise": "07:08:55", "sunriseEpoch": 1541333335, "sunset": "17:20:48", "sunsetEpoch": 1541370048, "moonphase": 0.94, "conditions": "Partially cloudy", "description": "Partly cloudy throughout the day.", "icon": "partly-cloudy-day", "stations": ["KMTC", "71538099999", "D9123", "99849299999", "KDET", "MIROM", "72537514822", "72537714804"], "source": "obs"}], "stations": {"KMTC": {"distance": 14887.0, "latitude": 42.62, "longitude": -82.83, "useCount": 0, "id": "KMTC", "name": "KMTC", "quality": 100, "contribution": 0.0}, "71538099999": {"distance": 24988.0, "latitude": 42.276, "longitude": -82.956, "useCount": 0, "id": "71538099999", "name": "WINDSOR, CA", "quality": 100, "contribution": 0.0}, "D9123": {"distance": 28868.0, "latitude": 42.744, "longitude": -83.003, "useCount": 0, "id": "D9123", "name": "DW9123 Sterling Heights MI US", "quality": 0, "contribution": 0.0}, "99849299999": {"distance": 33452.0, "latitude": 42.621, "longitude": -82.527, "useCount": 0, "id": "99849299999", "name": "ALGONAC, MI US", "quality": 98, "contribution": 0.0}, "KDET": {"distance": 13114.0, "latitude": 42.42, "longitude": -83.02, "useCount": 0, "id": "KDET", "name": "KDET", "quality": 100, "contribution": 0.0}, "MIROM": {"distance": 32844.0, "latitude": 42.777, "longitude": -83.021, "useCount": 0, "id": "MIROM", "name": "Romeo MI US MAWN", "quality": 0, "contribution": 0.0}, "72537514822": {"distance": 13341.0, "latitude": 42.409, "longitude": -83.01, "useCount": 0, "id": "72537514822", "name": "DETROIT CITY AIRPORT, MI US", "quality": 100, "contribution": 0.0}, "72537714804": {"distance": 14107.0, "latitude": 42.608, "longitude": -82.818, "useCount": 0, "id": "72537714804", "name": "MOUNT CLEMENS ANG BASE, MI US", "quality": 88, "contribution": 0.0}}}