{"queryCost": 1, "latitude": 35.058, "longitude": -106.569, "resolvedAddress": "35.05800,-106.56900", "address": "35.05800,-106.56900", "timezone": "America/Denver", "tzoffset": -6.0, "days": [{"datetime": "2018-11-04", "datetimeEpoch": 1541311200, "tempmax": 57.8, "tempmin": 35.0, "temp": 46.5, "feelslikemax": 57.8, "feelslikemin": 33.3, "feelslike": 45.1, "dew": 23.4, "humidity": 42.75, "precip": 0.0, "precipprob": null, "precipcover": 0.0, "preciptype": null, "snow": 0.0, "snowdepth": 0.0, "windgust": 25.3, "windspeed": 9.2, "winddir": 176.8, "pressure": 1015.2, "cloudcover": 58.3, "visibility": 9.9, "solarradiation": 283.9, "solarenergy": 13.3, "uvindex": 7.0, "sunrise": "06:30:16", "sunriseEpoch": 1541338216, "sunset": "17:08:56", "sunsetEpoch": 1541376536, "moonphase": 0.94, "conditions": "Partially cloudy", "description": "Becoming cloudy in the afternoon.", "icon": "partly-cloudy-day", "stations": ["72365623049", "K0E0", "72072499999", "72365023050", "KABQ", "C5376", "KSAF", "F3713"], "source": "obs"}], "stations": {"72365623049": {"distance": 75966.0, "latitude": 35.617, "longitude": -106.089, "useCount": 0, "id": "72365623049", "name": "SANTA FE CO MUNICIPAL AIRPORT, NM US", "quality": 100, "contribution": 0.0}, "K0E0": {"distance": 52794.0, "latitude": 34.97, "longitude": -106.0, "useCount": 0, "id": "K0E0", "name": "K0E0", "quality": 100, "contribution": 0.0}, "72072499999": {"distance": 51956.0, "latitude": 34.646, "longitude": -106.836, "useCount": 0, "id": "72072499999", "name": "BELEN REGIONAL AIRPORT, NM US", "quality": 92, "contribution": 0.0}, "72365023050": {"distance": 4643.0, "latitude": 35.042, "longitude": -106.616, "useCount": 0, "id": "72365023050", "name": "ALBUQUERQUE INTERNATIONAL AIRPORT, NM US", "quality": 100, "contribution": 0.0}, "KABQ": {"distance": 5061.0, "latitude": 35.04, "longitude": -106.62, "useCount": 0, "id": "KABQ", "name": "KABQ", "quality": 100, "contribution": 0.0}, "C5376": {"distance": 9387.0, "latitude": 35.059, "longitude": -106.466, "useCount": 0, "id": "C5376", "name": "CW5376 Albuquerque NM US", "quality": 0, "contribution": 0.0}, "KSAF": {"distance": 75815.0, "latitude": 35.61, "longitude": -106.08, "useCount": 0, "id": "KSAF", "name": "KSAF", "quality": 100, "contribution": 0.0}, "F3713": {"distance": 6793.0, "latitude": 35.104, "longitude": -106.618, "useCount": 0, "id": "F3713", "name": "FW3713 Albuquerque NM US", "quality": 0, "contribution": 0.0}}}