{"queryCost": 1, "latitude": 26.96, "longitude": -82.069, "resolvedAddress": "26.96000,-82.06900", "address": "26.96000,-82.06900", "timezone": "America/New_York", "tzoffset": -5.0, "days": [{"datetime": "2018-11-05", "datetimeEpoch": 1541394000, "tempmax": 87.9, "tempmin": 69.3, "temp": 78.2, "feelslikemax": 90.0, "feelslikemin": 69.3, "feelslike": 79.3, "dew": 68.7, "humidity": 75.06, "precip": 0.0, "precipprob": null, "precipcover": 0.0, "preciptype": null, "snow": 0.0, "snowdepth": 0.0, "windgust": 17.2, "windspeed": 13.7, "winddir": 129.6, "pressure": 1018.1, "cloudcover": 30.8, "visibility": 9.5, "solarradiation": 132.4, "solarenergy": 9.1, "uvindex": 5.0, "sunrise": "06:40:52", "sunriseEpoch": 1541418052, "sunset": "17:42:29", "sunsetEpoch": 1541457749, "moonphase": 0.98, "conditions": "Partially cloudy", "description": "Partly cloudy throughout the day.", "icon": "partly-cloudy-day", "stations": ["72211800482", "KPGD", "KVNC", "KFMY", "72210612835", "AS983", "72203412812", "ARCAD"], "source": "obs"}], "stations": {"72211800482": {"distance": 38862.0, "latitude": 27.072, "longitude": -82.44, "useCount": 0, "id": "72211800482", "name": "VENICE MUNICIPAL AIRPORT, FL US", "quality": 100, "contribution": 0.0}, "KPGD": {"distance": 8168.0, "latitude": 26.92, "longitude": -82.0, "useCount": 0, "id": "KPGD", "name": "KPGD", "quality": 100, "contribution": 0.0}, "KVNC": {"distance": 36901.0, "latitude": 27.07, "longitude": -82.42, "useCount": 0, "id": "KVNC", "name": "KVNC", "quality": 95, "contribution": 0.0}, "KFMY": {"distance": 46697.0, "latitude": 26.58, "longitude": -81.87, "useCount": 0, "id": "KFMY", "name": "KFMY", "quality": 100, "contribution": 0.0}, "72210612835": {"distance": 46565.0, "latitude": 26.585, "longitude": -81.861, "useCount": 0, "id": "72210612835", "name": "FORT MYERS PAGE FIELD AIRPORT, FL US", "quality": 100, "contribution": 0.0}, "AS983": {"distance": 15116.0, "latitude": 27.061, "longitude": -82.171, "useCount": 0, "id": "AS983", "name": "AJ4AN North Port FL US", "quality": 0, "contribution": 0.0}, "72203412812": {"distance": 9056.0, "latitude": 26.917, "longitude": -81.991, "useCount": 0, "id": "72203412812", "name": "PUNTA GORDA CHARLOTTE CO AIRPORT, FL US", "quality": 100, "contribution": 0.0}, "ARCAD": {"distance": 36903.0, "latitude": 27.22, "longitude": -81.838, "useCount": 0, "id": "ARCAD", "name": "Arcadia FAWN", "quality": 0, "contribution": 0.0}}}