{"queryCost": 1, "latitude": 39.797, "longitude": -105.043, "resolvedAddress": "39.79700,-105.04300", "address": "39.79700,-105.04300", "timezone": "America/Denver", "tzoffset": -6.0, "days": [{"datetime": "2018-11-04", "datetimeEpoch": 1541311200, "tempmax": 54.8, "tempmin": 29.4, "temp": 41.3, "feelslikemax": 54.8, "feelslikemin": 22.0, "feelslike": 36.8, "dew": 27.1, "humidity": 60.9, "precip": 0.0, "precipprob": 0.0, "precipcover": 0.0, "preciptype": null, "snow": 0.0, "snowdepth": 0.0, "windgust": 32.2, "windspeed": 12.5, "winddir": 189.6, "pressure": 1009.8, "cloudcover": 75.6, "visibility": 9.9, "solarradiation": 58.5, "solarenergy": 5.3, "uvindex": 3.0, "sunrise": "06:32:22", "sunriseEpoch": 1541338342, "sunset": "16:54:33", "sunsetEpoch": 1541375673, "moonphase": 0.94, "conditions": "Partially cloudy", "description": "Partly cloudy throughout the day.", "icon": "partly-cloudy-day", "stations": ["KBKF", "KDEN", "72469523036", "KAPA", "D9882", "72565003017", "72466693067"], "source": "obs"}], "stations": {"KBKF": {"distance": 26499.0, "latitude": 39.72, "longitude": -104.75, "useCount": 0, "id": "KBKF", "name": "KBKF", "quality": 100, "contribution": 0.0}, "KDEN": {"distance": 32650.0, "latitude": 39.86, "longitude": -104.67, "useCount": 0, "id": "KDEN", "name": "KDEN", "quality": 100, "contribution": 0.0}, "72469523036": {"distance": 26620.0, "latitude": 39.717, "longitude": -104.75, "useCount": 0, "id": "72469523036", "name": "AURORA BUCKLEY FIELD ANGB, CO US", "quality": 100, "contribution": 0.0}, "KAPA": {"distance": 30198.0, "latitude": 39.57, "longitude": -104.85, "useCount": 0, "id": "KAPA", "name": "KAPA", "quality": 100, "contribution": 0.0}, "D9882": {"distance": 7030.0, "latitude": 39.768, "longitude": -105.116, "useCount": 0, "id": "D9882", "name": "DW9882 Wheat Ridge CO US", "quality": 0, "contribution": 0.0}, "72565003017": {"distance": 33160.0, "latitude": 39.833, "longitude": -104.658, "useCount": 0, "id": "72565003017", "name": "DENVER INTERNATIONAL AIRPORT, CO US", "quality": 100, "contribution": 0.0}, "72466693067": {"distance": 30217.0, "latitude": 39.57, "longitude": -104.849, "useCount": 0, "id": "72466693067", "name": "DENVER CENTENNIAL AIRPORT, CO US", "quality": 100, "contribution": 0.0}}}