{"queryCost": 1, "latitude": 34.207, "longitude": -90.572, "resolvedAddress": "34.20700,-90.57200", "address": "34.20700,-90.57200", "timezone": "America/Chicago", "tzoffset": -6.0, "days": [{"datetime": "2018-11-10", "datetimeEpoch": 1541829600, "tempmax": 44.4, "tempmin": 32.0, "temp": 37.5, "feelslikemax": 40.6, "feelslikemin": 23.3, "feelslike": 32.9, "dew": 28.3, "humidity": 71.1, "precip": 0.0, "precipprob": 0.0, "precipcover": 0.0, "preciptype": null, "snow": 0.0, "snowdepth": 0.0, "windgust": 20.8, "windspeed": 14.0, "winddir": 208.0, "pressure": null, "cloudcover": 33.3, "visibility": 9.9, "solarradiation": 178.6, "solarenergy": 15.5, "uvindex": 7.0, "sunrise": "06:30:29", "sunriseEpoch": 1541853029, "sunset": "17:01:31", "sunsetEpoch": 1541890891, "moonphase": 0.04, "conditions": "Partially cloudy", "description": "Clearing in the afternoon.", "icon": "partly-cloudy-day", "stations": ["PERM6", "72092700314", "KUTA", "72236423903", "KCKM", "KRNV", "72502300474"], "source": "obs"}], "stations": {"PERM6": {"distance": 40373.0, "latitude": 33.967, "longitude": -90.9, "useCount": 0, "id": "PERM6", "name": "PERTHSHIRE MS US SCAN", "quality": 0, "contribution": 0.0}, "72092700314": {"distance": 11733.0, "latitude": 34.3, "longitude": -90.512, "useCount": 0, "id": "72092700314", "name": "FLETCHER FIELD AIRPORT, MS US", "quality": 100, "contribution": 0.0}, "KUTA": {"distance": 56461.0, "latitude": 34.68, "longitude": -90.35, "useCount": 0, "id": "KUTA", "name": "KUTA", "quality": 98, "contribution": 0.0}, "72236423903": {"distance": 56685.0, "latitude": 34.681, "longitude": -90.347, "useCount": 0, "id": "72236423903", "name": "TUNICA MUNICIPAL AIRPORT, MS US", "quality": 100, "contribution": 0.0}, "KCKM": {"distance": 10859.0, "latitude": 34.29, "longitude": -90.51, "useCount": 0, "id": "KCKM", "name": "KCKM", "quality": 99, "contribution": 0.0}, "KRNV": {"distance": 51346.0, "latitude": 33.77, "longitude": -90.75, "useCount": 0, "id": "KRNV", "name": "KRNV", "quality": 48, "contribution": 0.0}, "72502300474": {"distance": 42152.0, "latitude": 33.861, "longitude": -90.758, "useCount": 0, "id": "72502300474", "name": "CLEVELAND MUNICIPAL AIRPORT, MS US", "quality": 50, "contribution": 0.0}}}