{"queryCost": 1, "latitude": 45.022, "longitude": -93.304, "resolvedAddress": "45.02200,-93.30400", "address": "45.02200,-93.30400", "timezone": "America/Chicago", "tzoffset": -6.0, "days": [{"datetime": "2018-11-09", "datetimeEpoch": 1541743200, "tempmax": 23.0, "tempmin": 14.2, "temp": 19.6, "feelslikemax": 23.0, "feelslikemin": 0.0, "feelslike": 8.9, "dew": 12.2, "humidity": 72.8, "precip": 0.0, "precipprob": 0.0, "precipcover": 0.0, "preciptype": null, "snow": 0.5, "snowdepth": 0.9, "windgust": 34.3, "windspeed": 22.7, "winddir": 271.2, "pressure": 1025.8, "cloudcover": 69.7, "visibility": 8.3, "solarradiation": 52.2, "solarenergy": 4.4, "uvindex": 4.0, "sunrise": "07:02:48", "sunriseEpoch": 1541768568, "sunset": "16:50:42", "sunsetEpoch": 1541803842, "moonphase": 0.02, "conditions": "Partially cloudy", "description": "Partly cloudy throughout the day.", "icon": "snow", "stations": ["C6928", "KSTP", "72658414927", "72657594960", "72658014922", "KMSP", "KMIC"], "source": "obs"}], "stations": {"C6928": {"distance": 13445.0, "latitude": 45.042, "longitude": -93.472, "useCount": 0, "id": "C6928", "name": "CW6928 Plymouth MN US", "quality": 0, "contribution": 0.0}, "KSTP": {"distance": 20092.0, "latitude": 44.95, "longitude": -93.07, "useCount": 0, "id": "KSTP", "name": "KSTP", "quality": 100, "contribution": 0.0}, "72658414927": {"distance": 21953.0, "latitude": 44.932, "longitude": -93.056, "useCount": 0, "id": "72658414927", "name": "ST. PAUL DOWNTOWN AIRPORT, MN US", "quality": 100, "contribution": 0.0}, "72657594960": {"distance": 5805.0, "latitude": 45.062, "longitude": -93.351, "useCount": 0, "id": "72657594960", "name": "MINNEAPOLIS CRYSTAL AIRPORT, MN US", "quality": 100, "contribution": 0.0}, "72658014922": {"distance": 16556.0, "latitude": 44.883, "longitude": -93.229, "useCount": 0, "id": "72658014922", "name": "MINNEAPOLIS ST. PAUL INTERNATIONAL AIRPORT, MN US", "quality": 100, "contribution": 0.0}, "KMSP": {"distance": 17137.0, "latitude": 44.88, "longitude": -93.22, "useCount": 0, "id": "KMSP", "name": "KMSP", "quality": 100, "contribution": 0.0}, "KMIC": {"distance": 6453.0, "latitude": 45.07, "longitude": -93.35, "useCount": 0, "id": "KMIC", "name": "KMIC", "quality": 100, "contribution": 0.0}}}