{"queryCost": 1, "latitude": 36.862, "longitude": -119.78, "resolvedAddress": "36.86200,-119.78000", "address": "36.86200,-119.78000", "timezone": "America/Los_Angeles", "tzoffset": -8.0, "days": [{"datetime": "2018-11-12", "datetimeEpoch": 1542009600, "tempmax": 71.5, "tempmin": 40.3, "temp": 52.5, "feelslikemax": 71.5, "feelslikemin": 40.3, "feelslike": 52.4, "dew": 30.3, "humidity": 45.9, "precip": 0.0, "precipprob": 0.0, "precipcover": 0.0, "preciptype": null, "snow": 0.0, "snowdepth": 0.0, "windgust": null, "windspeed": 4.6, "winddir": 120.9, "pressure": 1026.5, "cloudcover": 3.0, "visibility": 5.6, "solarradiation": 144.6, "solarenergy": 12.4, "uvindex": 6.0, "sunrise": "06:34:25", "sunriseEpoch": 1542033265, "sunset": "16:51:43", "sunsetEpoch": 1542070303, "moonphase": 0.11, "conditions": "Clear", "description": "Clear conditions throughout the day.", "icon": "clear-day", "stations": ["CI080", "KHJO", "KMAE", "KVIS", "72389693144", "74504693242", "KFAT", "72389093193", "72389853119"], "source": "obs"}], "stations": {"CI080": {"distance": 5683.0, "latitude": 36.821, "longitude": -119.742, "useCount": 0, "id": "CI080", "name": "Fresno State CA US CIMIS", "quality": 0, "contribution": 0.0}, "KHJO": {"distance": 61807.0, "latitude": 36.32, "longitude": -119.63, "useCount": 0, "id": "KHJO", "name": "KHJO", "quality": 100, "contribution": 0.0}, "KMAE": {"distance": 32641.0, "latitude": 36.99, "longitude": -120.11, "useCount": 0, "id": "KMAE", "name": "KMAE", "quality": 100, "contribution": 0.0}, "KVIS": {"distance": 69238.0, "latitude": 36.32, "longitude": -119.4, "useCount": 0, "id": "KVIS", "name": "VISALIA, CA", "quality": 100, "contribution": 0.0}, "72389693144": {"distance": 69559.0, "latitude": 36.317, "longitude": -119.4, "useCount": 0, "id": "72389693144", "name": "VISALIA MUNICIPAL AIRPORT, CA US", "quality": 100, "contribution": 0.0}, "74504693242": {"distance": 32616.0, "latitude": 36.988, "longitude": -120.111, "useCount": 0, "id": "74504693242", "name": "MADERA MUNICIPAL AIRPORT, CA US", "quality": 100, "contribution": 0.0}, "KFAT": {"distance": 11553.0, "latitude": 36.77, "longitude": -119.72, "useCount": 0, "id": "KFAT", "name": "KFAT", "quality": 100, "contribution": 0.0}, "72389093193": {"distance": 10624.0, "latitude": 36.78, "longitude": -119.719, "useCount": 0, "id": "72389093193", "name": "FRESNO YOSEMITE INTERNATIONAL, CA US", "quality": 100, "contribution": 0.0}, "72389853119": {"distance": 61946.0, "latitude": 36.319, "longitude": -119.629, "useCount": 0, "id": "72389853119", "name": "HANFORD MUNICIPAL AIRPORT, CA US", "quality": 100, "contribution": 0.0}}}