{"queryCost": 1, "latitude": 37.651, "longitude": -98.739, "resolvedAddress": "37.65100,-98.73900", "address": "37.65100,-98.73900", "timezone": "America/Chicago", "tzoffset": -6.0, "days": [{"datetime": "2018-11-13", "datetimeEpoch": 1542088800, "tempmax": 40.4, "tempmin": 10.5, "temp": 24.2, "feelslikemax": 35.9, "feelslikemin": -0.6, "feelslike": 17.6, "dew": 15.6, "humidity": 71.8, "precip": 0.0, "precipprob": 0.0, "precipcover": 0.0, "preciptype": null, "snow": 0.0, "snowdepth": 0.0, "windgust": null, "windspeed": 9.1, "winddir": 269.2, "pressure": 1036.4, "cloudcover": 0.0, "visibility": 9.9, "solarradiation": 146.9, "solarenergy": 12.6, "uvindex": 6.0, "sunrise": "07:12:51", "sunriseEpoch": 1542114771, "sunset": "17:25:13", "sunsetEpoch": 1542151513, "moonphase": 0.15, "conditions": "Clear", "description": "Clear conditions throughout the day.", "icon": "clear-day", "stations": ["74543093978", "QNRK1", "72451713940", "72452003957", "KPTT", "KP28", "KGBD"], "source": "obs"}], "stations": {"74543093978": {"distance": 5687.0, "latitude": 37.702, "longitude": -98.747, "useCount": 0, "id": "74543093978", "name": "PRATT INDUSTRIAL AIRPORT, KS US", "quality": 99, "contribution": 0.0}, "QNRK1": {"distance": 59463.0, "latitude": 38.144, "longitude": -98.478, "useCount": 0, "id": "QNRK1", "name": "STAFFORD KS US", "quality": 0, "contribution": 0.0}, "72451713940": {"distance": 78614.0, "latitude": 38.35, "longitude": -98.867, "useCount": 0, "id": "72451713940", "name": "GREAT BEND MUNICIPAL AIRPORT, KS US", "quality": 100, "contribution": 0.0}, "72452003957": {"distance": 44053.0, "latitude": 37.284, "longitude": -98.553, "useCount": 0, "id": "72452003957", "name": "MEDICINE LODGE 1 E, KS US", "quality": 100, "contribution": 0.0}, "KPTT": {"distance": 5540.0, "latitude": 37.7, "longitude": -98.75, "useCount": 0, "id": "KPTT", "name": "KPTT", "quality": 99, "contribution": 0.0}, "KP28": {"distance": 42571.0, "latitude": 37.29, "longitude": -98.58, "useCount": 0, "id": "KP28", "name": "KP28", "quality": 99, "contribution": 0.0}, "KGBD": {"distance": 78656.0, "latitude": 38.35, "longitude": -98.87, "useCount": 0, "id": "KGBD", "name": "GREAT BEND, KS", "quality": 100, "contribution": 0.0}}}