{"queryCost": 1, "latitude": 33.377, "longitude": -86.811, "resolvedAddress": "33.37700,-86.81100", "address": "33.37700,-86.81100", "timezone": "America/Chicago", "tzoffset": -6.0, "days": [{"datetime": "2018-11-22", "datetimeEpoch": 1542866400, "tempmax": 59.9, "tempmin": 33.8, "temp": 44.9, "feelslikemax": 59.9, "feelslikemin": 33.8, "feelslike": 44.7, "dew": 35.1, "humidity": 71.6, "precip": 0.0, "precipprob": 0.0, "precipcover": 0.0, "preciptype": null, "snow": 0.0, "snowdepth": 0.0, "windgust": null, "windspeed": 6.6, "winddir": 77.5, "pressure": 1026.9, "cloudcover": 9.9, "visibility": 9.8, "solarradiation": 96.5, "solarenergy": 8.5, "uvindex": 5.0, "sunrise": "06:25:05", "sunriseEpoch": 1542889505, "sunset": "16:41:28", "sunsetEpoch": 1542926488, "moonphase": 0.5, "conditions": "Clear", "description": "Clear conditions throughout the day.", "icon": "clear-day", "stations": ["E3156", "72228013876", "72050799999", "72230053864", "72050899999", "KEET", "OKMA1", "KBHM"], "source": "obs"}], "stations": {"E3156": {"distance": 2757.0, "latitude": 33.4, "longitude": -86.8, "useCount": 0, "id": "E3156", "name": "EW3156 Hoover AL US", "quality": 0, "contribution": 0.0}, "72228013876": {"distance": 21871.0, "latitude": 33.566, "longitude": -86.745, "useCount": 0, "id": "72228013876", "name": "BIRMINGHAM AIRPORT, AL US", "quality": 100, "contribution": 0.0}, "72050799999": {"distance": 12849.0, "latitude": 33.313, "longitude": -86.926, "useCount": 0, "id": "72050799999", "name": "BESSEMER AIPORT, AL US", "quality": 99, "contribution": 0.0}, "72230053864": {"distance": 22287.0, "latitude": 33.178, "longitude": -86.782, "useCount": 0, "id": "72230053864", "name": "ALABASTER SHELBY CO AIRPORT, AL US", "quality": 100, "contribution": 0.0}, "72050899999": {"distance": 52299.0, "latitude": 33.172, "longitude": -86.305, "useCount": 0, "id": "72050899999", "name": "MERKEL FIELD SYLACAUGA MUNICIPAL, AL US", "quality": 97, "contribution": 0.0}, "KEET": {"distance": 22119.0, "latitude": 33.18, "longitude": -86.78, "useCount": 0, "id": "KEET", "name": "KEET", "quality": 100, "contribution": 0.0}, "OKMA1": {"distance": 57504.0, "latitude": 32.957, "longitude": -87.171, "useCount": 0, "id": "OKMA1", "name": "OAKMULGEE AL US", "quality": 0, "contribution": 0.0}, "KBHM": {"distance": 22219.0, "latitude": 33.57, "longitude": -86.75, "useCount": 0, "id": "KBHM", "name": "KBHM", "quality": 100, "contribution": 0.0}}}