{"queryCost": 1, "latitude": 39.579, "longitude": -104.877, "resolvedAddress": "39.57900,-104.87700", "address": "39.57900,-104.87700", "timezone": "America/Denver", "tzoffset": -7.0, "days": [{"datetime": "2018-11-27", "datetimeEpoch": 1543302000, "tempmax": 53.1, "tempmin": 28.2, "temp": 43.0, "feelslikemax": 53.1, "feelslikemin": 20.2, "feelslike": 38.9, "dew": 15.8, "humidity": 35.23, "precip": 0.0, "precipprob": null, "precipcover": 0.0, "preciptype": null, "snow": 0.0, "snowdepth": 0.0, "windgust": 26.4, "windspeed": 17.2, "winddir": 202.3, "pressure": 1013.9, "cloudcover": 71.2, "visibility": 9.9, "solarradiation": 133.4, "solarenergy": 5.3, "uvindex": 3.0, "sunrise": "06:57:02", "sunriseEpoch": 1543327022, "sunset": "16:37:05", "sunsetEpoch": 1543361825, "moonphase": 0.62, "conditions": "Partially cloudy", "description": "Partly cloudy throughout the day.", "icon": "partly-cloudy-day", "stations": ["KBKF", "KDEN", "KAPA", "72469523036", "CSU73", "72565003017", "72466693067"], "source": "obs"}], "stations": {"KBKF": {"distance": 19101.0, "latitude": 39.72, "longitude": -104.75, "useCount": 0, "id": "KBKF", "name": "KBKF", "quality": 100, "contribution": 0.0}, "KDEN": {"distance": 35953.0, "latitude": 39.86, "longitude": -104.67, "useCount": 0, "id": "KDEN", "name": "KDEN", "quality": 100, "contribution": 0.0}, "KAPA": {"distance": 2524.0, "latitude": 39.57, "longitude": -104.85, "useCount": 0, "id": "KAPA", "name": "KAPA", "quality": 100, "contribution": 0.0}, "72469523036": {"distance": 18801.0, "latitude": 39.717, "longitude": -104.75, "useCount": 0, "id": "72469523036", "name": "AURORA BUCKLEY FIELD ANGB, CO US", "quality": 100, "contribution": 0.0}, "CSU73": {"distance": 6492.0, "latitude": 39.551, "longitude": -104.811, "useCount": 0, "id": "CSU73", "name": "Parker CO US", "quality": 0, "contribution": 0.0}, "72565003017": {"distance": 33912.0, "latitude": 39.833, "longitude": -104.658, "useCount": 0, "id": "72565003017", "name": "DENVER INTERNATIONAL AIRPORT, CO US", "quality": 100, "contribution": 0.0}, "72466693067": {"distance": 2590.0, "latitude": 39.57, "longitude": -104.849, "useCount": 0, "id": "72466693067", "name": "DENVER CENTENNIAL AIRPORT, CO US", "quality": 100, "contribution": 0.0}}}