{"queryCost": 1, "latitude": 36.611, "longitude": -77.502, "resolvedAddress": "36.61100,-77.50200", "address": "36.61100,-77.50200", "timezone": "America/New_York", "tzoffset": -4.0, "days": [{"datetime": "2015-04-29", "datetimeEpoch": 1430280000, "tempmax": 71.5, "tempmin": 41.0, "temp": 56.9, "feelslikemax": 71.5, "feelslikemin": 41.0, "feelslike": 56.9, "dew": 43.9, "humidity": 67.4, "precip": 0.0, "precipprob": 0.0, "precipcover": 0.0, "preciptype": null, "snow": 0.0, "snowdepth": 0.0, "windgust": 15.0, "windspeed": 5.5, "winddir": 175.9, "pressure": 1007.9, "cloudcover": 9.2, "visibility": 9.6, "solarradiation": 170.8, "solarenergy": 14.8, "uvindex": 8.0, "sunrise": "06:18:55", "sunriseEpoch": 1430302735, "sunset": "19:56:25", "sunsetEpoch": 1430351785, "moonphase": 0.4, "conditions": "Clear", "description": "Clear conditions throughout the day.", "icon": "clear-day", "stations": ["KEMV", "KIXA", "72027803704", "72077799999", "72064900231"], "source": "obs"}], "stations": {"KEMV": {"distance": 9011.0, "latitude": 36.69, "longitude": -77.48, "useCount": 0, "id": "KEMV", "name": "KEMV", "quality": 96, "contribution": 0.0}, "72077799999": {"distance": 31705.0, "latitude": 36.773, "longitude": -77.794, "useCount": 0, "id": "72077799999", "name": "LAWRENCEVILLE BRUNSWICK MUNICIPAL, VA US", "quality": 100, "contribution": 0.0}, "72064900231": {"distance": 33470.0, "latitude": 36.33, "longitude": -77.635, "useCount": 0, "id": "72064900231", "name": "HALIFAX NORTHAMPTON REGIONAL AIRPORT, NC US", "quality": 100, "contribution": 0.0}, "KIXA": {"distance": 33632.0, "latitude": 36.33, "longitude": -77.64, "useCount": 0, "id": "KIXA", "name": "KIXA", "quality": 94, "contribution": 0.0}, "72027803704": {"distance": 8600.0, "latitude": 36.687, "longitude": -77.483, "useCount": 0, "id": "72027803704", "name": "EMPORIA GREENSVILLE REGIONAL AIRPORT, VA US", "quality": 100, "contribution": 0.0}}}