{"queryCost": 1, "latitude": 34.986, "longitude": -85.283, "resolvedAddress": "34.98600,-85.28300", "address": "34.98600,-85.28300", "timezone": "America/New_York", "tzoffset": -5.0, "days": [{"datetime": "2018-11-12", "datetimeEpoch": 1541998800, "tempmax": 46.2, "tempmin": 42.3, "temp": 44.3, "feelslikemax": 46.2, "feelslikemin": 38.6, "feelslike": 41.6, "dew": 41.4, "humidity": 89.36, "precip": 1.44, "precipprob": null, "precipcover": 79.17, "preciptype": null, "snow": 0.0, "snowdepth": 0.0, "windgust": null, "windspeed": 11.2, "winddir": 89.5, "pressure": 1021.8, "cloudcover": 92.4, "visibility": 4.6, "solarradiation": 8.3, "solarenergy": 0.7, "uvindex": 0.0, "sunrise": "07:12:41", "sunriseEpoch": 1542024761, "sunset": "17:37:29", "sunsetEpoch": 1542062249, "moonphase": 0.11, "conditions": "Rain, Overcast", "description": "Cloudy skies throughout the day with a chance of rain throughout the day.", "icon": "rain", "stations": ["A0001363847", "KCHA", "KRMG", "K4A9", "E5259", "72324013882", "TT421", "PCFT1", "AR919", "KRZR"], "source": "obs"}], "stations": {"A0001363847": {"distance": 69702.0, "latitude": 34.474, "longitude": -85.721, "useCount": 0, "id": "A0001363847", "name": "FORT PAYNE ISBELL FIELD, AL US", "quality": 100, "contribution": 0.0}, "KCHA": {"distance": 9015.0, "latitude": 35.03, "longitude": -85.2, "useCount": 0, "id": "KCHA", "name": "KCHA", "quality": 100, "contribution": 0.0}, "KRMG": {"distance": 71551.0, "latitude": 34.35, "longitude": -85.17, "useCount": 0, "id": "KRMG", "name": "KRMG", "quality": 100, "contribution": 0.0}, "K4A9": {"distance": 69985.0, "latitude": 34.47, "longitude": -85.72, "useCount": 0, "id": "K4A9", "name": "K4A9", "quality": 97, "contribution": 0.0}, "E5259": {"distance": 6920.0, "latitude": 35.043, "longitude": -85.253, "useCount": 0, "id": "E5259", "name": "EW5259 Chattanooga TN US", "quality": 0, "contribution": 0.0}, "72324013882": {"distance": 9208.0, "latitude": 35.034, "longitude": -85.2, "useCount": 0, "id": "72324013882", "name": "CHATTANOOGA AIRPORT, TN US", "quality": 100, "contribution": 0.0}, "TT421": {"distance": 57601.0, "latitude": 34.469, "longitude": -85.298, "useCount": 0, "id": "TT421", "name": "CONASAUGA PORTABLE 1 GA US", "quality": 0, "contribution": 0.0}, "PCFT1": {"distance": 20788.0, "latitude": 35.13, "longitude": -85.428, "useCount": 0, "id": "PCFT1", "name": "PRENTICE COOPER SF TN US", "quality": 0, "contribution": 0.0}, "AR919": {"distance": 6769.0, "latitude": 34.976, "longitude": -85.356, "useCount": 0, "id": "AR919", "name": "W4EDP Lookout Mountain GA US", "quality": 0, "contribution": 0.0}, "KRZR": {"distance": 51122.0, "latitude": 35.22, "longitude": -84.8, "useCount": 0, "id": "KRZR", "name": "KRZR", "quality": 95, "contribution": 0.0}}}