{"queryCost": 1, "latitude": 33.48, "longitude": -112.134, "resolvedAddress": "33.48000,-112.13400", "address": "33.48000,-112.13400", "timezone": "America/Phoenix", "tzoffset": -7.0, "days": [{"datetime": "2018-11-30", "datetimeEpoch": 1543561200, "tempmax": 63.2, "tempmin": 51.0, "temp": 56.5, "feelslikemax": 63.2, "feelslikemin": 51.0, "feelslike": 56.5, "dew": 48.8, "humidity": 77.51, "precip": 1.0, "precipprob": null, "precipcover": 29.17, "preciptype": null, "snow": 0.0, "snowdepth": 0.0, "windgust": 29.8, "windspeed": 14.6, "winddir": 184.8, "pressure": 1009.6, "cloudcover": 73.4, "visibility": 9.8, "solarradiation": 133.4, "solarenergy": 9.6, "uvindex": 5.0, "sunrise": "07:13:51", "sunriseEpoch": 1543587231, "sunset": "17:20:32", "sunsetEpoch": 1543623632, "moonphase": 0.78, "conditions": "Rain, Partially cloudy", "description": "Partly cloudy throughout the day with rain clearing later.", "icon": "rain", "stations": ["72278403184", "MADC", "KLUF", "KDVT", "A1351", "72278023183", "KPHX", "SRP32", "72278523111"], "source": "obs"}], "stations": {"72278403184": {"distance": 23684.0, "latitude": 33.688, "longitude": -112.082, "useCount": 0, "id": "72278403184", "name": "PHOENIX DEER VALLEY MUNICIPAL AIRPORT, AZ US", "quality": 100, "contribution": 0.0}, "MADC": {"distance": 6052.0, "latitude": 33.427, "longitude": -112.12, "useCount": 0, "id": "MADC", "name": "Durango Complex AZ US AZ ALERT", "quality": 0, "contribution": 0.0}, "KLUF": {"distance": 23503.0, "latitude": 33.53, "longitude": -112.38, "useCount": 0, "id": "KLUF", "name": "KLUF", "quality": 100, "contribution": 0.0}, "KDVT": {"distance": 23042.0, "latitude": 33.68, "longitude": -112.07, "useCount": 0, "id": "KDVT", "name": "KDVT", "quality": 100, "contribution": 0.0}, "A1351": {"distance": 4473.0, "latitude": 33.504, "longitude": -112.095, "useCount": 0, "id": "A1351", "name": "Phoenix JLG Supersite AZ AZDEQ", "quality": 0, "contribution": 0.0}, "72278023183": {"distance": 13404.0, "latitude": 33.428, "longitude": -112.004, "useCount": 0, "id": "72278023183", "name": "PHOENIX AIRPORT, AZ US", "quality": 100, "contribution": 0.0}, "KPHX": {"distance": 11962.0, "latitude": 33.43, "longitude": -112.02, "useCount": 0, "id": "KPHX", "name": "KPHX", "quality": 100, "contribution": 0.0}, "SRP32": {"distance": 6842.0, "latitude": 33.42, "longitude": -112.15, "useCount": 0, "id": "SRP32", "name": "Kay AZ US SRP", "quality": 0, "contribution": 0.0}, "72278523111": {"distance": 22986.0, "latitude": 33.55, "longitude": -112.367, "useCount": 0, "id": "72278523111", "name": "PHOENIX LUKE AFB, AZ US", "quality": 96, "contribution": 0.0}}}