{"queryCost": 1, "latitude": 41.672, "longitude": -86.279, "resolvedAddress": "41.67200,-86.27900", "address": "41.67200,-86.27900", "timezone": "America/Indiana/Indianapolis", "tzoffset": -4.0, "days": [{"datetime": "2018-04-05", "datetimeEpoch": 1522900800, "tempmax": 41.0, "tempmin": 21.1, "temp": 31.0, "feelslikemax": 36.3, "feelslikemin": 13.4, "feelslike": 24.0, "dew": 20.4, "humidity": 66.4, "precip": 0.0, "precipprob": 0.0, "precipcover": 0.0, "preciptype": null, "snow": 0.0, "snowdepth": 0.0, "windgust": 18.3, "windspeed": 13.8, "winddir": 239.0, "pressure": 1022.3, "cloudcover": 49.8, "visibility": 9.0, "solarradiation": 202.1, "solarenergy": 17.6, "uvindex": 8.0, "sunrise": "07:21:12", "sunriseEpoch": 1522927272, "sunset": "20:15:00", "sunsetEpoch": 1522973700, "moonphase": 0.63, "conditions": "Partially cloudy", "description": "Becoming cloudy in the afternoon.", "icon": "partly-cloudy-day", "stations": ["C2578", "KGSH", "72438814829", "KSBN", "KPPO", "72102900347", "72535014848"], "source": "obs"}], "stations": {"C2578": {"distance": 12742.0, "latitude": 41.648, "longitude": -86.129, "useCount": 0, "id": "C2578", "name": "CW2578 Mishawaka IN US", "quality": 0, "contribution": 0.0}, "KGSH": {"distance": 43667.0, "latitude": 41.53, "longitude": -85.79, "useCount": 0, "id": "KGSH", "name": "KGSH", "quality": 99, "contribution": 0.0}, "72438814829": {"distance": 44057.0, "latitude": 41.533, "longitude": -85.783, "useCount": 0, "id": "72438814829", "name": "GOSHEN MUNICIPAL AIRPORT, IN US", "quality": 100, "contribution": 0.0}, "KSBN": {"distance": 5432.0, "latitude": 41.71, "longitude": -86.32, "useCount": 0, "id": "KSBN", "name": "KSBN", "quality": 100, "contribution": 0.0}, "KPPO": {"distance": 39211.0, "latitude": 41.57, "longitude": -86.73, "useCount": 0, "id": "KPPO", "name": "KPPO", "quality": 100, "contribution": 0.0}, "72102900347": {"distance": 39546.0, "latitude": 41.572, "longitude": -86.735, "useCount": 0, "id": "72102900347", "name": "LA PORTE MUNICIPAL AIRPORT, IN US", "quality": 99, "contribution": 0.0}, "72535014848": {"distance": 4997.0, "latitude": 41.707, "longitude": -86.316, "useCount": 0, "id": "72535014848", "name": "SOUTH BEND AIRPORT, IN US", "quality": 100, "contribution": 0.0}}}