{"queryCost": 1, "latitude": 40.508, "longitude": -122.312, "resolvedAddress": "40.50800,-122.31200", "address": "40.50800,-122.31200", "timezone": "America/Los_Angeles", "tzoffset": -8.0, "days": [{"datetime": "2018-12-06", "datetimeEpoch": 1544083200, "tempmax": 62.1, "tempmin": 38.9, "temp": 51.0, "feelslikemax": 62.1, "feelslikemin": 38.9, "feelslike": 49.7, "dew": 32.9, "humidity": 51.7, "precip": 0.0, "precipprob": 0.0, "precipcover": 0.0, "preciptype": null, "snow": 0.0, "snowdepth": 0.0, "windgust": null, "windspeed": 10.3, "winddir": 252.1, "pressure": 1014.6, "cloudcover": 0.0, "visibility": 9.9, "solarradiation": 114.3, "solarenergy": 9.7, "uvindex": 5.0, "sunrise": "07:18:23", "sunriseEpoch": 1544109503, "sunset": "16:42:15", "sunsetEpoch": 1544143335, "moonphase": 1.0, "conditions": "Clear", "description": "Clear conditions throughout the day.", "icon": "clear-day", "stations": ["KO54", "KRBL", "KRDD", "72592024257", "RRAC1", "99999904222", "72591024216"], "source": "obs"}], "stations": {"KO54": {"distance": 54543.0, "latitude": 40.71, "longitude": -122.9, "useCount": 0, "id": "KO54", "name": "KO54", "quality": 81, "contribution": 0.0}, "KRBL": {"distance": 40198.0, "latitude": 40.15, "longitude": -122.25, "useCount": 0, "id": "KRBL", "name": "KRBL", "quality": 100, "contribution": 0.0}, "KRDD": {"distance": 1351.0, "latitude": 40.5, "longitude": -122.3, "useCount": 0, "id": "KRDD", "name": "KRDD", "quality": 100, "contribution": 0.0}, "72592024257": {"distance": 1526.0, "latitude": 40.518, "longitude": -122.299, "useCount": 0, "id": "72592024257", "name": "REDDING MUNICIPAL AIRPORT, CA US", "quality": 100, "contribution": 0.0}, "RRAC1": {"distance": 1902.0, "latitude": 40.516, "longitude": -122.292, "useCount": 0, "id": "RRAC1", "name": "REDDING CA US", "quality": 0, "contribution": 0.0}, "99999904222": {"distance": 29571.0, "latitude": 40.651, "longitude": -122.607, "useCount": 0, "id": "99999904222", "name": "REDDING 12 WNW, CA US", "quality": 100, "contribution": 0.0}, "72591024216": {"distance": 39945.0, "latitude": 40.152, "longitude": -122.254, "useCount": 0, "id": "72591024216", "name": "RED BLUFF MUNICIPAL AIRPORT, CA US", "quality": 100, "contribution": 0.0}}}