{"queryCost": 1, "latitude": 33.988, "longitude": -118.472, "resolvedAddress": "33.98800,-118.47200", "address": "33.98800,-118.47200", "timezone": "America/Los_Angeles", "tzoffset": -7.0, "days": [{"datetime": "2015-05-05", "datetimeEpoch": 1430809200, "tempmax": 64.8, "tempmin": 57.0, "temp": 60.8, "feelslikemax": 64.8, "feelslikemin": 57.0, "feelslike": 60.8, "dew": 49.8, "humidity": 67.5, "precip": 0.0, "precipprob": 0.0, "precipcover": 0.0, "preciptype": null, "snow": 0.0, "snowdepth": 0.0, "windgust": 19.7, "windspeed": 11.5, "winddir": 179.4, "pressure": 1015.0, "cloudcover": 70.8, "visibility": 9.9, "solarradiation": 201.3, "solarenergy": 17.4, "uvindex": 7.0, "sunrise": "06:00:58", "sunriseEpoch": 1430830858, "sunset": "19:40:42", "sunsetEpoch": 1430880042, "moonphase": 0.51, "conditions": "Partially cloudy", "description": "Partly cloudy throughout the day.", "icon": "partly-cloudy-day", "stations": ["KHHR", "72288593197", "72295023174", "KSMO", "KLAX", "72295603167"], "source": "obs"}], "stations": {"KHHR": {"distance": 15140.0, "latitude": 33.92, "longitude": -118.33, "useCount": 0, "id": "KHHR", "name": "KHHR", "quality": 100, "contribution": 0.0}, "72288593197": {"distance": 3651.0, "latitude": 34.016, "longitude": -118.451, "useCount": 0, "id": "72288593197", "name": "SANTA MONICA MUNICIPAL AIRPORT, CA US", "quality": 100, "contribution": 0.0}, "72295023174": {"distance": 9471.0, "latitude": 33.938, "longitude": -118.389, "useCount": 0, "id": "72295023174", "name": "LOS ANGELES INTERNATIONAL AIRPORT, CA US", "quality": 100, "contribution": 0.0}, "KSMO": {"distance": 4100.0, "latitude": 34.02, "longitude": -118.45, "useCount": 0, "id": "KSMO", "name": "KSMO", "quality": 97, "contribution": 0.0}, "KLAX": {"distance": 9267.0, "latitude": 33.93, "longitude": -118.4, "useCount": 0, "id": "KLAX", "name": "KLAX", "quality": 100, "contribution": 0.0}, "72295603167": {"distance": 14665.0, "latitude": 33.923, "longitude": -118.334, "useCount": 0, "id": "72295603167", "name": "HAWTHORNE MUNICIPAL AIRPORT, CA US", "quality": 100, "contribution": 0.0}}}