{"queryCost": 1, "latitude": 34.499, "longitude": -84.951, "resolvedAddress": "34.49900,-84.95100", "address": "34.49900,-84.95100", "timezone": "America/New_York", "tzoffset": -5.0, "days": [{"datetime": "2018-12-11", "datetimeEpoch": 1544504400, "tempmax": 49.4, "tempmin": 27.0, "temp": 36.6, "feelslikemax": 47.3, "feelslikemin": 27.0, "feelslike": 35.5, "dew": 28.7, "humidity": 76.2, "precip": 0.0, "precipprob": 0.0, "precipcover": 0.0, "preciptype": null, "snow": 0.0, "snowdepth": 0.0, "windgust": null, "windspeed": 6.5, "winddir": 275.2, "pressure": 1023.9, "cloudcover": 8.5, "visibility": 7.9, "solarradiation": 43.3, "solarenergy": 3.6, "uvindex": 3.0, "sunrise": "07:36:27", "sunriseEpoch": 1544531787, "sunset": "17:29:44", "sunsetEpoch": 1544567384, "moonphase": 0.08, "conditions": "Clear", "description": "Clear conditions throughout the day.", "icon": "clear-day", "stations": ["E1719", "KRMG", "72320093801", "KRYY", "TT421", "74781263813", "KVPC", "72215653873"], "source": "obs"}], "stations": {"E1719": {"distance": 17565.0, "latitude": 34.4, "longitude": -85.1, "useCount": 0, "id": "E1719", "name": "EW1719 Rome GA US", "quality": 0, "contribution": 0.0}, "KRMG": {"distance": 26067.0, "latitude": 34.35, "longitude": -85.17, "useCount": 0, "id": "KRMG", "name": "KRMG", "quality": 100, "contribution": 0.0}, "72320093801": {"distance": 25603.0, "latitude": 34.348, "longitude": -85.161, "useCount": 0, "id": "72320093801", "name": "ROME R B RUSSELL AIRPORT, GA US", "quality": 100, "contribution": 0.0}, "KRYY": {"distance": 63294.0, "latitude": 34.01, "longitude": -84.6, "useCount": 0, "id": "KRYY", "name": "MCCOLLUM FLD, GA", "quality": 100, "contribution": 0.0}, "TT421": {"distance": 31991.0, "latitude": 34.469, "longitude": -85.298, "useCount": 0, "id": "TT421", "name": "CONASAUGA PORTABLE 1 GA US", "quality": 0, "contribution": 0.0}, "74781263813": {"distance": 63064.0, "latitude": 34.013, "longitude": -84.599, "useCount": 0, "id": "74781263813", "name": "MARIETTA COBB CO MCCOLLUM FIELD AIRPORT, GA US", "quality": 100, "contribution": 0.0}, "KVPC": {"distance": 44288.0, "latitude": 34.11, "longitude": -84.85, "useCount": 0, "id": "KVPC", "name": "KVPC", "quality": 100, "contribution": 0.0}, "72215653873": {"distance": 42891.0, "latitude": 34.123, "longitude": -84.849, "useCount": 0, "id": "72215653873", "name": "CARTERSVILLE AIRPORT, GA US", "quality": 100, "contribution": 0.0}}}