{"queryCost": 1, "latitude": 38.702, "longitude": -90.263, "resolvedAddress": "38.70200,-90.26300", "address": "38.70200,-90.26300", "timezone": "America/Chicago", "tzoffset": -6.0, "days": [{"datetime": "2018-12-12", "datetimeEpoch": 1544594400, "tempmax": 54.1, "tempmin": 35.4, "temp": 45.1, "feelslikemax": 54.1, "feelslikemin": 29.7, "feelslike": 42.1, "dew": 28.9, "humidity": 54.57, "precip": 0.0, "precipprob": null, "precipcover": 0.0, "preciptype": null, "snow": 0.0, "snowdepth": 0.0, "windgust": 21.9, "windspeed": 12.9, "winddir": 191.8, "pressure": 1013.0, "cloudcover": 26.8, "visibility": 9.9, "solarradiation": 107.7, "solarenergy": 8.9, "uvindex": 5.0, "sunrise": "07:09:51", "sunriseEpoch": 1544620191, "sunset": "16:39:47", "sunsetEpoch": 1544654387, "moonphase": 0.12, "conditions": "Partially cloudy", "description": "Partly cloudy throughout the day.", "icon": "partly-cloudy-day", "stations": ["KSTL", "KSET", "72434013994", "KCPS", "72434753904", "AN354", "72531403960"], "source": "obs"}], "stations": {"KSTL": {"distance": 10719.0, "latitude": 38.75, "longitude": -90.37, "useCount": 0, "id": "KSTL", "name": "KSTL", "quality": 100, "contribution": 0.0}, "KSET": {"distance": 29223.0, "latitude": 38.93, "longitude": -90.43, "useCount": 0, "id": "KSET", "name": "KSET", "quality": 99, "contribution": 0.0}, "72434013994": {"distance": 11129.0, "latitude": 38.753, "longitude": -90.374, "useCount": 0, "id": "72434013994", "name": "ST LOUIS LAMBERT INTERNATIONAL AIRPORT, MO US", "quality": 100, "contribution": 0.0}, "KCPS": {"distance": 17677.0, "latitude": 38.57, "longitude": -90.15, "useCount": 0, "id": "KCPS", "name": "KCPS", "quality": 100, "contribution": 0.0}, "72434753904": {"distance": 29006.0, "latitude": 38.929, "longitude": -90.428, "useCount": 0, "id": "72434753904", "name": "ST CHARLES CO AIRPORT, MO US", "quality": 98, "contribution": 0.0}, "AN354": {"distance": 7562.0, "latitude": 38.656, "longitude": -90.198, "useCount": 0, "id": "AN354", "name": "BLAIR STREET MO MODNR", "quality": 0, "contribution": 0.0}, "72531403960": {"distance": 17205.0, "latitude": 38.571, "longitude": -90.157, "useCount": 0, "id": "72531403960", "name": "CAHOKIA ST LOUIS DOWNTOWN AIRPORT, IL US", "quality": 100, "contribution": 0.0}}}