{"queryCost": 1, "latitude": 37.295, "longitude": -77.293, "resolvedAddress": "37.29500,-77.29300", "address": "37.29500,-77.29300", "timezone": "America/New_York", "tzoffset": -5.0, "days": [{"datetime": "2018-12-18", "datetimeEpoch": 1545109200, "tempmax": 47.7, "tempmin": 26.9, "temp": 35.8, "feelslikemax": 45.9, "feelslikemin": 26.0, "feelslike": 34.1, "dew": 25.3, "humidity": 68.6, "precip": 0.0, "precipprob": 0.0, "precipcover": 0.0, "preciptype": null, "snow": 0.0, "snowdepth": 0.0, "windgust": 20.0, "windspeed": 11.0, "winddir": 200.9, "pressure": 1021.1, "cloudcover": 8.4, "visibility": 9.9, "solarradiation": 56.4, "solarenergy": 4.8, "uvindex": 4.0, "sunrise": "07:17:59", "sunriseEpoch": 1545135479, "sunset": "16:53:42", "sunsetEpoch": 1545170022, "moonphase": 0.39, "conditions": "Clear", "description": "Clear conditions throughout the day.", "icon": "clear-day", "stations": ["KPTB", "KRIC", "KFCI", "72401493714", "E6024", "72401013740", "KW96", "PRGV2"], "source": "obs"}], "stations": {"KPTB": {"distance": 23846.0, "latitude": 37.18, "longitude": -77.52, "useCount": 0, "id": "KPTB", "name": "KPTB", "quality": 99, "contribution": 0.0}, "KRIC": {"distance": 23054.0, "latitude": 37.5, "longitude": -77.33, "useCount": 0, "id": "KRIC", "name": "RICHMOND/BYRD FI, VA", "quality": 100, "contribution": 0.0}, "KFCI": {"distance": 23820.0, "latitude": 37.41, "longitude": -77.52, "useCount": 0, "id": "KFCI", "name": "RICHMOND, VA", "quality": 92, "contribution": 0.0}, "72401493714": {"distance": 22162.0, "latitude": 37.183, "longitude": -77.5, "useCount": 0, "id": "72401493714", "name": "PETERSBURG DINWIDDIE CO AIRPORT, VA US", "quality": 100, "contribution": 0.0}, "E6024": {"distance": 12656.0, "latitude": 37.237, "longitude": -77.415, "useCount": 0, "id": "E6024", "name": "EW6024 Ettric VA US", "quality": 0, "contribution": 0.0}, "72401013740": {"distance": 24250.0, "latitude": 37.512, "longitude": -77.323, "useCount": 0, "id": "72401013740", "name": "RICHMOND INTERNATIONAL AIRPORT, VA US", "quality": 100, "contribution": 0.0}, "KW96": {"distance": 27977.0, "latitude": 37.5, "longitude": -77.11, "useCount": 0, "id": "KW96", "name": "KW96", "quality": 99, "contribution": 0.0}, "PRGV2": {"distance": 14069.0, "latitude": 37.259, "longitude": -77.141, "useCount": 0, "id": "PRGV2", "name": "JAMES RIVER VA US", "quality": 0, "contribution": 0.0}}}