{"queryCost": 1, "latitude": 32.713, "longitude": -97.276, "resolvedAddress": "32.71300,-97.27600", "address": "32.71300,-97.27600", "timezone": "America/Chicago", "tzoffset": -6.0, "days": [{"datetime": "2018-12-19", "datetimeEpoch": 1545199200, "tempmax": 55.7, "tempmin": 52.0, "temp": 53.3, "feelslikemax": 55.7, "feelslikemin": 52.0, "feelslike": 53.3, "dew": 51.7, "humidity": 94.51, "precip": 0.03, "precipprob": null, "precipcover": 25.0, "preciptype": null, "snow": 0.0, "snowdepth": 0.0, "windgust": null, "windspeed": 10.1, "winddir": 157.6, "pressure": 1010.2, "cloudcover": 89.8, "visibility": 5.1, "solarradiation": 56.2, "solarenergy": 2.4, "uvindex": 2.0, "sunrise": "07:26:25", "sunriseEpoch": 1545225985, "sunset": "17:26:11", "sunsetEpoch": 1545261971, "moonphase": 0.43, "conditions": "Rain, Partially cloudy", "description": "Partly cloudy throughout the day with rain.", "icon": "rain", "stations": ["72247953907", "74739013961", "KNFW", "72259513911", "KGKY", "AN595", "KFTW", "E0802"], "source": "obs"}], "stations": {"72247953907": {"distance": 17925.0, "latitude": 32.664, "longitude": -97.094, "useCount": 0, "id": "72247953907", "name": "ARLINGTON MUNICIPAL AIRPORT, TX US", "quality": 100, "contribution": 0.0}, "74739013961": {"distance": 14271.0, "latitude": 32.819, "longitude": -97.361, "useCount": 0, "id": "74739013961", "name": "FORT WORTH MEACHAM FIELD, TX US", "quality": 100, "contribution": 0.0}, "KNFW": {"distance": 17484.0, "latitude": 32.77, "longitude": -97.45, "useCount": 0, "id": "KNFW", "name": "KNFW", "quality": 100, "contribution": 0.0}, "72259513911": {"distance": 17354.0, "latitude": 32.767, "longitude": -97.45, "useCount": 0, "id": "72259513911", "name": "FORT WORTH NAS, TX US", "quality": 100, "contribution": 0.0}, "KGKY": {"distance": 18786.0, "latitude": 32.65, "longitude": -97.09, "useCount": 0, "id": "KGKY", "name": "KGKY", "quality": 100, "contribution": 0.0}, "AN595": {"distance": 12793.0, "latitude": 32.806, "longitude": -97.357, "useCount": 0, "id": "AN595", "name": "Ft. Worth Northwest C13 TX TCEQ", "quality": 0, "contribution": 0.0}, "KFTW": {"distance": 14809.0, "latitude": 32.82, "longitude": -97.37, "useCount": 0, "id": "KFTW", "name": "FT WORTH/MEACHAM, TX", "quality": 100, "contribution": 0.0}, "E0802": {"distance": 14099.0, "latitude": 32.72, "longitude": -97.126, "useCount": 0, "id": "E0802", "name": "EW0802 Arlington TX US", "quality": 0, "contribution": 0.0}}}