{"queryCost": 1, "latitude": 40.838, "longitude": -75.653, "resolvedAddress": "40.83800,-75.65300", "address": "40.83800,-75.65300", "timezone": "America/New_York", "tzoffset": -5.0, "days": [{"datetime": "2018-12-18", "datetimeEpoch": 1545109200, "tempmax": 37.5, "tempmin": 26.6, "temp": 32.6, "feelslikemax": 29.9, "feelslikemin": 21.0, "feelslike": 24.9, "dew": 17.2, "humidity": 52.96, "precip": 0.0, "precipprob": null, "precipcover": 0.0, "preciptype": null, "snow": 0.0, "snowdepth": 0.0, "windgust": 36.7, "windspeed": 22.4, "winddir": 309.8, "pressure": 1017.7, "cloudcover": 16.6, "visibility": 9.9, "solarradiation": 221.8, "solarenergy": 9.6, "uvindex": 5.0, "sunrise": "07:21:57", "sunriseEpoch": 1545135717, "sunset": "16:36:36", "sunsetEpoch": 1545168996, "moonphase": 0.39, "conditions": "Clear", "description": "Clear conditions throughout the day.", "icon": "clear-day", "stations": ["72517014737", "72543454789", "TT137", "E6123", "KABE", "99999900379", "KXLL", "D6615"], "source": "obs"}], "stations": {"72517014737": {"distance": 27179.0, "latitude": 40.65, "longitude": -75.448, "useCount": 0, "id": "72517014737", "name": "ALLENTOWN LEHIGH VALLEY INTERNATIONAL AIRPORT, PA US", "quality": 100, "contribution": 0.0}, "72543454789": {"distance": 40627.0, "latitude": 41.139, "longitude": -75.379, "useCount": 0, "id": "72543454789", "name": "MOUNT POCONO POCONO MOUNTAINS MUNICIPAL AIRPORT, PA US", "quality": 100, "contribution": 0.0}, "TT137": {"distance": 43938.0, "latitude": 41.232, "longitude": -75.624, "useCount": 0, "id": "TT137", "name": "THORNHURST PA US", "quality": 0, "contribution": 0.0}, "E6123": {"distance": 36312.0, "latitude": 40.705, "longitude": -75.26, "useCount": 0, "id": "E6123", "name": "EW6123 Palmer Township PA US", "quality": 0, "contribution": 0.0}, "KABE": {"distance": 28137.0, "latitude": 40.65, "longitude": -75.43, "useCount": 0, "id": "KABE", "name": "ALLENTOWN-BETHLE, PA", "quality": 100, "contribution": 0.0}, "99999900379": {"distance": 33405.0, "latitude": 40.567, "longitude": -75.483, "useCount": 0, "id": "99999900379", "name": null, "quality": 99, "contribution": 0.0}, "KXLL": {"distance": 33214.0, "latitude": 40.57, "longitude": -75.48, "useCount": 0, "id": "KXLL", "name": "KXLL", "quality": 100, "contribution": 0.0}, "D6615": {"distance": 29930.0, "latitude": 40.57, "longitude": -75.678, "useCount": 0, "id": "D6615", "name": "DW6615 Breinigsville PA US", "quality": 0, "contribution": 0.0}}}