{"queryCost": 1, "latitude": 35.951, "longitude": -78.526, "resolvedAddress": "35.95100,-78.52600", "address": "35.95100,-78.52600", "timezone": "America/New_York", "tzoffset": -4.0, "days": [{"datetime": "2015-05-06", "datetimeEpoch": 1430884800, "tempmax": 80.1, "tempmin": 51.6, "temp": 66.9, "feelslikemax": 80.4, "feelslikemin": 51.6, "feelslike": 66.9, "dew": 54.5, "humidity": 67.3, "precip": 0.0, "precipprob": 0.0, "precipcover": 0.0, "preciptype": null, "snow": 0.0, "snowdepth": 0.0, "windgust": null, "windspeed": 8.3, "winddir": 182.5, "pressure": 1022.8, "cloudcover": 29.8, "visibility": 9.9, "solarradiation": 316.7, "solarenergy": 27.3, "uvindex": 10.0, "sunrise": "06:16:42", "sunriseEpoch": 1430907402, "sunset": "20:05:18", "sunsetEpoch": 1430957118, "moonphase": 0.53, "conditions": "Partially cloudy", "description": "Partly cloudy throughout the day.", "icon": "partly-cloudy-day", "stations": ["KLHZ", "72214103731", "72028803711", "72306013722", "KRDU"], "source": "obs"}], "stations": {"KLHZ": {"distance": 19253.0, "latitude": 36.02, "longitude": -78.33, "useCount": 0, "id": "KLHZ", "name": "KLHZ", "quality": 99, "contribution": 0.0}, "72306013722": {"distance": 23977.0, "latitude": 35.892, "longitude": -78.782, "useCount": 0, "id": "72306013722", "name": "RALEIGH AIRPORT, NC US", "quality": 100, "contribution": 0.0}, "KRDU": {"distance": 25043.0, "latitude": 35.86, "longitude": -78.78, "useCount": 0, "id": "KRDU", "name": "KRDU", "quality": 100, "contribution": 0.0}, "72214103731": {"distance": 19378.0, "latitude": 36.023, "longitude": -78.33, "useCount": 0, "id": "72214103731", "name": "LOUISBURG FRANKLIN CO AIRPORT, NC US", "quality": 100, "contribution": 0.0}, "72028803711": {"distance": 45686.0, "latitude": 36.361, "longitude": -78.529, "useCount": 0, "id": "72028803711", "name": "HENDERSON OXFORD AIRPORT, NC US", "quality": 95, "contribution": 0.0}}}