{"queryCost": 1, "latitude": 36.259, "longitude": -90.293, "resolvedAddress": "36.25900,-90.29300", "address": "36.25900,-90.29300", "timezone": "America/Chicago", "tzoffset": -6.0, "days": [{"datetime": "2018-12-26", "datetimeEpoch": 1545804000, "tempmax": 53.2, "tempmin": 39.8, "temp": 47.5, "feelslikemax": 53.2, "feelslikemin": 36.5, "feelslike": 45.9, "dew": 45.4, "humidity": 92.7, "precip": 0.0, "precipprob": 0.0, "precipcover": 0.0, "preciptype": null, "snow": 0.0, "snowdepth": 0.0, "windgust": 24.2, "windspeed": 13.4, "winddir": 93.3, "pressure": 1024.0, "cloudcover": 36.7, "visibility": 6.1, "solarradiation": 18.5, "solarenergy": 1.5, "uvindex": 1.0, "sunrise": "07:10:57", "sunriseEpoch": 1545829857, "sunset": "16:52:46", "sunsetEpoch": 1545864766, "moonphase": 0.6, "conditions": "Partially cloudy", "description": "Partly cloudy throughout the day.", "icon": "partly-cloudy-day", "stations": ["KHKA", "72330003975", "72340953869", "DFSM7", "72033199999", "KMAW", "KPOF"], "source": "obs"}], "stations": {"KHKA": {"distance": 54729.0, "latitude": 35.94, "longitude": -89.83, "useCount": 0, "id": "KHKA", "name": "KHKA", "quality": 100, "contribution": 0.0}, "72330003975": {"distance": 57233.0, "latitude": 36.773, "longitude": -90.325, "useCount": 0, "id": "72330003975", "name": "POPLAR BLUFF MUNICIPAL AIRPORT, MO US", "quality": 100, "contribution": 0.0}, "72340953869": {"distance": 54653.0, "latitude": 35.94, "longitude": -89.831, "useCount": 0, "id": "72340953869", "name": "BLYTHEVILLE MUNICIPAL AIRPORT, AR US", "quality": 100, "contribution": 0.0}, "DFSM7": {"distance": 62750.0, "latitude": 36.627, "longitude": -90.824, "useCount": 0, "id": "DFSM7", "name": "DONIPHAN MO US", "quality": 0, "contribution": 0.0}, "72033199999": {"distance": 23313.0, "latitude": 36.226, "longitude": -90.037, "useCount": 0, "id": "72033199999", "name": "KENNETT MEM, MO US", "quality": 100, "contribution": 0.0}, "KMAW": {"distance": 46148.0, "latitude": 36.6, "longitude": -90.0, "useCount": 0, "id": "KMAW", "name": "KMAW", "quality": 99, "contribution": 0.0}, "KPOF": {"distance": 55792.0, "latitude": 36.76, "longitude": -90.31, "useCount": 0, "id": "KPOF", "name": "KPOF", "quality": 100, "contribution": 0.0}}}