{"queryCost": 1, "latitude": 34.12, "longitude": -117.934, "resolvedAddress": "34.12000,-117.93400", "address": "34.12000,-117.93400", "timezone": "America/Los_Angeles", "tzoffset": -8.0, "days": [{"datetime": "2018-12-21", "datetimeEpoch": 1545379200, "tempmax": 70.3, "tempmin": 52.5, "temp": 58.9, "feelslikemax": 70.3, "feelslikemin": 52.5, "feelslike": 58.9, "dew": 46.1, "humidity": 64.3, "precip": 0.0, "precipprob": null, "precipcover": 0.0, "preciptype": null, "snow": 0.0, "snowdepth": 0.0, "windgust": null, "windspeed": 6.9, "winddir": 172.4, "pressure": 1015.4, "cloudcover": 38.4, "visibility": 8.4, "solarradiation": 102.3, "solarenergy": 5.9, "uvindex": 3.0, "sunrise": "06:53:42", "sunriseEpoch": 1545404022, "sunset": "16:46:13", "sunsetEpoch": 1545439573, "moonphase": 0.49, "conditions": "Partially cloudy", "description": "Partly cloudy throughout the day.", "icon": "partly-cloudy-day", "stations": ["KFUL", "72289903179", "KONT", "CI078", "KCNO", "STFC1", "74704003102", "72297603166"], "source": "obs"}], "stations": {"KFUL": {"distance": 29253.0, "latitude": 33.86, "longitude": -117.98, "useCount": 0, "id": "KFUL", "name": "KFUL", "quality": 100, "contribution": 0.0}, "72289903179": {"distance": 31859.0, "latitude": 33.975, "longitude": -117.636, "useCount": 0, "id": "72289903179", "name": "CHINO AIRPORT, CA US", "quality": 100, "contribution": 0.0}, "KONT": {"distance": 32057.0, "latitude": 34.04, "longitude": -117.6, "useCount": 0, "id": "KONT", "name": "KONT", "quality": 100, "contribution": 0.0}, "CI078": {"distance": 13196.0, "latitude": 34.058, "longitude": -117.812, "useCount": 0, "id": "CI078", "name": "Pomona CA US CIMIS", "quality": 0, "contribution": 0.0}, "KCNO": {"distance": 32636.0, "latitude": 33.97, "longitude": -117.63, "useCount": 0, "id": "KCNO", "name": "KCNO", "quality": 100, "contribution": 0.0}, "STFC1": {"distance": 1377.0, "latitude": 34.126, "longitude": -117.947, "useCount": 0, "id": "STFC1", "name": "SANTA FE DAM CA US", "quality": 0, "contribution": 0.0}, "74704003102": {"distance": 31603.0, "latitude": 34.056, "longitude": -117.6, "useCount": 0, "id": "74704003102", "name": "ONTARIO INTERNATIONAL AIRPORT, CA US", "quality": 100, "contribution": 0.0}, "72297603166": {"distance": 27929.0, "latitude": 33.872, "longitude": -117.979, "useCount": 0, "id": "72297603166", "name": "FULLERTON MUNICIPAL AIRPORT, CA US", "quality": 100, "contribution": 0.0}}}