{"queryCost": 1, "latitude": 40.199, "longitude": -105.107, "resolvedAddress": "40.19900,-105.10700", "address": "40.19900,-105.10700", "timezone": "America/Denver", "tzoffset": -7.0, "days": [{"datetime": "2018-12-31", "datetimeEpoch": 1546239600, "tempmax": 32.3, "tempmin": 8.1, "temp": 18.7, "feelslikemax": 31.2, "feelslikemin": -0.9, "feelslike": 10.2, "dew": 8.7, "humidity": 65.2, "precip": 0.0, "precipprob": null, "precipcover": 0.0, "preciptype": null, "snow": 0.25, "snowdepth": 0.25, "windgust": 43.6, "windspeed": 15.4, "winddir": 112.0, "pressure": 1018.2, "cloudcover": 78.1, "visibility": 6.8, "solarradiation": 48.6, "solarenergy": 4.2, "uvindex": 2.0, "sunrise": "07:22:51", "sunriseEpoch": 1546266171, "sunset": "16:44:21", "sunsetEpoch": 1546299861, "moonphase": 0.86, "conditions": "Partially cloudy", "description": "Partly cloudy throughout the day.", "icon": "snow", "stations": ["KLMO", "E2670", "72476994035", "KFNL", "AV313", "99999994075", "KGXY", "72053800164"], "source": "obs"}], "stations": {"KLMO": {"distance": 7076.0, "latitude": 40.15, "longitude": -105.16, "useCount": 0, "id": "KLMO", "name": "KLMO", "quality": 96, "contribution": 0.0}, "E2670": {"distance": 2649.0, "latitude": 40.213, "longitude": -105.132, "useCount": 0, "id": "E2670", "name": "EW2670 Longmont CO US", "quality": 0, "contribution": 0.0}, "72476994035": {"distance": 28966.0, "latitude": 40.45, "longitude": -105.017, "useCount": 0, "id": "72476994035", "name": "FORT COLLINS LOVELAND AIRPORT, CO US", "quality": 100, "contribution": 0.0}, "KFNL": {"distance": 28900.0, "latitude": 40.45, "longitude": -105.02, "useCount": 0, "id": "KFNL", "name": "LOVELAND/FT CLNS, CO", "quality": 100, "contribution": 0.0}, "AV313": {"distance": 23189.0, "latitude": 39.991, "longitude": -105.11, "useCount": 0, "id": "AV313", "name": "AA0FC Lafayette CO US", "quality": 0, "contribution": 0.0}, "99999994075": {"distance": 41191.0, "latitude": 40.035, "longitude": -105.541, "useCount": 0, "id": "99999994075", "name": "BOULDER 14 W, CO US", "quality": 100, "contribution": 0.0}, "KGXY": {"distance": 47964.0, "latitude": 40.43, "longitude": -104.63, "useCount": 0, "id": "KGXY", "name": "GREELEY, CO", "quality": 100, "contribution": 0.0}, "72053800164": {"distance": 6223.0, "latitude": 40.167, "longitude": -105.167, "useCount": 0, "id": "72053800164", "name": "VANCE BRAND AIRPORT, CO US", "quality": 96, "contribution": 0.0}}}