{"queryCost": 1, "latitude": 29.37, "longitude": -98.504, "resolvedAddress": "29.37000,-98.50400", "address": "29.37000,-98.50400", "timezone": "America/Chicago", "tzoffset": -6.0, "days": [{"datetime": "2019-01-03", "datetimeEpoch": 1546495200, "tempmax": 57.7, "tempmin": 38.8, "temp": 45.2, "feelslikemax": 57.7, "feelslikemin": 33.1, "feelslike": 42.9, "dew": 35.5, "humidity": 72.2, "precip": 0.07, "precipprob": 100.0, "precipcover": 29.17, "preciptype": ["rain"], "snow": 0.0, "snowdepth": 0.0, "windgust": 21.9, "windspeed": 13.0, "winddir": 322.8, "pressure": 1017.0, "cloudcover": 33.3, "visibility": 8.6, "solarradiation": 43.3, "solarenergy": 3.8, "uvindex": 2.0, "sunrise": "07:29:01", "sunriseEpoch": 1546522141, "sunset": "17:48:07", "sunsetEpoch": 1546559287, "moonphase": 0.97, "conditions": "Rain, Partially cloudy", "description": "Clearing in the afternoon with rain clearing later.", "icon": "rain", "stations": ["KSKF", "E7101", "KSSF", "KSAT", "72253012921", "72252312970", "72253512909"], "source": "obs"}], "stations": {"KSKF": {"distance": 7456.0, "latitude": 29.38, "longitude": -98.58, "useCount": 0, "id": "KSKF", "name": "KSKF", "quality": 100, "contribution": 0.0}, "E7101": {"distance": 12857.0, "latitude": 29.482, "longitude": -98.47, "useCount": 0, "id": "E7101", "name": "EW7101 San Antonio TX US", "quality": 0, "contribution": 0.0}, "KSSF": {"distance": 5542.0, "latitude": 29.33, "longitude": -98.47, "useCount": 0, "id": "KSSF", "name": "KSSF", "quality": 100, "contribution": 0.0}, "KSAT": {"distance": 18113.0, "latitude": 29.53, "longitude": -98.47, "useCount": 0, "id": "KSAT", "name": "KSAT", "quality": 100, "contribution": 0.0}, "72253012921": {"distance": 19501.0, "latitude": 29.544, "longitude": -98.484, "useCount": 0, "id": "72253012921", "name": "SAN ANTONIO INTERNATIONAL AIRPORT, TX US", "quality": 100, "contribution": 0.0}, "72252312970": {"distance": 4650.0, "latitude": 29.339, "longitude": -98.472, "useCount": 0, "id": "72252312970", "name": "SAN ANTONIO STINSON MUNICIPAL AIRPORT, TX US", "quality": 100, "contribution": 0.0}, "72253512909": {"distance": 7834.0, "latitude": 29.383, "longitude": -98.583, "useCount": 0, "id": "72253512909", "name": "SAN ANTONIO KELLY FIELD AFB, TX US", "quality": 98, "contribution": 0.0}}}