{"queryCost": 1, "latitude": 33.611, "longitude": -112.168, "resolvedAddress": "33.61100,-112.16800", "address": "33.61100,-112.16800", "timezone": "America/Phoenix", "tzoffset": -7.0, "days": [{"datetime": "2018-12-28", "datetimeEpoch": 1545980400, "tempmax": 52.5, "tempmin": 36.8, "temp": 44.6, "feelslikemax": 52.5, "feelslikemin": 30.8, "feelslike": 42.2, "dew": 21.1, "humidity": 40.54, "precip": 0.0, "precipprob": null, "precipcover": 0.0, "preciptype": null, "snow": 0.0, "snowdepth": 0.0, "windgust": null, "windspeed": 8.9, "winddir": 213.3, "pressure": 1014.1, "cloudcover": 9.9, "visibility": 9.9, "solarradiation": 299.3, "solarenergy": 12.9, "uvindex": 6.0, "sunrise": "07:32:13", "sunriseEpoch": 1546007533, "sunset": "17:28:32", "sunsetEpoch": 1546043312, "moonphase": 0.7, "conditions": "Clear", "description": "Clear conditions throughout the day.", "icon": "clear-day", "stations": ["72278403184", "72278903192", "SRP29", "KLUF", "KSDL", "KDVT", "72278523111", "AS304"], "source": "obs"}], "stations": {"72278403184": {"distance": 11728.0, "latitude": 33.688, "longitude": -112.082, "useCount": 0, "id": "72278403184", "name": "PHOENIX DEER VALLEY MUNICIPAL AIRPORT, AZ US", "quality": 100, "contribution": 0.0}, "72278903192": {"distance": 23861.0, "latitude": 33.623, "longitude": -111.911, "useCount": 0, "id": "72278903192", "name": "SCOTTSDALE MUNICIPAL AIRPORT, AZ US", "quality": 100, "contribution": 0.0}, "SRP29": {"distance": 7054.0, "latitude": 33.57, "longitude": -112.11, "useCount": 0, "id": "SRP29", "name": "Pringle AZ US SRP", "quality": 0, "contribution": 0.0}, "KLUF": {"distance": 21632.0, "latitude": 33.53, "longitude": -112.38, "useCount": 0, "id": "KLUF", "name": "KLUF", "quality": 100, "contribution": 0.0}, "KSDL": {"distance": 22992.0, "latitude": 33.61, "longitude": -111.92, "useCount": 0, "id": "KSDL", "name": "KSDL", "quality": 100, "contribution": 0.0}, "KDVT": {"distance": 11894.0, "latitude": 33.68, "longitude": -112.07, "useCount": 0, "id": "KDVT", "name": "KDVT", "quality": 100, "contribution": 0.0}, "72278523111": {"distance": 19665.0, "latitude": 33.55, "longitude": -112.367, "useCount": 0, "id": "72278523111", "name": "PHOENIX LUKE AFB, AZ US", "quality": 96, "contribution": 0.0}, "AS304": {"distance": 2667.0, "latitude": 33.598, "longitude": -112.192, "useCount": 0, "id": "AS304", "name": "KC7FQC Phoenix AZ US", "quality": 0, "contribution": 0.0}}}