{"queryCost": 1, "latitude": 32.466, "longitude": -86.392, "resolvedAddress": "32.46600,-86.39200", "address": "32.46600,-86.39200", "timezone": "America/Chicago", "tzoffset": -6.0, "days": [{"datetime": "2019-01-03", "datetimeEpoch": 1546495200, "tempmax": 58.2, "tempmin": 54.6, "temp": 56.1, "feelslikemax": 58.2, "feelslikemin": 54.6, "feelslike": 56.1, "dew": 55.2, "humidity": 96.7, "precip": 0.25, "precipprob": 100.0, "precipcover": 33.33, "preciptype": ["rain"], "snow": 0.0, "snowdepth": 0.0, "windgust": null, "windspeed": 10.6, "winddir": 173.0, "pressure": 1015.9, "cloudcover": 93.3, "visibility": 8.1, "solarradiation": 13.6, "solarenergy": 1.1, "uvindex": 1.0, "sunrise": "06:47:43", "sunriseEpoch": 1546519663, "sunset": "16:52:31", "sunsetEpoch": 1546555951, "moonphase": 0.97, "conditions": "Rain, Overcast", "description": "Cloudy skies throughout the day with rain.", "icon": "rain", "stations": ["KMXF", "72226513821", "E6364", "72226013895", "KMGM", "K1A9", "99999963891", "MRSA1"], "source": "obs"}], "stations": {"KMXF": {"distance": 9794.0, "latitude": 32.38, "longitude": -86.37, "useCount": 0, "id": "KMXF", "name": "KMXF", "quality": 100, "contribution": 0.0}, "72226513821": {"distance": 10016.0, "latitude": 32.383, "longitude": -86.35, "useCount": 0, "id": "72226513821", "name": "MAXWELL AFB, AL US", "quality": 100, "contribution": 0.0}, "E6364": {"distance": 27856.0, "latitude": 32.63, "longitude": -86.168, "useCount": 0, "id": "E6364", "name": "EW6364 Wetumpka AL US", "quality": 0, "contribution": 0.0}, "72226013895": {"distance": 18570.0, "latitude": 32.3, "longitude": -86.407, "useCount": 0, "id": "72226013895", "name": "MONTGOMERY AIRPORT, AL US", "quality": 100, "contribution": 0.0}, "KMGM": {"distance": 19607.0, "latitude": 32.29, "longitude": -86.4, "useCount": 0, "id": "KMGM", "name": "KMGM", "quality": 100, "contribution": 0.0}, "K1A9": {"distance": 11787.0, "latitude": 32.43, "longitude": -86.51, "useCount": 0, "id": "K1A9", "name": "K1A9", "quality": 98, "contribution": 0.0}, "99999963891": {"distance": 47600.0, "latitude": 32.852, "longitude": -86.611, "useCount": 0, "id": "99999963891", "name": "CLANTON 2 NE, AL US", "quality": 100, "contribution": 0.0}, "MRSA1": {"distance": 45650.0, "latitude": 32.412, "longitude": -85.91, "useCount": 0, "id": "MRSA1", "name": "MORRIS FARMS AL US SCAN", "quality": 0, "contribution": 0.0}}}