{"queryCost": 1, "latitude": 32.677, "longitude": -86.1, "resolvedAddress": "32.67700,-86.10000", "address": "32.67700,-86.10000", "timezone": "America/Chicago", "tzoffset": -6.0, "days": [{"datetime": "2019-01-10", "datetimeEpoch": 1547100000, "tempmax": 50.8, "tempmin": 33.0, "temp": 40.9, "feelslikemax": 50.8, "feelslikemin": 29.4, "feelslike": 37.2, "dew": 22.1, "humidity": 48.4, "precip": 0.0, "precipprob": 0.0, "precipcover": 0.0, "preciptype": null, "snow": 0.0, "snowdepth": 0.0, "windgust": 17.2, "windspeed": 12.0, "winddir": 261.1, "pressure": 1024.2, "cloudcover": 2.6, "visibility": 9.9, "solarradiation": 84.1, "solarenergy": 7.3, "uvindex": 4.0, "sunrise": "06:47:25", "sunriseEpoch": 1547124445, "sunset": "16:56:35", "sunsetEpoch": 1547160995, "moonphase": 0.08, "conditions": "Clear", "description": "Clear conditions throughout the day.", "icon": "clear-day", "stations": ["KALX", "72026563833", "KMXF", "72226513821", "E6364", "72226013895", "K1A9", "MRSA1"], "source": "obs"}], "stations": {"KALX": {"distance": 28070.0, "latitude": 32.9, "longitude": -85.96, "useCount": 0, "id": "KALX", "name": "KALX", "quality": 100, "contribution": 0.0}, "72026563833": {"distance": 29411.0, "latitude": 32.915, "longitude": -85.963, "useCount": 0, "id": "72026563833", "name": "ALEXANDER CITY THOMAS C RUSSELL FIELD AIRPORT, AL US", "quality": 100, "contribution": 0.0}, "KMXF": {"distance": 41656.0, "latitude": 32.38, "longitude": -86.37, "useCount": 0, "id": "KMXF", "name": "KMXF", "quality": 100, "contribution": 0.0}, "72226513821": {"distance": 40243.0, "latitude": 32.383, "longitude": -86.35, "useCount": 0, "id": "72226513821", "name": "MAXWELL AFB, AL US", "quality": 100, "contribution": 0.0}, "E6364": {"distance": 8232.0, "latitude": 32.63, "longitude": -86.168, "useCount": 0, "id": "E6364", "name": "EW6364 Wetumpka AL US", "quality": 0, "contribution": 0.0}, "72226013895": {"distance": 50968.0, "latitude": 32.3, "longitude": -86.407, "useCount": 0, "id": "72226013895", "name": "MONTGOMERY AIRPORT, AL US", "quality": 100, "contribution": 0.0}, "K1A9": {"distance": 47286.0, "latitude": 32.43, "longitude": -86.51, "useCount": 0, "id": "K1A9", "name": "K1A9", "quality": 98, "contribution": 0.0}, "MRSA1": {"distance": 34435.0, "latitude": 32.412, "longitude": -85.91, "useCount": 0, "id": "MRSA1", "name": "MORRIS FARMS AL US SCAN", "quality": 0, "contribution": 0.0}}}