{"queryCost": 1, "latitude": 32.661, "longitude": -97.395, "resolvedAddress": "32.66100,-97.39500", "address": "32.66100,-97.39500", "timezone": "America/Chicago", "tzoffset": -5.0, "days": [{"datetime": "2015-05-11", "datetimeEpoch": 1431320400, "tempmax": 72.0, "tempmin": 61.2, "temp": 67.4, "feelslikemax": 72.0, "feelslikemin": 61.2, "feelslike": 67.4, "dew": 55.2, "humidity": 66.5, "precip": 0.0, "precipprob": 0.0, "precipcover": 0.0, "preciptype": null, "snow": 0.0, "snowdepth": 0.0, "windgust": 20.8, "windspeed": 16.2, "winddir": 164.6, "pressure": 1016.2, "cloudcover": 68.4, "visibility": 9.9, "solarradiation": 300.4, "solarenergy": 25.9, "uvindex": 10.0, "sunrise": "06:34:00", "sunriseEpoch": 1431344040, "sunset": "20:18:21", "sunsetEpoch": 1431393501, "moonphase": 0.76, "conditions": "Partially cloudy", "description": "Partly cloudy throughout the day.", "icon": "partly-cloudy-day", "stations": ["72247953907", "74739013961", "KNFW", "72259513911", "KGKY", "KFTW"], "source": "obs"}], "stations": {"72247953907": {"distance": 28219.0, "latitude": 32.664, "longitude": -97.094, "useCount": 0, "id": "72247953907", "name": "ARLINGTON MUNICIPAL AIRPORT, TX US", "quality": 100, "contribution": 0.0}, "74739013961": {"distance": 17890.0, "latitude": 32.819, "longitude": -97.361, "useCount": 0, "id": "74739013961", "name": "FORT WORTH MEACHAM FIELD, TX US", "quality": 100, "contribution": 0.0}, "KNFW": {"distance": 13182.0, "latitude": 32.77, "longitude": -97.45, "useCount": 0, "id": "KNFW", "name": "KNFW", "quality": 100, "contribution": 0.0}, "72259513911": {"distance": 12845.0, "latitude": 32.767, "longitude": -97.45, "useCount": 0, "id": "72259513911", "name": "FORT WORTH NAS, TX US", "quality": 100, "contribution": 0.0}, "KGKY": {"distance": 28612.0, "latitude": 32.65, "longitude": -97.09, "useCount": 0, "id": "KGKY", "name": "KGKY", "quality": 100, "contribution": 0.0}, "KFTW": {"distance": 17854.0, "latitude": 32.82, "longitude": -97.37, "useCount": 0, "id": "KFTW", "name": "FT WORTH/MEACHAM, TX", "quality": 100, "contribution": 0.0}}}