{"queryCost": 1, "latitude": 39.128, "longitude": -121.554, "resolvedAddress": "39.12800,-121.55400", "address": "39.12800,-121.55400", "timezone": "America/Los_Angeles", "tzoffset": -8.0, "days": [{"datetime": "2019-01-14", "datetimeEpoch": 1547452800, "tempmax": 53.8, "tempmin": 38.3, "temp": 46.3, "feelslikemax": 53.8, "feelslikemin": 35.9, "feelslike": 44.5, "dew": 40.8, "humidity": 81.8, "precip": 0.08, "precipprob": 100.0, "precipcover": 25.0, "preciptype": ["rain"], "snow": 0.0, "snowdepth": 0.0, "windgust": null, "windspeed": 9.1, "winddir": 111.0, "pressure": 1014.1, "cloudcover": 62.0, "visibility": 9.8, "solarradiation": 68.1, "solarenergy": 5.9, "uvindex": 2.0, "sunrise": "07:24:20", "sunriseEpoch": 1547479460, "sunset": "17:06:33", "sunsetEpoch": 1547514393, "moonphase": 0.26, "conditions": "Rain, Partially cloudy", "description": "Partly cloudy throughout the day with rain.", "icon": "rain", "stations": ["72483893205", "72061400205", "74504893210", "CI084", "E9644", "KBAB", "KMYV", "72483793216", "BNGC1"], "source": "obs"}], "stations": {"72483893205": {"distance": 3147.0, "latitude": 39.102, "longitude": -121.568, "useCount": 0, "id": "72483893205", "name": "MARYSVILLE YUBA CO AIRPORT, CA US", "quality": 100, "contribution": 0.0}, "72061400205": {"distance": 30043.0, "latitude": 38.909, "longitude": -121.351, "useCount": 0, "id": "72061400205", "name": "LINCOLN REGIONAL AIRPORT KARL HARDER FIELD, CA US", "quality": 100, "contribution": 0.0}, "74504893210": {"distance": 40673.0, "latitude": 39.49, "longitude": -121.618, "useCount": 0, "id": "74504893210", "name": "OROVILLE MUNICIPAL AIRPORT, CA US", "quality": 100, "contribution": 0.0}, "CI084": {"distance": 26322.0, "latitude": 39.271, "longitude": -121.311, "useCount": 0, "id": "CI084", "name": "Browns Valley CA US CIMIS", "quality": 0, "contribution": 0.0}, "E9644": {"distance": 23079.0, "latitude": 39.066, "longitude": -121.809, "useCount": 0, "id": "E9644", "name": "EW9644 Meridian CA US", "quality": 0, "contribution": 0.0}, "KBAB": {"distance": 10710.0, "latitude": 39.13, "longitude": -121.43, "useCount": 0, "id": "KBAB", "name": "KBAB", "quality": 100, "contribution": 0.0}, "KMYV": {"distance": 3410.0, "latitude": 39.1, "longitude": -121.57, "useCount": 0, "id": "KMYV", "name": "KMYV", "quality": 100, "contribution": 0.0}, "72483793216": {"distance": 10465.0, "latitude": 39.133, "longitude": -121.433, "useCount": 0, "id": "72483793216", "name": "BEALE AFB, CA US", "quality": 96, "contribution": 0.0}, "BNGC1": {"distance": 31639.0, "latitude": 39.381, "longitude": -121.386, "useCount": 0, "id": "BNGC1", "name": "BANGOR CA US", "quality": 0, "contribution": 0.0}}}