{"queryCost": 1, "latitude": 39.247, "longitude": -85.056, "resolvedAddress": "39.24700,-85.05600", "address": "39.24700,-85.05600", "timezone": "America/New_York", "tzoffset": -5.0, "days": [{"datetime": "2019-01-12", "datetimeEpoch": 1547269200, "tempmax": 32.2, "tempmin": 27.6, "temp": 30.4, "feelslikemax": 27.8, "feelslikemin": 21.0, "feelslike": 24.1, "dew": 28.0, "humidity": 91.3, "precip": 0.16, "precipprob": 100.0, "precipcover": 58.33, "preciptype": ["rain", "snow"], "snow": 5.4, "snowdepth": 3.4, "windgust": null, "windspeed": 9.3, "winddir": 72.4, "pressure": 1025.9, "cloudcover": 82.7, "visibility": 3.8, "solarradiation": 105.3, "solarenergy": 9.1, "uvindex": 0.0, "sunrise": "07:59:16", "sunriseEpoch": 1547297956, "sunset": "17:38:02", "sunsetEpoch": 1547332682, "moonphase": 0.16, "conditions": "Snow, Rain, Partially cloudy", "description": "Partly cloudy throughout the day with a chance of rain or snow throughout the day.", "icon": "snow", "stations": ["KHLB", "72521753855", "D8245", "72421093814", "KHAO", "KCVG", "E4634", "KI67"], "source": "obs"}], "stations": {"KHLB": {"distance": 20983.0, "latitude": 39.35, "longitude": -85.26, "useCount": 0, "id": "KHLB", "name": "KHLB", "quality": 98, "contribution": 0.0}, "72521753855": {"distance": 47594.0, "latitude": 39.364, "longitude": -84.525, "useCount": 0, "id": "72521753855", "name": "HAMILTON BUTLER CO REGIONAL AIRPORT, OH US", "quality": 100, "contribution": 0.0}, "D8245": {"distance": 30452.0, "latitude": 39.498, "longitude": -85.197, "useCount": 0, "id": "D8245", "name": "DW8245 Laurel IN US", "quality": 0, "contribution": 0.0}, "72421093814": {"distance": 40068.0, "latitude": 39.044, "longitude": -84.672, "useCount": 0, "id": "72421093814", "name": "CINCINNATI NORTHERN KENTUCKY INTERNATIONAL AIRPORT, KY US", "quality": 100, "contribution": 0.0}, "KHAO": {"distance": 47853.0, "latitude": 39.36, "longitude": -84.52, "useCount": 0, "id": "KHAO", "name": "KHAO", "quality": 100, "contribution": 0.0}, "KCVG": {"distance": 40516.0, "latitude": 39.04, "longitude": -84.67, "useCount": 0, "id": "KCVG", "name": "KCVG", "quality": 100, "contribution": 0.0}, "E4634": {"distance": 38088.0, "latitude": 39.156, "longitude": -84.63, "useCount": 0, "id": "E4634", "name": "EW4634 Bridgetown OH US", "quality": 0, "contribution": 0.0}, "KI67": {"distance": 23795.0, "latitude": 39.25, "longitude": -84.78, "useCount": 0, "id": "KI67", "name": "KI67", "quality": 99, "contribution": 0.0}}}