{"queryCost": 1, "latitude": 33.509, "longitude": -112.255, "resolvedAddress": "33.50900,-112.25500", "address": "33.50900,-112.25500", "timezone": "America/Phoenix", "tzoffset": -7.0, "days": [{"datetime": "2019-01-11", "datetimeEpoch": 1547190000, "tempmax": 64.1, "tempmin": 42.1, "temp": 53.0, "feelslikemax": 64.1, "feelslikemin": 38.7, "feelslike": 52.2, "dew": 44.7, "humidity": 75.76, "precip": 0.0, "precipprob": null, "precipcover": 0.0, "preciptype": null, "snow": 0.0, "snowdepth": 0.0, "windgust": null, "windspeed": 9.1, "winddir": 96.0, "pressure": 1017.6, "cloudcover": 15.6, "visibility": 9.3, "solarradiation": 279.5, "solarenergy": 12.1, "uvindex": 6.0, "sunrise": "07:33:53", "sunriseEpoch": 1547217233, "sunset": "17:40:14", "sunsetEpoch": 1547253614, "moonphase": 0.12, "conditions": "Clear", "description": "Clear conditions throughout the day.", "icon": "clear-day", "stations": ["72278403184", "KLUF", "KDVT", "AU443", "72278023183", "KPHX", "SRP34", "72278523111"], "source": "obs"}], "stations": {"72278403184": {"distance": 25607.0, "latitude": 33.688, "longitude": -112.082, "useCount": 0, "id": "72278403184", "name": "PHOENIX DEER VALLEY MUNICIPAL AIRPORT, AZ US", "quality": 100, "contribution": 0.0}, "KLUF": {"distance": 11834.0, "latitude": 33.53, "longitude": -112.38, "useCount": 0, "id": "KLUF", "name": "KLUF", "quality": 100, "contribution": 0.0}, "KDVT": {"distance": 25625.0, "latitude": 33.68, "longitude": -112.07, "useCount": 0, "id": "KDVT", "name": "KDVT", "quality": 100, "contribution": 0.0}, "AU443": {"distance": 2198.0, "latitude": 33.514, "longitude": -112.232, "useCount": 0, "id": "AU443", "name": "KU7E Glendale AZ US", "quality": 0, "contribution": 0.0}, "72278023183": {"distance": 25004.0, "latitude": 33.428, "longitude": -112.004, "useCount": 0, "id": "72278023183", "name": "PHOENIX AIRPORT, AZ US", "quality": 100, "contribution": 0.0}, "KPHX": {"distance": 23528.0, "latitude": 33.43, "longitude": -112.02, "useCount": 0, "id": "KPHX", "name": "KPHX", "quality": 100, "contribution": 0.0}, "SRP34": {"distance": 4682.0, "latitude": 33.49, "longitude": -112.21, "useCount": 0, "id": "SRP34", "name": "Sheely AZ US SRP", "quality": 0, "contribution": 0.0}, "72278523111": {"distance": 11351.0, "latitude": 33.55, "longitude": -112.367, "useCount": 0, "id": "72278523111", "name": "PHOENIX LUKE AFB, AZ US", "quality": 96, "contribution": 0.0}}}