{"queryCost": 1, "latitude": 38.795, "longitude": -90.722, "resolvedAddress": "38.79500,-90.72200", "address": "38.79500,-90.72200", "timezone": "America/Chicago", "tzoffset": -6.0, "days": [{"datetime": "2019-01-18", "datetimeEpoch": 1547791200, "tempmax": 36.9, "tempmin": 34.1, "temp": 35.8, "feelslikemax": 35.5, "feelslikemin": 27.3, "feelslike": 31.1, "dew": 33.2, "humidity": 90.26, "precip": 0.16, "precipprob": null, "precipcover": 8.33, "preciptype": null, "snow": 0.33, "snowdepth": 3.0, "windgust": 25.7, "windspeed": 15.5, "winddir": 130.6, "pressure": 1017.9, "cloudcover": 98.3, "visibility": 6.8, "solarradiation": 24.3, "solarenergy": 2.0, "uvindex": 1.0, "sunrise": "07:18:36", "sunriseEpoch": 1547817516, "sunset": "17:08:19", "sunsetEpoch": 1547852899, "moonphase": 0.45, "conditions": "Snow, Overcast", "description": "Cloudy skies throughout the day with late afternoon snow.", "icon": "snow", "stations": ["KSTL", "KSET", "KSUS", "72434503966", "72434013994", "E8100", "A1683", "72434753904"], "source": "obs"}], "stations": {"KSTL": {"distance": 30958.0, "latitude": 38.75, "longitude": -90.37, "useCount": 0, "id": "KSTL", "name": "KSTL", "quality": 100, "contribution": 0.0}, "KSET": {"distance": 29436.0, "latitude": 38.93, "longitude": -90.43, "useCount": 0, "id": "KSET", "name": "KSET", "quality": 99, "contribution": 0.0}, "KSUS": {"distance": 15255.0, "latitude": 38.67, "longitude": -90.65, "useCount": 0, "id": "KSUS", "name": "KSUS", "quality": 100, "contribution": 0.0}, "72434503966": {"distance": 16382.0, "latitude": 38.657, "longitude": -90.656, "useCount": 0, "id": "72434503966", "name": "ST LOUIS SPIRIT OF ST LOUIS AIRPORT, MO US", "quality": 100, "contribution": 0.0}, "72434013994": {"distance": 30605.0, "latitude": 38.753, "longitude": -90.374, "useCount": 0, "id": "72434013994", "name": "ST LOUIS LAMBERT INTERNATIONAL AIRPORT, MO US", "quality": 100, "contribution": 0.0}, "E8100": {"distance": 12300.0, "latitude": 38.778, "longitude": -90.582, "useCount": 0, "id": "E8100", "name": "EW8100 Saint Peters MO US", "quality": 0, "contribution": 0.0}, "A1683": {"distance": 24176.0, "latitude": 38.753, "longitude": -90.449, "useCount": 0, "id": "A1683", "name": "Rider Trail I-70 MO MODNR", "quality": 0, "contribution": 0.0}, "72434753904": {"distance": 29499.0, "latitude": 38.929, "longitude": -90.428, "useCount": 0, "id": "72434753904", "name": "ST CHARLES CO AIRPORT, MO US", "quality": 98, "contribution": 0.0}}}