{"queryCost": 1, "latitude": 33.744, "longitude": -84.404, "resolvedAddress": "33.74400,-84.40400", "address": "33.74400,-84.40400", "timezone": "America/New_York", "tzoffset": -5.0, "days": [{"datetime": "2019-01-15", "datetimeEpoch": 1547528400, "tempmax": 44.4, "tempmin": 33.0, "temp": 38.0, "feelslikemax": 39.0, "feelslikemin": 27.3, "feelslike": 31.5, "dew": 29.8, "humidity": 72.5, "precip": 0.0, "precipprob": 0.0, "precipcover": 0.0, "preciptype": null, "snow": 0.0, "snowdepth": 0.0, "windgust": 23.0, "windspeed": 12.4, "winddir": 315.4, "pressure": 1024.9, "cloudcover": 61.1, "visibility": 9.7, "solarradiation": 160.6, "solarenergy": 13.9, "uvindex": 6.0, "sunrise": "07:42:23", "sunriseEpoch": 1547556143, "sunset": "17:51:54", "sunsetEpoch": 1547592714, "moonphase": 0.31, "conditions": "Partially cloudy", "description": "Partly cloudy throughout the day.", "icon": "partly-cloudy-day", "stations": ["KFTY", "72219013874", "KATL", "72219503888", "72219653863", "KPDK"], "source": "obs"}], "stations": {"KFTY": {"distance": 11459.0, "latitude": 33.78, "longitude": -84.52, "useCount": 0, "id": "KFTY", "name": "KFTY", "quality": 100, "contribution": 0.0}, "72219013874": {"distance": 13154.0, "latitude": 33.63, "longitude": -84.442, "useCount": 0, "id": "72219013874", "name": "ATLANTA HARTSFIELD INTERNATIONAL AIRPORT, GA US", "quality": 100, "contribution": 0.0}, "KATL": {"distance": 10568.0, "latitude": 33.65, "longitude": -84.42, "useCount": 0, "id": "KATL", "name": "KATL", "quality": 100, "contribution": 0.0}, "72219503888": {"distance": 11550.0, "latitude": 33.779, "longitude": -84.521, "useCount": 0, "id": "72219503888", "name": "ATLANTA FULTON CO AIRPORT, GA US", "quality": 100, "contribution": 0.0}, "72219653863": {"distance": 17359.0, "latitude": 33.875, "longitude": -84.302, "useCount": 0, "id": "72219653863", "name": "ATLANTA DEKALB PEACHTREE AIRPORT, GA US", "quality": 100, "contribution": 0.0}, "KPDK": {"distance": 17937.0, "latitude": 33.88, "longitude": -84.3, "useCount": 0, "id": "KPDK", "name": "KPDK", "quality": 100, "contribution": 0.0}}}