{"queryCost": 1, "latitude": 47.691, "longitude": -117.426, "resolvedAddress": "47.69100,-117.42600", "address": "47.69100,-117.42600", "timezone": "America/Los_Angeles", "tzoffset": -8.0, "days": [{"datetime": "2019-01-23", "datetimeEpoch": 1548230400, "tempmax": 38.1, "tempmin": 26.0, "temp": 33.6, "feelslikemax": 34.6, "feelslikemin": 26.0, "feelslike": 29.9, "dew": 30.5, "humidity": 88.49, "precip": 0.22, "precipprob": null, "precipcover": 25.0, "preciptype": null, "snow": 1.44, "snowdepth": 4.28, "windgust": 31.1, "windspeed": 12.8, "winddir": 238.3, "pressure": 1022.2, "cloudcover": 53.3, "visibility": 7.5, "solarradiation": 70.1, "solarenergy": 6.1, "uvindex": 4.0, "sunrise": "07:27:00", "sunriseEpoch": 1548257220, "sunset": "16:36:36", "sunsetEpoch": 1548290196, "moonphase": 0.54, "conditions": "Snow, Partially cloudy", "description": "Partly cloudy throughout the day with snow clearing later.", "icon": "snow", "stations": ["TWRW1", "72785524114", "72785694176", "CHAW", "72785024157", "KSFF", "A1524", "KGEG", "KSKA"], "source": "obs"}], "stations": {"TWRW1": {"distance": 31395.0, "latitude": 47.418, "longitude": -117.528, "useCount": 0, "id": "TWRW1", "name": "CHENEY WA US", "quality": 0, "contribution": 0.0}, "72785524114": {"distance": 17981.0, "latitude": 47.633, "longitude": -117.65, "useCount": 0, "id": "72785524114", "name": "FAIRCHILD AFB, WA US", "quality": 96, "contribution": 0.0}, "72785694176": {"distance": 7917.0, "latitude": 47.683, "longitude": -117.321, "useCount": 0, "id": "72785694176", "name": "SPOKANE FELTS FIELD, WA US", "quality": 100, "contribution": 0.0}, "CHAW": {"distance": 44514.0, "latitude": 48.031, "longitude": -117.739, "useCount": 0, "id": "CHAW", "name": "Chamokane: WA WA US AGRIMET", "quality": 0, "contribution": 0.0}, "72785024157": {"distance": 10871.0, "latitude": 47.622, "longitude": -117.528, "useCount": 0, "id": "72785024157", "name": "SPOKANE INTERNATIONAL AIRPORT, WA US", "quality": 100, "contribution": 0.0}, "KSFF": {"distance": 8037.0, "latitude": 47.68, "longitude": -117.32, "useCount": 0, "id": "KSFF", "name": "KSFF", "quality": 100, "contribution": 0.0}, "A1524": {"distance": 47822.0, "latitude": 47.789, "longitude": -116.804, "useCount": 0, "id": "A1524", "name": "Lancaster ID IDDEQ", "quality": 0, "contribution": 0.0}, "KGEG": {"distance": 10340.0, "latitude": 47.63, "longitude": -117.53, "useCount": 0, "id": "KGEG", "name": "KGEG", "quality": 100, "contribution": 0.0}, "KSKA": {"distance": 18563.0, "latitude": 47.62, "longitude": -117.65, "useCount": 0, "id": "KSKA", "name": "KSKA", "quality": 100, "contribution": 0.0}}}