{"queryCost": 1, "latitude": 39.758, "longitude": -94.845, "resolvedAddress": "39.75800,-94.84500", "address": "39.75800,-94.84500", "timezone": "America/Chicago", "tzoffset": -6.0, "days": [{"datetime": "2018-12-29", "datetimeEpoch": 1546063200, "tempmax": 25.1, "tempmin": 16.1, "temp": 19.4, "feelslikemax": 19.1, "feelslikemin": 6.6, "feelslike": 11.7, "dew": 13.6, "humidity": 78.11, "precip": 0.0, "precipprob": null, "precipcover": 0.0, "preciptype": null, "snow": 0.0, "snowdepth": 0.0, "windgust": null, "windspeed": 12.7, "winddir": 262.1, "pressure": 1028.5, "cloudcover": 62.3, "visibility": 9.5, "solarradiation": 60.2, "solarenergy": 5.0, "uvindex": 3.0, "sunrise": "07:40:04", "sunriseEpoch": 1546090804, "sunset": "17:03:03", "sunsetEpoch": 1546124583, "moonphase": 0.76, "conditions": "Partially cloudy", "description": "Partly cloudy throughout the day.", "icon": "partly-cloudy-day", "stations": ["AN336", "72553394957", "72446003947", "72449013993", "KMCI", "E2874", "KSTJ", "72047599999"], "source": "obs"}], "stations": {"AN336": {"distance": 64676.0, "latitude": 39.303, "longitude": -94.376, "useCount": 0, "id": "AN336", "name": "LIBERTY MO MODNR", "quality": 0, "contribution": 0.0}, "72553394957": {"distance": 73168.0, "latitude": 40.08, "longitude": -95.592, "useCount": 0, "id": "72553394957", "name": "FALLS CITY BRENNER FIELD, NE US", "quality": 100, "contribution": 0.0}, "72446003947": {"distance": 52228.0, "latitude": 39.297, "longitude": -94.731, "useCount": 0, "id": "72446003947", "name": "KANSAS CITY INTERNATIONAL AIRPORT, MO US", "quality": 100, "contribution": 0.0}, "72449013993": {"distance": 6921.0, "latitude": 39.774, "longitude": -94.923, "useCount": 0, "id": "72449013993", "name": "ST JOSEPH ROSECRANS MEMORIAL AIRPORT, MO US", "quality": 100, "contribution": 0.0}, "KMCI": {"distance": 49925.0, "latitude": 39.32, "longitude": -94.72, "useCount": 0, "id": "KMCI", "name": "KMCI", "quality": 100, "contribution": 0.0}, "E2874": {"distance": 37064.0, "latitude": 40.059, "longitude": -94.66, "useCount": 0, "id": "E2874", "name": "EW2874 Rea MO US", "quality": 0, "contribution": 0.0}, "KSTJ": {"distance": 6555.0, "latitude": 39.77, "longitude": -94.92, "useCount": 0, "id": "KSTJ", "name": "KSTJ", "quality": 100, "contribution": 0.0}, "72047599999": {"distance": 66448.0, "latitude": 40.353, "longitude": -94.915, "useCount": 0, "id": "72047599999", "name": "NORTHWEST MISSOURI REGIONAL, MO US", "quality": 98, "contribution": 0.0}}}