{"queryCost": 1, "latitude": 29.709, "longitude": -95.282, "resolvedAddress": "29.70900,-95.28200", "address": "29.70900,-95.28200", "timezone": "America/Chicago", "tzoffset": -6.0, "days": [{"datetime": "2019-01-28", "datetimeEpoch": 1548655200, "tempmax": 71.0, "tempmin": 48.3, "temp": 58.9, "feelslikemax": 71.0, "feelslikemin": 46.7, "feelslike": 58.5, "dew": 48.7, "humidity": 71.3, "precip": 0.05, "precipprob": 100.0, "precipcover": 4.17, "preciptype": ["rain"], "snow": 0.0, "snowdepth": 0.0, "windgust": 36.0, "windspeed": 24.7, "winddir": 198.1, "pressure": 1013.8, "cloudcover": 44.4, "visibility": 9.7, "solarradiation": 147.6, "solarenergy": 12.6, "uvindex": 6.0, "sunrise": "07:13:11", "sunriseEpoch": 1548681191, "sunset": "17:55:16", "sunsetEpoch": 1548719716, "moonphase": 0.79, "conditions": "Rain, Partially cloudy", "description": "Partly cloudy throughout the day with late afternoon rain.", "icon": "rain", "stations": ["KHOU", "72059400188", "72242712975", "KAXH", "KLVJ", "E5607", "72244012918"], "source": "obs"}], "stations": {"KHOU": {"distance": 8796.0, "latitude": 29.63, "longitude": -95.28, "useCount": 0, "id": "KHOU", "name": "KHOU", "quality": 100, "contribution": 0.0}, "72059400188": {"distance": 9806.0, "latitude": 29.717, "longitude": -95.383, "useCount": 0, "id": "72059400188", "name": "HOUSTON DUNN HELISTOP, TX US", "quality": 100, "contribution": 0.0}, "72242712975": {"distance": 21518.0, "latitude": 29.519, "longitude": -95.242, "useCount": 0, "id": "72242712975", "name": "HOUSTON CLOVER FIELD, TX US", "quality": 100, "contribution": 0.0}, "KAXH": {"distance": 29291.0, "latitude": 29.51, "longitude": -95.48, "useCount": 0, "id": "KAXH", "name": "KAXH", "quality": 100, "contribution": 0.0}, "KLVJ": {"distance": 21428.0, "latitude": 29.52, "longitude": -95.24, "useCount": 0, "id": "KLVJ", "name": "KLVJ", "quality": 100, "contribution": 0.0}, "E5607": {"distance": 12535.0, "latitude": 29.785, "longitude": -95.378, "useCount": 0, "id": "E5607", "name": "EW5607 Houston TX US", "quality": 0, "contribution": 0.0}, "72244012918": {"distance": 7893.0, "latitude": 29.638, "longitude": -95.282, "useCount": 0, "id": "72244012918", "name": "HOUSTON WILLIAM P HOBBY AIRPORT, TX US", "quality": 100, "contribution": 0.0}}}