{"queryCost": 1, "latitude": 40.732, "longitude": -74.189, "resolvedAddress": "40.73200,-74.18900", "address": "40.73200,-74.18900", "timezone": "America/New_York", "tzoffset": -5.0, "days": [{"datetime": "2019-01-28", "datetimeEpoch": 1548651600, "tempmax": 37.9, "tempmin": 23.1, "temp": 28.6, "feelslikemax": 30.6, "feelslikemin": 13.0, "feelslike": 19.4, "dew": 9.1, "humidity": 43.78, "precip": 0.0, "precipprob": null, "precipcover": 0.0, "preciptype": null, "snow": 0.0, "snowdepth": 0.0, "windgust": 25.3, "windspeed": 17.6, "winddir": 135.6, "pressure": 1018.1, "cloudcover": 62.2, "visibility": 9.9, "solarradiation": 180.9, "solarenergy": 7.8, "uvindex": 4.0, "sunrise": "07:10:39", "sunriseEpoch": 1548677439, "sunset": "17:09:10", "sunsetEpoch": 1548713350, "moonphase": 0.79, "conditions": "Partially cloudy", "description": "Partly cloudy throughout the day.", "icon": "partly-cloudy-day", "stations": ["72502594741", "KTEB", "KEWR", "C9476", "72502014734", "72409454743", "KNYC", "F1417"], "source": "obs"}], "stations": {"72502594741": {"distance": 16976.0, "latitude": 40.85, "longitude": -74.061, "useCount": 0, "id": "72502594741", "name": "TETERBORO AIRPORT, NJ US", "quality": 100, "contribution": 0.0}, "KTEB": {"distance": 17051.0, "latitude": 40.85, "longitude": -74.06, "useCount": 0, "id": "KTEB", "name": "KTEB", "quality": 100, "contribution": 0.0}, "KEWR": {"distance": 3906.0, "latitude": 40.7, "longitude": -74.17, "useCount": 0, "id": "KEWR", "name": "KEWR", "quality": 100, "contribution": 0.0}, "C9476": {"distance": 11305.0, "latitude": 40.833, "longitude": -74.17, "useCount": 0, "id": "C9476", "name": "CW9476 Bloomfield NJ US", "quality": 0, "contribution": 0.0}, "72502014734": {"distance": 5753.0, "latitude": 40.683, "longitude": -74.169, "useCount": 0, "id": "72502014734", "name": "NEWARK LIBERTY INTERNATIONAL AIRPORT, NJ US", "quality": 100, "contribution": 0.0}, "72409454743": {"distance": 17924.0, "latitude": 40.876, "longitude": -74.283, "useCount": 0, "id": "72409454743", "name": "CALDWELL ESSEX CO AIRPORT, NJ US", "quality": 100, "contribution": 0.0}, "KNYC": {"distance": 18126.0, "latitude": 40.77, "longitude": -73.98, "useCount": 0, "id": "KNYC", "name": "KNYC", "quality": 100, "contribution": 0.0}, "F1417": {"distance": 13560.0, "latitude": 40.745, "longitude": -74.029, "useCount": 0, "id": "F1417", "name": "FW1417 Hoboken NJ US", "quality": 0, "contribution": 0.0}}}