{"queryCost": 1, "latitude": 39.464, "longitude": -121.858, "resolvedAddress": "39.46400,-121.85800", "address": "39.46400,-121.85800", "timezone": "America/Los_Angeles", "tzoffset": -8.0, "days": [{"datetime": "2019-01-28", "datetimeEpoch": 1548662400, "tempmax": 60.4, "tempmin": 44.5, "temp": 52.3, "feelslikemax": 60.4, "feelslikemin": 43.4, "feelslike": 52.1, "dew": 45.0, "humidity": 76.35, "precip": 0.0, "precipprob": null, "precipcover": 0.0, "preciptype": null, "snow": 0.0, "snowdepth": 0.0, "windgust": null, "windspeed": 9.3, "winddir": 114.5, "pressure": 1017.8, "cloudcover": 8.4, "visibility": 9.4, "solarradiation": 386.3, "solarenergy": 33.4, "uvindex": 6.0, "sunrise": "07:18:21", "sunriseEpoch": 1548688701, "sunset": "17:22:51", "sunsetEpoch": 1548724971, "moonphase": 0.79, "conditions": "Clear", "description": "Clear conditions throughout the day.", "icon": "clear-day", "stations": ["KOVE", "72483893205", "74504893210", "CICC1", "KBAB", "E3006", "KMYV", "72483793216", "CI244"], "source": "obs"}], "stations": {"KOVE": {"distance": 20654.0, "latitude": 39.49, "longitude": -121.62, "useCount": 0, "id": "KOVE", "name": "KOVE", "quality": 100, "contribution": 0.0}, "72483893205": {"distance": 47425.0, "latitude": 39.102, "longitude": -121.568, "useCount": 0, "id": "72483893205", "name": "MARYSVILLE YUBA CO AIRPORT, CA US", "quality": 100, "contribution": 0.0}, "74504893210": {"distance": 20824.0, "latitude": 39.49, "longitude": -121.618, "useCount": 0, "id": "74504893210", "name": "OROVILLE MUNICIPAL AIRPORT, CA US", "quality": 100, "contribution": 0.0}, "CICC1": {"distance": 23722.0, "latitude": 39.59, "longitude": -121.635, "useCount": 0, "id": "CICC1", "name": "OPENSHAW CA US", "quality": 0, "contribution": 0.0}, "KBAB": {"distance": 52363.0, "latitude": 39.13, "longitude": -121.43, "useCount": 0, "id": "KBAB", "name": "KBAB", "quality": 100, "contribution": 0.0}, "E3006": {"distance": 26506.0, "latitude": 39.494, "longitude": -121.552, "useCount": 0, "id": "E3006", "name": "EW3006 Chico CA US", "quality": 0, "contribution": 0.0}, "KMYV": {"distance": 47515.0, "latitude": 39.1, "longitude": -121.57, "useCount": 0, "id": "KMYV", "name": "KMYV", "quality": 100, "contribution": 0.0}, "72483793216": {"distance": 51919.0, "latitude": 39.133, "longitude": -121.433, "useCount": 0, "id": "72483793216", "name": "BEALE AFB, CA US", "quality": 96, "contribution": 0.0}, "CI244": {"distance": 8840.0, "latitude": 39.387, "longitude": -121.835, "useCount": 0, "id": "CI244", "name": "Biggs CA US CIMIS", "quality": 0, "contribution": 0.0}}}