{"queryCost": 1, "latitude": 40.867, "longitude": -74.134, "resolvedAddress": "40.86700,-74.13400", "address": "40.86700,-74.13400", "timezone": "America/New_York", "tzoffset": -5.0, "days": [{"datetime": "2019-01-31", "datetimeEpoch": 1548910800, "tempmax": 16.5, "tempmin": 1.6, "temp": 8.8, "feelslikemax": 5.2, "feelslikemin": -16.1, "feelslike": -5.3, "dew": -11.0, "humidity": 39.69, "precip": 0.0, "precipprob": null, "precipcover": 0.0, "preciptype": null, "snow": 0.15, "snowdepth": 0.39, "windgust": 25.3, "windspeed": 14.4, "winddir": 255.0, "pressure": 1028.2, "cloudcover": 0.0, "visibility": 9.9, "solarradiation": 219.4, "solarenergy": 9.5, "uvindex": 5.0, "sunrise": "07:08:03", "sunriseEpoch": 1548936483, "sunset": "17:12:22", "sunsetEpoch": 1548972742, "moonphase": 0.92, "conditions": "Clear", "description": "Clear conditions throughout the day.", "icon": "snow", "stations": ["72502594741", "KTEB", "72505394728", "KCDW", "72409454743", "KNYC", "D8219", "F1417"], "source": "obs"}], "stations": {"72502594741": {"distance": 6399.0, "latitude": 40.85, "longitude": -74.061, "useCount": 0, "id": "72502594741", "name": "TETERBORO AIRPORT, NJ US", "quality": 100, "contribution": 0.0}, "KTEB": {"distance": 6511.0, "latitude": 40.85, "longitude": -74.06, "useCount": 0, "id": "KTEB", "name": "KTEB", "quality": 100, "contribution": 0.0}, "72505394728": {"distance": 16984.0, "latitude": 40.779, "longitude": -73.969, "useCount": 0, "id": "72505394728", "name": "NY CITY CENTRAL PARK, NY US", "quality": 100, "contribution": 0.0}, "KCDW": {"distance": 12374.0, "latitude": 40.88, "longitude": -74.28, "useCount": 0, "id": "KCDW", "name": "CALDWELL/FAIRFLD, NJ", "quality": 100, "contribution": 0.0}, "72409454743": {"distance": 12594.0, "latitude": 40.876, "longitude": -74.283, "useCount": 0, "id": "72409454743", "name": "CALDWELL ESSEX CO AIRPORT, NJ US", "quality": 100, "contribution": 0.0}, "KNYC": {"distance": 16879.0, "latitude": 40.77, "longitude": -73.98, "useCount": 0, "id": "KNYC", "name": "KNYC", "quality": 100, "contribution": 0.0}, "D8219": {"distance": 4334.0, "latitude": 40.856, "longitude": -74.084, "useCount": 0, "id": "D8219", "name": "DW8219 Hasbrouck Heights NJ US", "quality": 0, "contribution": 0.0}, "F1417": {"distance": 16171.0, "latitude": 40.745, "longitude": -74.029, "useCount": 0, "id": "F1417", "name": "FW1417 Hoboken NJ US", "quality": 0, "contribution": 0.0}}}