{"queryCost": 1, "latitude": 38.348, "longitude": -85.49, "resolvedAddress": "38.34800,-85.49000", "address": "38.34800,-85.49000", "timezone": "America/New_York", "tzoffset": -5.0, "days": [{"datetime": "2019-02-11", "datetimeEpoch": 1549861200, "tempmax": 49.2, "tempmin": 41.5, "temp": 45.4, "feelslikemax": 46.6, "feelslikemin": 37.4, "feelslike": 43.3, "dew": 43.4, "humidity": 92.9, "precip": 1.38, "precipprob": 100.0, "precipcover": 100.0, "preciptype": ["rain"], "snow": 0.0, "snowdepth": 0.0, "windgust": null, "windspeed": 8.9, "winddir": 94.9, "pressure": 1017.3, "cloudcover": 91.6, "visibility": 4.7, "solarradiation": 25.4, "solarenergy": 2.2, "uvindex": 1.0, "sunrise": "07:37:18", "sunriseEpoch": 1549888638, "sunset": "18:15:36", "sunsetEpoch": 1549926936, "moonphase": 0.18, "conditions": "Rain, Overcast", "description": "Cloudy skies throughout the day with a chance of rain throughout the day.", "icon": "rain", "stations": ["F1969", "KLOU", "E0797", "KSDF", "72423093821", "KFFT", "72423353841", "72423513810"], "source": "obs"}], "stations": {"F1969": {"distance": 14033.0, "latitude": 38.245, "longitude": -85.582, "useCount": 0, "id": "F1969", "name": "FW1969 Hurstbourne KY US", "quality": 0, "contribution": 0.0}, "KLOU": {"distance": 21223.0, "latitude": 38.22, "longitude": -85.67, "useCount": 0, "id": "KLOU", "name": "KLOU", "quality": 100, "contribution": 0.0}, "E0797": {"distance": 16925.0, "latitude": 38.236, "longitude": -85.62, "useCount": 0, "id": "E0797", "name": "EW0797 Louisville KY US", "quality": 0, "contribution": 0.0}, "KSDF": {"distance": 28103.0, "latitude": 38.18, "longitude": -85.73, "useCount": 0, "id": "KSDF", "name": "KSDF", "quality": 100, "contribution": 0.0}, "72423093821": {"distance": 28622.0, "latitude": 38.181, "longitude": -85.739, "useCount": 0, "id": "72423093821", "name": "LOUISVILLE INTERNATIONAL AIRPORT, KY US", "quality": 100, "contribution": 0.0}, "KFFT": {"distance": 54855.0, "latitude": 38.18, "longitude": -84.9, "useCount": 0, "id": "KFFT", "name": "KFFT", "quality": 100, "contribution": 0.0}, "72423353841": {"distance": 54405.0, "latitude": 38.185, "longitude": -84.903, "useCount": 0, "id": "72423353841", "name": "FRANKFORT CAPITAL CITY AIRPORT, KY US", "quality": 100, "contribution": 0.0}, "72423513810": {"distance": 20205.0, "latitude": 38.228, "longitude": -85.664, "useCount": 0, "id": "72423513810", "name": "LOUISVILLE BOWMAN FIELD, KY US", "quality": 100, "contribution": 0.0}}}