{"queryCost": 1, "latitude": 32.32, "longitude": -89.789, "resolvedAddress": "32.32000,-89.78900", "address": "32.32000,-89.78900", "timezone": "America/Chicago", "tzoffset": -6.0, "days": [{"datetime": "2019-02-18", "datetimeEpoch": 1550469600, "tempmax": 55.6, "tempmin": 33.6, "temp": 43.9, "feelslikemax": 55.6, "feelslikemin": 24.7, "feelslike": 39.1, "dew": 35.3, "humidity": 73.8, "precip": 0.0, "precipprob": 0.0, "precipcover": 0.0, "preciptype": null, "snow": 0.0, "snowdepth": 0.0, "windgust": 23.5, "windspeed": 14.4, "winddir": 47.4, "pressure": 1023.8, "cloudcover": 58.5, "visibility": 9.9, "solarradiation": 105.7, "solarenergy": 9.0, "uvindex": 4.0, "sunrise": "06:38:56", "sunriseEpoch": 1550493536, "sunset": "17:47:39", "sunsetEpoch": 1550533659, "moonphase": 0.49, "conditions": "Partially cloudy", "description": "Partly cloudy throughout the day.", "icon": "partly-cloudy-day", "stations": ["72078700278", "FSTM6", "72235413927", "KHKS", "99999963831", "72235003940", "KJAN"], "source": "obs"}], "stations": {"72078700278": {"distance": 58546.0, "latitude": 32.304, "longitude": -90.411, "useCount": 0, "id": "72078700278", "name": "JOHN BELL WILLIAMS AIRPORT, MS US", "quality": 50, "contribution": 0.0}, "FSTM6": {"distance": 28724.0, "latitude": 32.303, "longitude": -89.484, "useCount": 0, "id": "FSTM6", "name": "BIENVILLE MS US", "quality": 0, "contribution": 0.0}, "72235413927": {"distance": 40716.0, "latitude": 32.337, "longitude": -90.221, "useCount": 0, "id": "72235413927", "name": "JACKSON HAWKINS FIELD, MS US", "quality": 100, "contribution": 0.0}, "KHKS": {"distance": 40559.0, "latitude": 32.33, "longitude": -90.22, "useCount": 0, "id": "KHKS", "name": "KHKS", "quality": 100, "contribution": 0.0}, "99999963831": {"distance": 67633.0, "latitude": 32.338, "longitude": -89.07, "useCount": 0, "id": "99999963831", "name": "NEWTON 5 ENE, MS US", "quality": 100, "contribution": 0.0}, "72235003940": {"distance": 27159.0, "latitude": 32.321, "longitude": -90.078, "useCount": 0, "id": "72235003940", "name": "JACKSON INTERNATIONAL AIRPORT, MS US", "quality": 100, "contribution": 0.0}, "KJAN": {"distance": 27375.0, "latitude": 32.32, "longitude": -90.08, "useCount": 0, "id": "KJAN", "name": "KJAN", "quality": 100, "contribution": 0.0}}}