{"queryCost": 1, "latitude": 32.352, "longitude": -90.319, "resolvedAddress": "32.35200,-90.31900", "address": "32.35200,-90.31900", "timezone": "America/Chicago", "tzoffset": -6.0, "days": [{"datetime": "2019-02-16", "datetimeEpoch": 1550296800, "tempmax": 66.7, "tempmin": 41.2, "temp": 48.0, "feelslikemax": 66.7, "feelslikemin": 36.2, "feelslike": 45.9, "dew": 45.5, "humidity": 91.2, "precip": 0.01, "precipprob": 100.0, "precipcover": 4.17, "preciptype": ["rain"], "snow": 0.0, "snowdepth": 0.0, "windgust": 24.2, "windspeed": 11.2, "winddir": 203.8, "pressure": 1009.9, "cloudcover": 70.3, "visibility": 9.1, "solarradiation": 73.3, "solarenergy": 6.3, "uvindex": 4.0, "sunrise": "06:43:06", "sunriseEpoch": 1550320986, "sunset": "17:48:02", "sunsetEpoch": 1550360882, "moonphase": 0.43, "conditions": "Rain, Partially cloudy", "description": "Partly cloudy throughout the day with early morning rain.", "icon": "rain", "stations": ["72078700278", "D5633", "KJVW", "72235413927", "KHKS", "72235003940", "KJAN"], "source": "obs"}], "stations": {"72078700278": {"distance": 10171.0, "latitude": 32.304, "longitude": -90.411, "useCount": 0, "id": "72078700278", "name": "JOHN BELL WILLIAMS AIRPORT, MS US", "quality": 50, "contribution": 0.0}, "D5633": {"distance": 20926.0, "latitude": 32.218, "longitude": -90.163, "useCount": 0, "id": "D5633", "name": "DW5633 Richland MS US", "quality": 0, "contribution": 0.0}, "KJVW": {"distance": 10996.0, "latitude": 32.29, "longitude": -90.41, "useCount": 0, "id": "KJVW", "name": "KJVW", "quality": 45, "contribution": 0.0}, "72235413927": {"distance": 9336.0, "latitude": 32.337, "longitude": -90.221, "useCount": 0, "id": "72235413927", "name": "JACKSON HAWKINS FIELD, MS US", "quality": 100, "contribution": 0.0}, "KHKS": {"distance": 9628.0, "latitude": 32.33, "longitude": -90.22, "useCount": 0, "id": "KHKS", "name": "KHKS", "quality": 100, "contribution": 0.0}, "72235003940": {"distance": 22965.0, "latitude": 32.321, "longitude": -90.078, "useCount": 0, "id": "72235003940", "name": "JACKSON INTERNATIONAL AIRPORT, MS US", "quality": 100, "contribution": 0.0}, "KJAN": {"distance": 22760.0, "latitude": 32.32, "longitude": -90.08, "useCount": 0, "id": "KJAN", "name": "KJAN", "quality": 100, "contribution": 0.0}}}