{"queryCost": 1, "latitude": 38.013, "longitude": -121.354, "resolvedAddress": "38.01300,-121.35400", "address": "38.01300,-121.35400", "timezone": "America/Los_Angeles", "tzoffset": -8.0, "days": [{"datetime": "2019-02-02", "datetimeEpoch": 1549094400, "tempmax": 60.8, "tempmin": 52.0, "temp": 55.9, "feelslikemax": 60.8, "feelslikemin": 52.0, "feelslike": 55.9, "dew": 47.5, "humidity": 74.1, "precip": 0.36, "precipprob": 100.0, "precipcover": 37.5, "preciptype": ["rain"], "snow": 0.0, "snowdepth": 0.0, "windgust": 39.8, "windspeed": 28.1, "winddir": 150.1, "pressure": 999.7, "cloudcover": 73.1, "visibility": 9.3, "solarradiation": 237.8, "solarenergy": 20.5, "uvindex": 4.0, "sunrise": "07:09:07", "sunriseEpoch": 1549120147, "sunset": "17:29:36", "sunsetEpoch": 1549157376, "moonphase": 0.98, "conditions": "Rain, Partially cloudy", "description": "Partly cloudy throughout the day with rain.", "icon": "rain", "stations": ["CI070", "KSCK", "KMOD", "CQ032", "KLVK", "72492723285", "72492623258", "72492023237"], "source": "obs"}], "stations": {"CI070": {"distance": 22912.0, "latitude": 37.835, "longitude": -121.223, "useCount": 0, "id": "CI070", "name": "Manteca CA US CIMIS", "quality": 0, "contribution": 0.0}, "KSCK": {"distance": 15542.0, "latitude": 37.9, "longitude": -121.25, "useCount": 0, "id": "KSCK", "name": "KSCK", "quality": 100, "contribution": 0.0}, "KMOD": {"distance": 55496.0, "latitude": 37.63, "longitude": -120.95, "useCount": 0, "id": "KMOD", "name": "KMOD", "quality": 100, "contribution": 0.0}, "CQ032": {"distance": 25182.0, "latitude": 38.007, "longitude": -121.641, "useCount": 0, "id": "CQ032", "name": "Bethel Island Road CA US CARB", "quality": 0, "contribution": 0.0}, "KLVK": {"distance": 53773.0, "latitude": 37.7, "longitude": -121.82, "useCount": 0, "id": "KLVK", "name": "LIVERMORE, CA", "quality": 100, "contribution": 0.0}, "72492723285": {"distance": 53908.0, "latitude": 37.693, "longitude": -121.814, "useCount": 0, "id": "72492723285", "name": "LIVERMORE MUNICIPAL AIRPORT, CA US", "quality": 100, "contribution": 0.0}, "72492623258": {"distance": 55947.0, "latitude": 37.624, "longitude": -120.951, "useCount": 0, "id": "72492623258", "name": "MODESTO CITY CO AIRPORT, CA US", "quality": 100, "contribution": 0.0}, "72492023237": {"distance": 17790.0, "latitude": 37.889, "longitude": -121.226, "useCount": 0, "id": "72492023237", "name": "STOCKTON METROPOLITAN AIRPORT, CA US", "quality": 100, "contribution": 0.0}}}