{"queryCost": 1, "latitude": 32.955, "longitude": -96.907, "resolvedAddress": "32.95500,-96.90700", "address": "32.95500,-96.90700", "timezone": "America/Chicago", "tzoffset": -6.0, "days": [{"datetime": "2019-02-23", "datetimeEpoch": 1550901600, "tempmax": 69.0, "tempmin": 49.4, "temp": 57.1, "feelslikemax": 69.0, "feelslikemin": 43.5, "feelslike": 56.4, "dew": 38.1, "humidity": 59.0, "precip": 0.02, "precipprob": 100.0, "precipcover": 8.33, "preciptype": ["rain"], "snow": 0.0, "snowdepth": 0.0, "windgust": 38.3, "windspeed": 25.6, "winddir": 230.3, "pressure": 1010.7, "cloudcover": 59.5, "visibility": 7.0, "solarradiation": 171.3, "solarenergy": 14.7, "uvindex": 7.0, "sunrise": "07:02:41", "sunriseEpoch": 1550926961, "sunset": "18:19:43", "sunsetEpoch": 1550967583, "moonphase": 0.6, "conditions": "Rain, Partially cloudy", "description": "Partly cloudy throughout the day with morning rain.", "icon": "rain", "stations": ["KDAL", "72259003927", "72259903971", "D5264", "KDFW", "KRBD", "72258013960", "E4228"], "source": "obs"}], "stations": {"KDAL": {"distance": 12845.0, "latitude": 32.85, "longitude": -96.85, "useCount": 0, "id": "KDAL", "name": "KDAL", "quality": 100, "contribution": 0.0}, "72259003927": {"distance": 12242.0, "latitude": 32.898, "longitude": -97.019, "useCount": 0, "id": "72259003927", "name": "DAL FTW WSCMO AIRPORT, TX US", "quality": 100, "contribution": 0.0}, "72259903971": {"distance": 30740.0, "latitude": 32.681, "longitude": -96.868, "useCount": 0, "id": "72259903971", "name": "DALLAS REDBIRD AIRPORT, TX US", "quality": 99, "contribution": 0.0}, "D5264": {"distance": 5389.0, "latitude": 32.922, "longitude": -96.949, "useCount": 0, "id": "D5264", "name": "DW5264 Irving TX US", "quality": 0, "contribution": 0.0}, "KDFW": {"distance": 13022.0, "latitude": 32.9, "longitude": -97.03, "useCount": 0, "id": "KDFW", "name": "KDFW", "quality": 100, "contribution": 0.0}, "KRBD": {"distance": 30808.0, "latitude": 32.68, "longitude": -96.87, "useCount": 0, "id": "KRBD", "name": "KRBD", "quality": 99, "contribution": 0.0}, "72258013960": {"distance": 12445.0, "latitude": 32.852, "longitude": -96.855, "useCount": 0, "id": "72258013960", "name": "DALLAS FAA AIRPORT, TX US", "quality": 100, "contribution": 0.0}, "E4228": {"distance": 5007.0, "latitude": 32.974, "longitude": -96.858, "useCount": 0, "id": "E4228", "name": "EW4228 Carrollton TX US", "quality": 0, "contribution": 0.0}}}