{"queryCost": 1, "latitude": 21.31, "longitude": -157.862, "resolvedAddress": "21.31000,-157.86200", "address": "21.31000,-157.86200", "timezone": "Pacific/Honolulu", "tzoffset": -10.0, "days": [{"datetime": "2015-05-12", "datetimeEpoch": 1431424800, "tempmax": 81.9, "tempmin": 71.3, "temp": 75.7, "feelslikemax": 82.9, "feelslikemin": 71.3, "feelslike": 76.0, "dew": 62.5, "humidity": 64.1, "precip": 0.0, "precipprob": 0.0, "precipcover": 0.0, "preciptype": null, "snow": 0.0, "snowdepth": 0.0, "windgust": 25.4, "windspeed": 19.1, "winddir": 51.2, "pressure": 1018.1, "cloudcover": 44.1, "visibility": 9.9, "solarradiation": 333.3, "solarenergy": 28.8, "uvindex": 10.0, "sunrise": "05:54:36", "sunriseEpoch": 1431446076, "sunset": "19:01:16", "sunsetEpoch": 1431493276, "moonphase": 0.81, "conditions": "Partially cloudy", "description": "Partly cloudy throughout the day.", "icon": "partly-cloudy-day", "stations": ["91176022519", "PHNL", "PHNG", "91178022551", "91182022521", "91170022508"], "source": "obs"}], "stations": {"91176022519": {"distance": 18427.0, "latitude": 21.451, "longitude": -157.768, "useCount": 0, "id": "91176022519", "name": "KANEOHE BAY MCAS, HI US", "quality": 98, "contribution": 0.0}, "PHNL": {"distance": 8339.0, "latitude": 21.35, "longitude": -157.93, "useCount": 0, "id": "PHNL", "name": "HONOLULU INTL,HI", "quality": 100, "contribution": 0.0}, "PHNG": {"distance": 18271.0, "latitude": 21.45, "longitude": -157.77, "useCount": 0, "id": "PHNG", "name": "PHNG", "quality": 97, "contribution": 0.0}, "91178022551": {"distance": 21273.0, "latitude": 21.317, "longitude": -158.067, "useCount": 0, "id": "91178022551", "name": "EWA KALAELOA AIRPORT, HI US", "quality": 98, "contribution": 0.0}, "91182022521": {"distance": 7121.0, "latitude": 21.324, "longitude": -157.929, "useCount": 0, "id": "91182022521", "name": "HONOLULU INTERNATIONAL AIRPORT, HI US", "quality": 100, "contribution": 0.0}, "91170022508": {"distance": 26175.0, "latitude": 21.487, "longitude": -158.028, "useCount": 0, "id": "91170022508", "name": "WHEELER ARMY AIR FIELD 810.1, HI US", "quality": 99, "contribution": 0.0}}}