{"queryCost": 1, "latitude": 43.734, "longitude": -83.441, "resolvedAddress": "43.73400,-83.44100", "address": "43.73400,-83.44100", "timezone": "America/Detroit", "tzoffset": -5.0, "days": [{"datetime": "2019-03-02", "datetimeEpoch": 1551502800, "tempmax": 33.2, "tempmin": 18.1, "temp": 25.7, "feelslikemax": 33.2, "feelslikemin": 7.2, "feelslike": 18.5, "dew": 19.6, "humidity": 77.7, "precip": 0.07, "precipprob": 100.0, "precipcover": 25.0, "preciptype": ["rain", "snow"], "snow": 0.3, "snowdepth": 1.4, "windgust": 17.2, "windspeed": 12.0, "winddir": 215.9, "pressure": 1020.9, "cloudcover": 17.5, "visibility": 7.3, "solarradiation": 93.2, "solarenergy": 8.1, "uvindex": 4.0, "sunrise": "07:09:01", "sunriseEpoch": 1551528541, "sunset": "18:23:29", "sunsetEpoch": 1551569009, "moonphase": 0.93, "conditions": "Snow, Rain", "description": "Clear conditions throughout the day with morning rain or snow.", "icon": "snow", "stations": ["KMBS", "C4869", "72637914845", "72538694898", "72062900216", "KP58", "99824299999"], "source": "obs"}], "stations": {"KMBS": {"distance": 56271.0, "latitude": 43.53, "longitude": -84.08, "useCount": 0, "id": "KMBS", "name": "KMBS", "quality": 100, "contribution": 0.0}, "C4869": {"distance": 20149.0, "latitude": 43.91, "longitude": -83.384, "useCount": 0, "id": "C4869", "name": "CW4869 Caseville MI US", "quality": 0, "contribution": 0.0}, "72637914845": {"distance": 56109.0, "latitude": 43.533, "longitude": -84.08, "useCount": 0, "id": "72637914845", "name": "SAGINAW MBS INTERNATIONAL AIRPORT, MI US", "quality": 100, "contribution": 0.0}, "72538694898": {"distance": 61073.0, "latitude": 44.022, "longitude": -82.793, "useCount": 0, "id": "72538694898", "name": "PORT HOPE, MI US", "quality": 91, "contribution": 0.0}, "72062900216": {"distance": 66467.0, "latitude": 43.663, "longitude": -84.261, "useCount": 0, "id": "72062900216", "name": "JACK BARSTOW AIRPORT, MI US", "quality": 100, "contribution": 0.0}, "KP58": {"distance": 60491.0, "latitude": 44.02, "longitude": -82.8, "useCount": 0, "id": "KP58", "name": "KP58", "quality": 96, "contribution": 0.0}, "99824299999": {"distance": 23350.0, "latitude": 43.8, "longitude": -83.717, "useCount": 0, "id": "99824299999", "name": "SAGINAW BAY LIGHT 1, MI US", "quality": 50, "contribution": 0.0}}}