{"queryCost": 1, "latitude": 41.565, "longitude": -93.602, "resolvedAddress": "41.56500,-93.60200", "address": "41.56500,-93.60200", "timezone": "America/Chicago", "tzoffset": -6.0, "days": [{"datetime": "2019-03-04", "datetimeEpoch": 1551679200, "tempmax": 10.8, "tempmin": -5.0, "temp": 2.6, "feelslikemax": -5.2, "feelslikemin": -23.2, "feelslike": -15.0, "dew": -6.3, "humidity": 66.0, "precip": 0.0, "precipprob": 0.0, "precipcover": 0.0, "preciptype": null, "snow": 0.0, "snowdepth": 6.0, "windgust": 30.0, "windspeed": 20.4, "winddir": 272.9, "pressure": 1028.2, "cloudcover": 8.6, "visibility": 9.9, "solarradiation": 120.2, "solarenergy": 10.4, "uvindex": 7.0, "sunrise": "06:44:33", "sunriseEpoch": 1551703473, "sunset": "18:08:19", "sunsetEpoch": 1551744499, "moonphase": 0.98, "conditions": "Clear", "description": "Clear conditions throughout the day.", "icon": "clear-day", "stations": ["KDSM", "KAMW", "72546014933", "KIKV", "99999954902", "72547294989", "C6735"], "source": "obs"}], "stations": {"KDSM": {"distance": 5583.0, "latitude": 41.53, "longitude": -93.65, "useCount": 0, "id": "KDSM", "name": "KDSM", "quality": 100, "contribution": 0.0}, "KAMW": {"distance": 47334.0, "latitude": 41.99, "longitude": -93.62, "useCount": 0, "id": "KAMW", "name": "KAMW", "quality": 100, "contribution": 0.0}, "72546014933": {"distance": 5488.0, "latitude": 41.534, "longitude": -93.653, "useCount": 0, "id": "72546014933", "name": "DES MOINES INTERNATIONAL AIRPORT, IA US", "quality": 100, "contribution": 0.0}, "KIKV": {"distance": 14167.0, "latitude": 41.69, "longitude": -93.57, "useCount": 0, "id": "KIKV", "name": "KIKV", "quality": 100, "contribution": 0.0}, "99999954902": {"distance": 26381.0, "latitude": 41.556, "longitude": -93.285, "useCount": 0, "id": "99999954902", "name": "DES MOINES 17 E, IA US", "quality": 100, "contribution": 0.0}, "72547294989": {"distance": 47398.0, "latitude": 41.991, "longitude": -93.619, "useCount": 0, "id": "72547294989", "name": "AMES MUNICIPAL AIRPORT, IA US", "quality": 100, "contribution": 0.0}, "C6735": {"distance": 7033.0, "latitude": 41.609, "longitude": -93.663, "useCount": 0, "id": "C6735", "name": "CW6735 Des Moines IA US", "quality": 0, "contribution": 0.0}}}