{"queryCost": 1, "latitude": 33.738, "longitude": -84.254, "resolvedAddress": "33.73800,-84.25400", "address": "33.73800,-84.25400", "timezone": "America/New_York", "tzoffset": -5.0, "days": [{"datetime": "2019-03-05", "datetimeEpoch": 1551762000, "tempmax": 43.9, "tempmin": 25.9, "temp": 34.3, "feelslikemax": 36.6, "feelslikemin": 13.9, "feelslike": 25.1, "dew": 13.8, "humidity": 44.3, "precip": 0.0, "precipprob": 0.0, "precipcover": 0.0, "preciptype": null, "snow": 0.0, "snowdepth": 0.0, "windgust": 29.4, "windspeed": 18.4, "winddir": 307.6, "pressure": 1022.4, "cloudcover": 15.5, "visibility": 9.8, "solarradiation": 253.2, "solarenergy": 21.8, "uvindex": 9.0, "sunrise": "07:00:43", "sunriseEpoch": 1551787243, "sunset": "18:36:47", "sunsetEpoch": 1551829007, "moonphase": 1.0, "conditions": "Clear", "description": "Clear conditions throughout the day.", "icon": "clear-day", "stations": ["KFTY", "72219013874", "72219653863", "KATL", "72219503888", "KPDK"], "source": "obs"}], "stations": {"KFTY": {"distance": 25058.0, "latitude": 33.78, "longitude": -84.52, "useCount": 0, "id": "KFTY", "name": "KFTY", "quality": 100, "contribution": 0.0}, "72219013874": {"distance": 21140.0, "latitude": 33.63, "longitude": -84.442, "useCount": 0, "id": "72219013874", "name": "ATLANTA HARTSFIELD INTERNATIONAL AIRPORT, GA US", "quality": 100, "contribution": 0.0}, "72219653863": {"distance": 15889.0, "latitude": 33.875, "longitude": -84.302, "useCount": 0, "id": "72219653863", "name": "ATLANTA DEKALB PEACHTREE AIRPORT, GA US", "quality": 100, "contribution": 0.0}, "KATL": {"distance": 18230.0, "latitude": 33.65, "longitude": -84.42, "useCount": 0, "id": "KATL", "name": "KATL", "quality": 100, "contribution": 0.0}, "72219503888": {"distance": 25169.0, "latitude": 33.779, "longitude": -84.521, "useCount": 0, "id": "72219503888", "name": "ATLANTA FULTON CO AIRPORT, GA US", "quality": 100, "contribution": 0.0}, "KPDK": {"distance": 16370.0, "latitude": 33.88, "longitude": -84.3, "useCount": 0, "id": "KPDK", "name": "KPDK", "quality": 100, "contribution": 0.0}}}