{"queryCost": 1, "latitude": 29.403, "longitude": -98.461, "resolvedAddress": "29.40300,-98.46100", "address": "29.40300,-98.46100", "timezone": "America/Chicago", "tzoffset": -6.0, "days": [{"datetime": "2019-03-04", "datetimeEpoch": 1551679200, "tempmax": 41.7, "tempmin": 31.7, "temp": 36.1, "feelslikemax": 35.8, "feelslikemin": 21.5, "feelslike": 27.7, "dew": 19.9, "humidity": 52.1, "precip": 0.0, "precipprob": 0.0, "precipcover": 0.0, "preciptype": null, "snow": 0.0, "snowdepth": 0.0, "windgust": 31.5, "windspeed": 21.7, "winddir": 29.2, "pressure": 1026.4, "cloudcover": 83.8, "visibility": 9.9, "solarradiation": 40.4, "solarenergy": 3.5, "uvindex": 1.0, "sunrise": "06:56:15", "sunriseEpoch": 1551704175, "sunset": "18:35:16", "sunsetEpoch": 1551746116, "moonphase": 0.98, "conditions": "Partially cloudy", "description": "Partly cloudy throughout the day.", "icon": "partly-cloudy-day", "stations": ["KSKF", "E7101", "KSSF", "KSAT", "72253012921", "E6170", "72252312970", "72253512909"], "source": "obs"}], "stations": {"KSKF": {"distance": 11823.0, "latitude": 29.38, "longitude": -98.58, "useCount": 0, "id": "KSKF", "name": "KSKF", "quality": 100, "contribution": 0.0}, "E7101": {"distance": 8807.0, "latitude": 29.482, "longitude": -98.47, "useCount": 0, "id": "E7101", "name": "EW7101 San Antonio TX US", "quality": 0, "contribution": 0.0}, "KSSF": {"distance": 8173.0, "latitude": 29.33, "longitude": -98.47, "useCount": 0, "id": "KSSF", "name": "KSSF", "quality": 100, "contribution": 0.0}, "KSAT": {"distance": 14164.0, "latitude": 29.53, "longitude": -98.47, "useCount": 0, "id": "KSAT", "name": "KSAT", "quality": 100, "contribution": 0.0}, "72253012921": {"distance": 15885.0, "latitude": 29.544, "longitude": -98.484, "useCount": 0, "id": "72253012921", "name": "SAN ANTONIO INTERNATIONAL AIRPORT, TX US", "quality": 100, "contribution": 0.0}, "E6170": {"distance": 16616.0, "latitude": 29.528, "longitude": -98.367, "useCount": 0, "id": "E6170", "name": "EW6170 San Antonio TX US", "quality": 0, "contribution": 0.0}, "72252312970": {"distance": 7215.0, "latitude": 29.339, "longitude": -98.472, "useCount": 0, "id": "72252312970", "name": "SAN ANTONIO STINSON MUNICIPAL AIRPORT, TX US", "quality": 100, "contribution": 0.0}, "72253512909": {"distance": 12063.0, "latitude": 29.383, "longitude": -98.583, "useCount": 0, "id": "72253512909", "name": "SAN ANTONIO KELLY FIELD AFB, TX US", "quality": 98, "contribution": 0.0}}}