{"queryCost": 1, "latitude": 34.106, "longitude": -117.282, "resolvedAddress": "34.10600,-117.28200", "address": "34.10600,-117.28200", "timezone": "America/Los_Angeles", "tzoffset": -8.0, "days": [{"datetime": "2019-03-10", "datetimeEpoch": 1552204800, "tempmax": 57.8, "tempmin": 42.3, "temp": 49.4, "feelslikemax": 57.8, "feelslikemin": 42.3, "feelslike": 49.0, "dew": 40.3, "humidity": 72.6, "precip": 0.0, "precipprob": 0.0, "precipcover": 0.0, "preciptype": null, "snow": 0.0, "snowdepth": 0.0, "windgust": null, "windspeed": 9.1, "winddir": 176.1, "pressure": 1013.4, "cloudcover": 44.8, "visibility": 9.9, "solarradiation": 146.8, "solarenergy": 12.2, "uvindex": 8.0, "sunrise": "07:06:23", "sunriseEpoch": 1552226783, "sunset": "18:52:52", "sunsetEpoch": 1552269172, "moonphase": 0.07, "conditions": "Partially cloudy", "description": "Partly cloudy throughout the day.", "icon": "partly-cloudy-day", "stations": ["KRAL", "F0494", "72286023119", "KRIV", "KONT", "74704003102", "72286903171"], "source": "obs"}], "stations": {"KRAL": {"distance": 23277.0, "latitude": 33.95, "longitude": -117.45, "useCount": 0, "id": "KRAL", "name": "KRAL", "quality": 100, "contribution": 0.0}, "F0494": {"distance": 9412.0, "latitude": 34.184, "longitude": -117.322, "useCount": 0, "id": "F0494", "name": "FW0494 San Bernardino CSU SB CA US SGXWFO", "quality": 0, "contribution": 0.0}, "72286023119": {"distance": 23121.0, "latitude": 33.9, "longitude": -117.25, "useCount": 0, "id": "72286023119", "name": "MARCH AFB, CA US", "quality": 97, "contribution": 0.0}, "KRIV": {"distance": 25183.0, "latitude": 33.88, "longitude": -117.27, "useCount": 0, "id": "KRIV", "name": "KRIV", "quality": 100, "contribution": 0.0}, "KONT": {"distance": 30229.0, "latitude": 34.04, "longitude": -117.6, "useCount": 0, "id": "KONT", "name": "KONT", "quality": 100, "contribution": 0.0}, "74704003102": {"distance": 29841.0, "latitude": 34.056, "longitude": -117.6, "useCount": 0, "id": "74704003102", "name": "ONTARIO INTERNATIONAL AIRPORT, CA US", "quality": 100, "contribution": 0.0}, "72286903171": {"distance": 22451.0, "latitude": 33.952, "longitude": -117.439, "useCount": 0, "id": "72286903171", "name": "RIVERSIDE MUNICIPAL AIRPORT, CA US", "quality": 100, "contribution": 0.0}}}