{"queryCost": 1, "latitude": 35.483, "longitude": -94.78, "resolvedAddress": "35.48300,-94.78000", "address": "35.48300,-94.78000", "timezone": "America/Chicago", "tzoffset": -5.0, "days": [{"datetime": "2019-03-14", "datetimeEpoch": 1552539600, "tempmax": 63.0, "tempmin": 47.4, "temp": 55.0, "feelslikemax": 63.0, "feelslikemin": 40.9, "feelslike": 53.8, "dew": 32.0, "humidity": 43.3, "precip": 0.0, "precipprob": 0.0, "precipcover": 0.0, "preciptype": null, "snow": 0.0, "snowdepth": 0.0, "windgust": 36.5, "windspeed": 23.9, "winddir": 256.1, "pressure": 1009.4, "cloudcover": 40.3, "visibility": 9.9, "solarradiation": 157.6, "solarenergy": 13.7, "uvindex": 6.0, "sunrise": "07:31:25", "sunriseEpoch": 1552566685, "sunset": "19:25:44", "sunsetEpoch": 1552609544, "moonphase": 0.25, "conditions": "Partially cloudy", "description": "Partly cloudy throughout the day.", "icon": "partly-cloudy-day", "stations": ["72217853953", "72062700214", "STKA4", "KFSM", "AN790", "72344013964", "KGZL"], "source": "obs"}], "stations": {"72217853953": {"distance": 53377.0, "latitude": 35.021, "longitude": -94.621, "useCount": 0, "id": "72217853953", "name": "POTEAU ROBERT S KERR AIRPORT, OK US", "quality": 100, "contribution": 0.0}, "72062700214": {"distance": 36595.0, "latitude": 35.283, "longitude": -95.1, "useCount": 0, "id": "72062700214", "name": "STIGLER REGIONAL AIRPORT, OK US", "quality": 100, "contribution": 0.0}, "STKA4": {"distance": 78742.0, "latitude": 36.118, "longitude": -94.395, "useCount": 0, "id": "STKA4", "name": "WEDINGTON AR US", "quality": 0, "contribution": 0.0}, "KFSM": {"distance": 40914.0, "latitude": 35.33, "longitude": -94.37, "useCount": 0, "id": "KFSM", "name": "KFSM", "quality": 100, "contribution": 0.0}, "AN790": {"distance": 31417.0, "latitude": 35.751, "longitude": -94.67, "useCount": 0, "id": "AN790", "name": "STILWELL CASTNET & NCORE OK CHEROKEE", "quality": 0, "contribution": 0.0}, "72344013964": {"distance": 41397.0, "latitude": 35.333, "longitude": -94.362, "useCount": 0, "id": "72344013964", "name": "FORT SMITH REGIONAL AIRPORT, AR US", "quality": 100, "contribution": 0.0}, "KGZL": {"distance": 36799.0, "latitude": 35.28, "longitude": -95.1, "useCount": 0, "id": "KGZL", "name": "KGZL", "quality": 93, "contribution": 0.0}}}