{"queryCost": 1, "latitude": 33.781, "longitude": -88.415, "resolvedAddress": "33.78100,-88.41500", "address": "33.78100,-88.41500", "timezone": "America/Chicago", "tzoffset": -5.0, "days": [{"datetime": "2019-03-14", "datetimeEpoch": 1552539600, "tempmax": 78.3, "tempmin": 64.3, "temp": 70.8, "feelslikemax": 78.3, "feelslikemin": 64.3, "feelslike": 70.8, "dew": 62.6, "humidity": 75.43, "precip": 0.09, "precipprob": null, "precipcover": 12.5, "preciptype": null, "snow": 0.0, "snowdepth": 0.0, "windgust": 31.7, "windspeed": 23.6, "winddir": 204.3, "pressure": 1012.0, "cloudcover": 79.0, "visibility": 9.9, "solarradiation": 161.2, "solarenergy": 7.5, "uvindex": 4.0, "sunrise": "07:05:37", "sunriseEpoch": 1552565137, "sunset": "19:00:36", "sunsetEpoch": 1552608036, "moonphase": 0.25, "conditions": "Rain, Partially cloudy", "description": "Partly cloudy throughout the day with afternoon rain.", "icon": "rain", "stations": ["KCBM", "72330753893", "72076900275", "KGTR", "KSTF", "72330613825", "MFCM6"], "source": "obs"}], "stations": {"KCBM": {"distance": 14939.0, "latitude": 33.65, "longitude": -88.45, "useCount": 0, "id": "KCBM", "name": "KCBM", "quality": 100, "contribution": 0.0}, "72330753893": {"distance": 40014.0, "latitude": 33.45, "longitude": -88.583, "useCount": 0, "id": "72330753893", "name": "GOLDEN TRIANGLE, MS US", "quality": 99, "contribution": 0.0}, "72076900275": {"distance": 55855.0, "latitude": 33.433, "longitude": -88.849, "useCount": 0, "id": "72076900275", "name": "GEORGE M BRYAN AIRPORT, MS US", "quality": 100, "contribution": 0.0}, "KGTR": {"distance": 39896.0, "latitude": 33.45, "longitude": -88.58, "useCount": 0, "id": "KGTR", "name": "GOLDEN TRIANGLE, MS", "quality": 100, "contribution": 0.0}, "KSTF": {"distance": 55492.0, "latitude": 33.43, "longitude": -88.84, "useCount": 0, "id": "KSTF", "name": "KSTF", "quality": 99, "contribution": 0.0}, "72330613825": {"distance": 14939.0, "latitude": 33.65, "longitude": -88.45, "useCount": 0, "id": "72330613825", "name": "COLUMBUS AFB, MS US", "quality": 98, "contribution": 0.0}, "MFCM6": {"distance": 6480.0, "latitude": 33.794, "longitude": -88.347, "useCount": 0, "id": "MFCM6", "name": "MONROE MS US", "quality": 0, "contribution": 0.0}}}