{"queryCost": 1, "latitude": 33.912, "longitude": -84.383, "resolvedAddress": "33.91200,-84.38300", "address": "33.91200,-84.38300", "timezone": "America/New_York", "tzoffset": -4.0, "days": [{"datetime": "2019-03-21", "datetimeEpoch": 1553140800, "tempmax": 58.4, "tempmin": 40.0, "temp": 50.6, "feelslikemax": 58.4, "feelslikemin": 40.0, "feelslike": 50.4, "dew": 34.9, "humidity": 56.0, "precip": 0.0, "precipprob": 0.0, "precipcover": 0.0, "preciptype": null, "snow": 0.0, "snowdepth": 0.0, "windgust": 28.4, "windspeed": 18.9, "winddir": 209.4, "pressure": 1014.3, "cloudcover": 40.7, "visibility": 8.6, "solarradiation": 218.4, "solarenergy": 19.0, "uvindex": 7.0, "sunrise": "07:40:04", "sunriseEpoch": 1553168404, "sunset": "19:49:51", "sunsetEpoch": 1553212191, "moonphase": 0.5, "conditions": "Partially cloudy", "description": "Partly cloudy throughout the day.", "icon": "partly-cloudy-day", "stations": ["KMGE", "KFTY", "72227013864", "72219653863", "72219503888", "KPDK"], "source": "obs"}], "stations": {"KMGE": {"distance": 12687.0, "latitude": 33.92, "longitude": -84.52, "useCount": 0, "id": "KMGE", "name": "KMGE", "quality": 100, "contribution": 0.0}, "KFTY": {"distance": 19400.0, "latitude": 33.78, "longitude": -84.52, "useCount": 0, "id": "KFTY", "name": "KFTY", "quality": 100, "contribution": 0.0}, "72227013864": {"distance": 12362.0, "latitude": 33.917, "longitude": -84.517, "useCount": 0, "id": "72227013864", "name": "MARIETTA DOBBINS AFB, GA US", "quality": 99, "contribution": 0.0}, "72219653863": {"distance": 8527.0, "latitude": 33.875, "longitude": -84.302, "useCount": 0, "id": "72219653863", "name": "ATLANTA DEKALB PEACHTREE AIRPORT, GA US", "quality": 100, "contribution": 0.0}, "72219503888": {"distance": 19552.0, "latitude": 33.779, "longitude": -84.521, "useCount": 0, "id": "72219503888", "name": "ATLANTA FULTON CO AIRPORT, GA US", "quality": 100, "contribution": 0.0}, "KPDK": {"distance": 8456.0, "latitude": 33.88, "longitude": -84.3, "useCount": 0, "id": "KPDK", "name": "KPDK", "quality": 100, "contribution": 0.0}}}