{"queryCost": 1, "latitude": 36.173, "longitude": -115.134, "resolvedAddress": "36.17300,-115.13400", "address": "36.17300,-115.13400", "timezone": "America/Los_Angeles", "tzoffset": -7.0, "days": [{"datetime": "2019-03-20", "datetimeEpoch": 1553065200, "tempmax": 67.2, "tempmin": 55.2, "temp": 60.9, "feelslikemax": 67.2, "feelslikemin": 55.2, "feelslike": 60.9, "dew": 35.3, "humidity": 40.2, "precip": 0.02, "precipprob": 100.0, "precipcover": 8.33, "preciptype": ["rain"], "snow": 0.0, "snowdepth": 0.0, "windgust": 32.6, "windspeed": 21.1, "winddir": 182.9, "pressure": 1013.5, "cloudcover": 73.0, "visibility": 9.9, "solarradiation": 65.1, "solarenergy": 5.6, "uvindex": 4.0, "sunrise": "06:44:14", "sunriseEpoch": 1553089454, "sunset": "18:52:17", "sunsetEpoch": 1553133137, "moonphase": 0.5, "conditions": "Rain, Partially cloudy", "description": "Partly cloudy throughout the day with rain.", "icon": "rain", "stations": ["KLAS", "CMP12", "74614023112", "KLSV", "72386023169", "KVGT", "72484653123"], "source": "obs"}], "stations": {"KLAS": {"distance": 10847.0, "latitude": 36.08, "longitude": -115.17, "useCount": 0, "id": "KLAS", "name": "KLAS", "quality": 100, "contribution": 0.0}, "CMP12": {"distance": 6698.0, "latitude": 36.114, "longitude": -115.148, "useCount": 0, "id": "CMP12", "name": "Las Vegas NV US CEMP", "quality": 0, "contribution": 0.0}, "74614023112": {"distance": 12481.0, "latitude": 36.25, "longitude": -115.033, "useCount": 0, "id": "74614023112", "name": "LAS VEGAS NELLIS AFB, NV US", "quality": 96, "contribution": 0.0}, "KLSV": {"distance": 10708.0, "latitude": 36.22, "longitude": -115.03, "useCount": 0, "id": "KLSV", "name": "KLSV", "quality": 99, "contribution": 0.0}, "72386023169": {"distance": 11553.0, "latitude": 36.072, "longitude": -115.163, "useCount": 0, "id": "72386023169", "name": "MCCARRAN INTERNATIONAL AIRPORT, NV US", "quality": 100, "contribution": 0.0}, "KVGT": {"distance": 7220.0, "latitude": 36.21, "longitude": -115.2, "useCount": 0, "id": "KVGT", "name": "KVGT", "quality": 100, "contribution": 0.0}, "72484653123": {"distance": 7042.0, "latitude": 36.212, "longitude": -115.196, "useCount": 0, "id": "72484653123", "name": "LAS VEGAS AIR TERMINAL, NV US", "quality": 100, "contribution": 0.0}}}