{"queryCost": 1, "latitude": 42.959, "longitude": -71.441, "resolvedAddress": "42.95900,-71.44100", "address": "42.95900,-71.44100", "timezone": "America/New_York", "tzoffset": -4.0, "days": [{"datetime": "2019-03-27", "datetimeEpoch": 1553659200, "tempmax": 46.1, "tempmin": 22.8, "temp": 35.7, "feelslikemax": 43.2, "feelslikemin": 21.2, "feelslike": 32.0, "dew": 3.2, "humidity": 27.8, "precip": 0.0, "precipprob": 0.0, "precipcover": 0.0, "preciptype": null, "snow": 0.0, "snowdepth": 1.1, "windgust": null, "windspeed": 12.5, "winddir": 173.0, "pressure": 1033.2, "cloudcover": 23.2, "visibility": 9.9, "solarradiation": 173.7, "solarenergy": 15.0, "uvindex": 8.0, "sunrise": "06:36:59", "sunriseEpoch": 1553683019, "sunset": "19:06:02", "sunsetEpoch": 1553727962, "moonphase": 0.72, "conditions": "Partially cloudy", "description": "Becoming cloudy in the afternoon.", "icon": "partly-cloudy-day", "stations": ["KCON", "72605014745", "D1770", "KASH", "74394514710", "KMHT", "74394654754"], "source": "obs"}], "stations": {"KCON": {"distance": 27254.0, "latitude": 43.2, "longitude": -71.5, "useCount": 0, "id": "KCON", "name": "KCON", "quality": 100, "contribution": 0.0}, "72605014745": {"distance": 27829.0, "latitude": 43.205, "longitude": -71.503, "useCount": 0, "id": "72605014745", "name": "CONCORD ASOS, NH US", "quality": 100, "contribution": 0.0}, "D1770": {"distance": 1471.0, "latitude": 42.958, "longitude": -71.459, "useCount": 0, "id": "D1770", "name": "DW1770 Manchester NH US", "quality": 0, "contribution": 0.0}, "KASH": {"distance": 20943.0, "latitude": 42.78, "longitude": -71.52, "useCount": 0, "id": "KASH", "name": "NASHUA/BOIRE FIE, NH", "quality": 100, "contribution": 0.0}, "74394514710": {"distance": 3301.0, "latitude": 42.93, "longitude": -71.436, "useCount": 0, "id": "74394514710", "name": "MANCHESTER AIRPORT, NH US", "quality": 100, "contribution": 0.0}, "KMHT": {"distance": 3350.0, "latitude": 42.93, "longitude": -71.43, "useCount": 0, "id": "KMHT", "name": "KMHT", "quality": 100, "contribution": 0.0}, "74394654754": {"distance": 20511.0, "latitude": 42.783, "longitude": -71.517, "useCount": 0, "id": "74394654754", "name": "NASHUA BOIRE FIELD, NH US", "quality": 100, "contribution": 0.0}}}