{"queryCost": 1, "latitude": 33.357, "longitude": -105.673, "resolvedAddress": "33.35700,-105.67300", "address": "33.35700,-105.67300", "timezone": "America/Denver", "tzoffset": -6.0, "days": [{"datetime": "2015-05-17", "datetimeEpoch": 1431842400, "tempmax": 66.1, "tempmin": 41.9, "temp": 53.8, "feelslikemax": 66.1, "feelslikemin": 38.0, "feelslike": 52.4, "dew": 24.7, "humidity": 36.7, "precip": 0.0, "precipprob": 0.0, "precipcover": 0.0, "preciptype": null, "snow": 0.0, "snowdepth": 0.0, "windgust": 27.7, "windspeed": 15.4, "winddir": 254.9, "pressure": 1012.4, "cloudcover": 8.4, "visibility": 9.9, "solarradiation": 307.7, "solarenergy": 26.6, "uvindex": 10.0, "sunrise": "06:01:22", "sunriseEpoch": 1431864082, "sunset": "19:57:13", "sunsetEpoch": 1431914233, "moonphase": 1.0, "conditions": "Clear", "description": "Clear conditions throughout the day.", "icon": "clear-day", "stations": ["72268393083", "KALM", "72269393097", "KSRR", "KHMN", "74732023002"], "source": "obs"}], "stations": {"72268393083": {"distance": 17814.0, "latitude": 33.45, "longitude": -105.517, "useCount": 0, "id": "72268393083", "name": "RUIDOSO SIERRA BLANCA AIRPORT, NM US", "quality": 100, "contribution": 0.0}, "KALM": {"distance": 65279.0, "latitude": 32.83, "longitude": -105.98, "useCount": 0, "id": "KALM", "name": "KALM", "quality": 97, "contribution": 0.0}, "72269393097": {"distance": 64773.0, "latitude": 32.84, "longitude": -105.991, "useCount": 0, "id": "72269393097", "name": "ALAMOGORDO WHITE SANDS REGIONAL AIRPORT, NM US", "quality": 97, "contribution": 0.0}, "KSRR": {"distance": 18297.0, "latitude": 33.47, "longitude": -105.53, "useCount": 0, "id": "KSRR", "name": "KSRR", "quality": 99, "contribution": 0.0}, "KHMN": {"distance": 69071.0, "latitude": 32.85, "longitude": -106.1, "useCount": 0, "id": "KHMN", "name": "KHMN", "quality": 100, "contribution": 0.0}, "74732023002": {"distance": 69071.0, "latitude": 32.85, "longitude": -106.1, "useCount": 0, "id": "74732023002", "name": "HOLLOMAN AFB, NM US", "quality": 95, "contribution": 0.0}}}