{"queryCost": 1, "latitude": 36.255, "longitude": -81.575, "resolvedAddress": "36.25500,-81.57500", "address": "36.25500,-81.57500", "timezone": "America/New_York", "tzoffset": -4.0, "days": [{"datetime": "2019-03-30", "datetimeEpoch": 1553918400, "tempmax": 67.0, "tempmin": 40.8, "temp": 54.3, "feelslikemax": 67.0, "feelslikemin": 40.8, "feelslike": 54.3, "dew": 37.8, "humidity": 55.7, "precip": 0.0, "precipprob": 0.0, "precipcover": 0.0, "preciptype": null, "snow": 0.0, "snowdepth": 0.0, "windgust": 24.9, "windspeed": 13.2, "winddir": 183.3, "pressure": null, "cloudcover": 11.9, "visibility": 9.9, "solarradiation": 147.1, "solarenergy": 12.5, "uvindex": 7.0, "sunrise": "07:15:35", "sunriseEpoch": 1553944535, "sunset": "19:46:31", "sunsetEpoch": 1553989591, "moonphase": 0.86, "conditions": "Clear", "description": "Clear conditions throughout the day.", "icon": "clear-day", "stations": ["72314863859", "72316563821", "KTNB", "KGEV", "72219863819", "E6072"], "source": "obs"}], "stations": {"72314863859": {"distance": 48374.0, "latitude": 35.821, "longitude": -81.611, "useCount": 0, "id": "72314863859", "name": "MORGANTON LENOIR FOOTHILLS REGIONAL AIRPORT, NC US", "quality": 100, "contribution": 0.0}, "72316563821": {"distance": 42951.0, "latitude": 36.223, "longitude": -81.098, "useCount": 0, "id": "72316563821", "name": "WILKES CO AIRPORT, NC US", "quality": 94, "contribution": 0.0}, "KTNB": {"distance": 9102.0, "latitude": 36.2, "longitude": -81.65, "useCount": 0, "id": "KTNB", "name": "KTNB", "quality": 100, "contribution": 0.0}, "KGEV": {"distance": 23931.0, "latitude": 36.43, "longitude": -81.42, "useCount": 0, "id": "KGEV", "name": "KGEV", "quality": 98, "contribution": 0.0}, "72219863819": {"distance": 9102.0, "latitude": 36.2, "longitude": -81.65, "useCount": 0, "id": "72219863819", "name": "BOONE WATAUGA CO HOSPITAL HELIPORT, NC US", "quality": 100, "contribution": 0.0}, "E6072": {"distance": 10919.0, "latitude": 36.206, "longitude": -81.68, "useCount": 0, "id": "E6072", "name": "EW6072 Boone NC US", "quality": 0, "contribution": 0.0}}}