{"queryCost": 1, "latitude": 64.849, "longitude": -147.838, "resolvedAddress": "64.84900,-147.83800", "address": "64.84900,-147.83800", "timezone": "America/Anchorage", "tzoffset": -8.0, "days": [{"datetime": "2019-03-31", "datetimeEpoch": 1554019200, "tempmax": 52.9, "tempmin": 22.9, "temp": 36.0, "feelslikemax": 52.9, "feelslikemin": 22.9, "feelslike": 35.8, "dew": 25.0, "humidity": 67.3, "precip": 0.0, "precipprob": 0.0, "precipcover": 0.0, "preciptype": null, "snow": 0.0, "snowdepth": 5.5, "windgust": null, "windspeed": 5.8, "winddir": 68.2, "pressure": 1035.3, "cloudcover": 6.3, "visibility": 9.9, "solarradiation": 130.0, "solarenergy": 11.1, "uvindex": 5.0, "sunrise": "07:11:28", "sunriseEpoch": 1554045088, "sunset": "20:41:21", "sunsetEpoch": 1554093681, "moonphase": 0.9, "conditions": "Clear", "description": "Clear conditions throughout the day.", "icon": "clear-day", "stations": ["PAFB", "D3195", "PAFA", "70261026411", "99999926494", "70261526498", "70265026407"], "source": "obs"}], "stations": {"PAFB": {"distance": 10532.0, "latitude": 64.83, "longitude": -147.62, "useCount": 0, "id": "PAFB", "name": "PAFB", "quality": 98, "contribution": 0.0}, "D3195": {"distance": 14533.0, "latitude": 64.912, "longitude": -147.568, "useCount": 0, "id": "D3195", "name": "DW3195 Fairbanks AK US", "quality": 0, "contribution": 0.0}, "PAFA": {"distance": 3566.0, "latitude": 64.82, "longitude": -147.87, "useCount": 0, "id": "PAFA", "name": "FAIRBNKS INTLARPT, AK", "quality": 100, "contribution": 0.0}, "70261026411": {"distance": 5333.0, "latitude": 64.804, "longitude": -147.876, "useCount": 0, "id": "70261026411", "name": "FAIRBANKS INTERNATIONAL AIRPORT, AK US", "quality": 100, "contribution": 0.0}, "99999926494": {"distance": 20779.0, "latitude": 64.974, "longitude": -147.51, "useCount": 0, "id": "99999926494", "name": "FAIRBANKS 11 NE, AK US", "quality": 99, "contribution": 0.0}, "70261526498": {"distance": 10677.0, "latitude": 64.838, "longitude": -147.614, "useCount": 0, "id": "70261526498", "name": "FAIRBANKS WAINWRIGHT ARMY AIR FIELD AIRPORT, AK US", "quality": 95, "contribution": 0.0}, "70265026407": {"distance": 40299.0, "latitude": 64.683, "longitude": -147.083, "useCount": 0, "id": "70265026407", "name": "EIELSON FIELD, AK US", "quality": 99, "contribution": 0.0}}}