{"queryCost": 1, "latitude": 42.719, "longitude": -102.455, "resolvedAddress": "42.71900,-102.45500", "address": "42.71900,-102.45500", "timezone": "America/Denver", "tzoffset": -6.0, "days": [{"datetime": "2019-04-14", "datetimeEpoch": 1555221600, "tempmax": 54.8, "tempmin": 35.8, "temp": 44.0, "feelslikemax": 54.8, "feelslikemin": 29.4, "feelslike": 40.5, "dew": 28.5, "humidity": 56.0, "precip": 0.0, "precipprob": 0.0, "precipcover": 0.0, "preciptype": null, "snow": 0.0, "snowdepth": 3.0, "windgust": 23.0, "windspeed": 12.6, "winddir": 174.9, "pressure": 1003.3, "cloudcover": 10.4, "visibility": 9.9, "solarradiation": 210.4, "solarenergy": 18.1, "uvindex": 8.0, "sunrise": "06:10:14", "sunriseEpoch": 1555243814, "sunset": "19:30:43", "sunsetEpoch": 1555291843, "moonphase": 0.35, "conditions": "Clear", "description": "Clear conditions throughout the day.", "icon": "clear-day", "stations": ["HRSN1", "72563799999", "KIEN", "72651794039", "72563624017", "KCDR", "CZHB"], "source": "obs"}], "stations": {"HRSN1": {"distance": 42284.0, "latitude": 42.724, "longitude": -102.972, "useCount": 0, "id": "HRSN1", "name": "KINGS CANYON NE US", "quality": 0, "contribution": 0.0}, "72563799999": {"distance": 24849.0, "latitude": 42.806, "longitude": -102.175, "useCount": 0, "id": "72563799999", "name": "GORDON MUNICIPAL, NE US", "quality": 99, "contribution": 0.0}, "KIEN": {"distance": 33806.0, "latitude": 43.02, "longitude": -102.51, "useCount": 0, "id": "KIEN", "name": "KIEN", "quality": 100, "contribution": 0.0}, "72651794039": {"distance": 33965.0, "latitude": 43.021, "longitude": -102.518, "useCount": 0, "id": "72651794039", "name": "PINE RIDGE AIRPORT, SD US", "quality": 100, "contribution": 0.0}, "72563624017": {"distance": 54166.0, "latitude": 42.837, "longitude": -103.098, "useCount": 0, "id": "72563624017", "name": "CHADRON MUNICIPAL AIRPORT, NE US", "quality": 100, "contribution": 0.0}, "KCDR": {"distance": 54133.0, "latitude": 42.83, "longitude": -103.1, "useCount": 0, "id": "KCDR", "name": "KCDR", "quality": 100, "contribution": 0.0}, "CZHB": {"distance": 15752.0, "latitude": 42.82, "longitude": -102.32, "useCount": 0, "id": "CZHB", "name": "CZHB", "quality": 50, "contribution": 0.0}}}