{"queryCost": 1, "latitude": 31.907, "longitude": -106.597, "resolvedAddress": "31.90700,-106.59700", "address": "31.90700,-106.59700", "timezone": "America/Denver", "tzoffset": -6.0, "days": [{"datetime": "2019-04-11", "datetimeEpoch": 1554962400, "tempmax": 66.8, "tempmin": 45.7, "temp": 57.8, "feelslikemax": 66.8, "feelslikemin": 40.9, "feelslike": 57.4, "dew": 9.6, "humidity": 14.9, "precip": 0.0, "precipprob": 0.0, "precipcover": 0.0, "preciptype": null, "snow": 0.0, "snowdepth": 0.0, "windgust": 51.8, "windspeed": 25.6, "winddir": 273.8, "pressure": 1004.9, "cloudcover": 6.8, "visibility": 9.3, "solarradiation": 345.1, "solarenergy": 29.9, "uvindex": 10.0, "sunrise": "06:42:32", "sunriseEpoch": 1554986552, "sunset": "19:32:49", "sunsetEpoch": 1555032769, "moonphase": 0.18, "conditions": "Clear", "description": "Clear conditions throughout the day.", "icon": "clear-day", "stations": ["KBIF", "KLRU", "72270499999", "72364099999", "72270023044", "NM6O", "KELP"], "source": "obs"}], "stations": {"KBIF": {"distance": 21472.0, "latitude": 31.85, "longitude": -106.38, "useCount": 0, "id": "KBIF", "name": "KBIF", "quality": 98, "contribution": 0.0}, "KLRU": {"distance": 51497.0, "latitude": 32.28, "longitude": -106.92, "useCount": 0, "id": "KLRU", "name": "KLRU", "quality": 100, "contribution": 0.0}, "72270499999": {"distance": 21488.0, "latitude": 31.85, "longitude": -106.38, "useCount": 0, "id": "72270499999", "name": "BIGGS ARMY AIR FIELD FORT BLISS TEXAS USA, TX US", "quality": 98, "contribution": 0.0}, "72364099999": {"distance": 10447.0, "latitude": 31.88, "longitude": -106.703, "useCount": 0, "id": "72364099999", "name": "DONA ANA CO INTERNATIONAL JETPORT ARPT SANTA TERESA, NM US", "quality": 100, "contribution": 0.0}, "72270023044": {"distance": 23464.0, "latitude": 31.811, "longitude": -106.376, "useCount": 0, "id": "72270023044", "name": "EL PASO INTERNATIONAL AIRPORT, TX US", "quality": 100, "contribution": 0.0}, "NM6O": {"distance": 3643.0, "latitude": 31.919, "longitude": -106.633, "useCount": 0, "id": "NM6O", "name": "6O La Union NM US NMAQ", "quality": 0, "contribution": 0.0}, "KELP": {"distance": 22110.0, "latitude": 31.8, "longitude": -106.4, "useCount": 0, "id": "KELP", "name": "KELP", "quality": 100, "contribution": 0.0}}}