{"queryCost": 1, "latitude": 35.791, "longitude": -78.55, "resolvedAddress": "35.79100,-78.55000", "address": "35.79100,-78.55000", "timezone": "America/New_York", "tzoffset": -4.0, "days": [{"datetime": "2019-04-20", "datetimeEpoch": 1555732800, "tempmax": 65.4, "tempmin": 49.4, "temp": 57.4, "feelslikemax": 65.4, "feelslikemin": 46.7, "feelslike": 57.3, "dew": 48.8, "humidity": 74.5, "precip": 0.02, "precipprob": 100.0, "precipcover": 8.33, "preciptype": ["rain"], "snow": 0.0, "snowdepth": 0.0, "windgust": 33.3, "windspeed": 20.0, "winddir": 216.5, "pressure": 1006.1, "cloudcover": 70.6, "visibility": 9.8, "solarradiation": 132.8, "solarenergy": 11.4, "uvindex": 8.0, "sunrise": "06:35:09", "sunriseEpoch": 1555756509, "sunset": "19:51:40", "sunsetEpoch": 1555804300, "moonphase": 0.51, "conditions": "Rain, Partially cloudy", "description": "Partly cloudy throughout the day with rain.", "icon": "rain", "stations": ["KLHZ", "72214103731", "KRDU", "72306013722", "C2094", "F0229"], "source": "obs"}], "stations": {"KLHZ": {"distance": 32301.0, "latitude": 36.02, "longitude": -78.33, "useCount": 0, "id": "KLHZ", "name": "KLHZ", "quality": 99, "contribution": 0.0}, "72214103731": {"distance": 32575.0, "latitude": 36.023, "longitude": -78.33, "useCount": 0, "id": "72214103731", "name": "LOUISBURG FRANKLIN CO AIRPORT, NC US", "quality": 100, "contribution": 0.0}, "KRDU": {"distance": 22135.0, "latitude": 35.86, "longitude": -78.78, "useCount": 0, "id": "KRDU", "name": "KRDU", "quality": 100, "contribution": 0.0}, "72306013722": {"distance": 23772.0, "latitude": 35.892, "longitude": -78.782, "useCount": 0, "id": "72306013722", "name": "RALEIGH AIRPORT, NC US", "quality": 100, "contribution": 0.0}, "C2094": {"distance": 5305.0, "latitude": 35.838, "longitude": -78.56, "useCount": 0, "id": "C2094", "name": "CW2094 Raleigh NC US", "quality": 0, "contribution": 0.0}, "F0229": {"distance": 26030.0, "latitude": 35.786, "longitude": -78.838, "useCount": 0, "id": "F0229", "name": "FW0229 Cary NC US", "quality": 0, "contribution": 0.0}}}