{"queryCost": 1, "latitude": 34.734, "longitude": -92.395, "resolvedAddress": "34.73400,-92.39500", "address": "34.73400,-92.39500", "timezone": "America/Chicago", "tzoffset": -5.0, "days": [{"datetime": "2019-04-21", "datetimeEpoch": 1555822800, "tempmax": 80.0, "tempmin": 45.6, "temp": 63.7, "feelslikemax": 79.9, "feelslikemin": 45.6, "feelslike": 63.6, "dew": 48.2, "humidity": 61.4, "precip": 0.0, "precipprob": 0.0, "precipcover": 0.0, "preciptype": null, "snow": 0.0, "snowdepth": 0.0, "windgust": 20.8, "windspeed": 13.7, "winddir": 180.3, "pressure": 1016.7, "cloudcover": 7.1, "visibility": 9.8, "solarradiation": 207.8, "solarenergy": 17.9, "uvindex": 9.0, "sunrise": "06:30:39", "sunriseEpoch": 1555846239, "sunset": "19:46:29", "sunsetEpoch": 1555893989, "moonphase": 0.53, "conditions": "Clear", "description": "Clear conditions throughout the day.", "icon": "clear-day", "stations": ["72340503930", "KHOT", "72340313963", "KLRF", "E9770", "72341793988", "KLIT"], "source": "obs"}], "stations": {"72340503930": {"distance": 30247.0, "latitude": 34.917, "longitude": -92.15, "useCount": 0, "id": "72340503930", "name": "LITTLE ROCK AFB, AR US", "quality": 99, "contribution": 0.0}, "KHOT": {"distance": 70969.0, "latitude": 34.47, "longitude": -93.1, "useCount": 0, "id": "KHOT", "name": "KHOT", "quality": 99, "contribution": 0.0}, "72340313963": {"distance": 14301.0, "latitude": 34.727, "longitude": -92.239, "useCount": 0, "id": "72340313963", "name": "LITTLE ROCK AIRPORT ADAMS FIELD, AR US", "quality": 100, "contribution": 0.0}, "KLRF": {"distance": 30495.0, "latitude": 34.92, "longitude": -92.15, "useCount": 0, "id": "KLRF", "name": "KLRF", "quality": 100, "contribution": 0.0}, "E9770": {"distance": 22346.0, "latitude": 34.536, "longitude": -92.359, "useCount": 0, "id": "E9770", "name": "EW9770 Hensley AR US", "quality": 0, "contribution": 0.0}, "72341793988": {"distance": 74789.0, "latitude": 34.18, "longitude": -91.934, "useCount": 0, "id": "72341793988", "name": "PINE BLUFF GRIDER FIELD, AR US", "quality": 100, "contribution": 0.0}, "KLIT": {"distance": 15176.0, "latitude": 34.72, "longitude": -92.23, "useCount": 0, "id": "KLIT", "name": "KLIT", "quality": 100, "contribution": 0.0}}}