{"queryCost": 1, "latitude": 27.845, "longitude": -82.73, "resolvedAddress": "27.84500,-82.73000", "address": "27.84500,-82.73000", "timezone": "America/New_York", "tzoffset": -4.0, "days": [{"datetime": "2019-04-10", "datetimeEpoch": 1554868800, "tempmax": 77.3, "tempmin": 66.3, "temp": 72.2, "feelslikemax": 77.3, "feelslikemin": 66.3, "feelslike": 72.2, "dew": 64.0, "humidity": 76.2, "precip": 0.05, "precipprob": 100.0, "precipcover": 8.33, "preciptype": ["rain"], "snow": 0.0, "snowdepth": 0.0, "windgust": 20.8, "windspeed": 12.4, "winddir": 268.1, "pressure": 1008.6, "cloudcover": 41.7, "visibility": 9.9, "solarradiation": 237.8, "solarenergy": 20.8, "uvindex": 8.0, "sunrise": "07:11:32", "sunriseEpoch": 1554894692, "sunset": "19:53:21", "sunsetEpoch": 1554940401, "moonphase": 0.13, "conditions": "Rain, Partially cloudy", "description": "Partly cloudy throughout the day with early morning rain.", "icon": "rain", "stations": ["KCLW", "KPIE", "99999992828", "AV393", "72210492806", "72211612873", "KSPG"], "source": "obs"}], "stations": {"KCLW": {"distance": 15156.0, "latitude": 27.98, "longitude": -82.75, "useCount": 0, "id": "KCLW", "name": "KCLW", "quality": 100, "contribution": 0.0}, "KPIE": {"distance": 9691.0, "latitude": 27.92, "longitude": -82.68, "useCount": 0, "id": "KPIE", "name": "KPIE", "quality": 100, "contribution": 0.0}, "99999992828": {"distance": 14969.0, "latitude": 27.977, "longitude": -82.759, "useCount": 0, "id": "99999992828", "name": null, "quality": 98, "contribution": 0.0}, "AV393": {"distance": 1025.0, "latitude": 27.854, "longitude": -82.73, "useCount": 0, "id": "AV393", "name": "W4GAC Pinellas Park FL US", "quality": 0, "contribution": 0.0}, "72210492806": {"distance": 13482.0, "latitude": 27.765, "longitude": -82.627, "useCount": 0, "id": "72210492806", "name": "ST PETERSBURG ALBERT WHITTED AIRPORT, FL US", "quality": 100, "contribution": 0.0}, "72211612873": {"distance": 8415.0, "latitude": 27.911, "longitude": -82.687, "useCount": 0, "id": "72211612873", "name": "ST PETERSBURG CLEARWATER INTERNATIONAL AIRPORT, FL US", "quality": 100, "contribution": 0.0}, "KSPG": {"distance": 12910.0, "latitude": 27.77, "longitude": -82.63, "useCount": 0, "id": "KSPG", "name": "KSPG", "quality": 100, "contribution": 0.0}}}