{"queryCost": 1, "latitude": 45.493, "longitude": -122.528, "resolvedAddress": "45.49300,-122.52800", "address": "45.49300,-122.52800", "timezone": "America/Los_Angeles", "tzoffset": -7.0, "days": [{"datetime": "2019-04-29", "datetimeEpoch": 1556521200, "tempmax": 67.2, "tempmin": 42.9, "temp": 56.1, "feelslikemax": 67.2, "feelslikemin": 42.9, "feelslike": 55.9, "dew": 30.5, "humidity": 41.2, "precip": 0.0, "precipprob": 0.0, "precipcover": 0.0, "preciptype": null, "snow": 0.0, "snowdepth": 0.0, "windgust": 24.1, "windspeed": 13.9, "winddir": 160.4, "pressure": 1017.4, "cloudcover": 30.8, "visibility": 9.9, "solarradiation": 285.7, "solarenergy": 24.8, "uvindex": 9.0, "sunrise": "06:01:27", "sunriseEpoch": 1556542887, "sunset": "20:14:18", "sunsetEpoch": 1556594058, "moonphase": 0.87, "conditions": "Partially cloudy", "description": "Partly cloudy throughout the day.", "icon": "partly-cloudy-day", "stations": ["72698524242", "D8151", "KVUO", "KTTD", "72698024229", "KPDX", "72791894298"], "source": "obs"}], "stations": {"72698524242": {"distance": 11313.0, "latitude": 45.551, "longitude": -122.409, "useCount": 0, "id": "72698524242", "name": "PORTLAND TROUTDALE AIRPORT, OR US", "quality": 100, "contribution": 0.0}, "D8151": {"distance": 6193.0, "latitude": 45.522, "longitude": -122.46, "useCount": 0, "id": "D8151", "name": "DW8151 Gresham OR US", "quality": 0, "contribution": 0.0}, "KVUO": {"distance": 17485.0, "latitude": 45.62, "longitude": -122.66, "useCount": 0, "id": "KVUO", "name": "KVUO", "quality": 100, "contribution": 0.0}, "KTTD": {"distance": 10546.0, "latitude": 45.55, "longitude": -122.42, "useCount": 0, "id": "KTTD", "name": "KTTD", "quality": 100, "contribution": 0.0}, "72698024229": {"distance": 13070.0, "latitude": 45.596, "longitude": -122.609, "useCount": 0, "id": "72698024229", "name": "PORTLAND INTERNATIONAL AIRPORT, OR US", "quality": 100, "contribution": 0.0}, "KPDX": {"distance": 13168.0, "latitude": 45.6, "longitude": -122.6, "useCount": 0, "id": "KPDX", "name": "KPDX", "quality": 100, "contribution": 0.0}, "72791894298": {"distance": 17421.0, "latitude": 45.621, "longitude": -122.657, "useCount": 0, "id": "72791894298", "name": "VANCOUVER PEARSON AIRPORT, WA US", "quality": 100, "contribution": 0.0}}}