{"queryCost": 1, "latitude": 33.805, "longitude": -117.195, "resolvedAddress": "33.80500,-117.19500", "address": "33.80500,-117.19500", "timezone": "America/Los_Angeles", "tzoffset": -7.0, "days": [{"datetime": "2019-04-30", "datetimeEpoch": 1556607600, "tempmax": 65.1, "tempmin": 53.7, "temp": 57.7, "feelslikemax": 65.1, "feelslikemin": 53.7, "feelslike": 57.7, "dew": 52.1, "humidity": 83.2, "precip": 0.0, "precipprob": 0.0, "precipcover": 0.0, "preciptype": null, "snow": 0.0, "snowdepth": 0.0, "windgust": 19.5, "windspeed": 9.1, "winddir": 275.5, "pressure": 1013.9, "cloudcover": 71.5, "visibility": 9.4, "solarradiation": 118.9, "solarenergy": 10.4, "uvindex": 4.0, "sunrise": "06:01:04", "sunriseEpoch": 1556629264, "sunset": "19:31:26", "sunsetEpoch": 1556677886, "moonphase": 0.91, "conditions": "Partially cloudy", "description": "Partly cloudy throughout the day.", "icon": "partly-cloudy-day", "stations": ["KRAL", "72286023119", "KRIV", "KF70", "CI240", "72286903171"], "source": "obs"}], "stations": {"KRAL": {"distance": 28565.0, "latitude": 33.95, "longitude": -117.45, "useCount": 0, "id": "KRAL", "name": "KRAL", "quality": 100, "contribution": 0.0}, "72286023119": {"distance": 11734.0, "latitude": 33.9, "longitude": -117.25, "useCount": 0, "id": "72286023119", "name": "MARCH AFB, CA US", "quality": 97, "contribution": 0.0}, "KRIV": {"distance": 10853.0, "latitude": 33.88, "longitude": -117.27, "useCount": 0, "id": "KRIV", "name": "KRIV", "quality": 100, "contribution": 0.0}, "KF70": {"distance": 26844.0, "latitude": 33.57, "longitude": -117.13, "useCount": 0, "id": "KF70", "name": "KF70", "quality": 99, "contribution": 0.0}, "CI240": {"distance": 5413.0, "latitude": 33.756, "longitude": -117.197, "useCount": 0, "id": "CI240", "name": "Perris - Menifee CA US CIMIS", "quality": 0, "contribution": 0.0}, "72286903171": {"distance": 27856.0, "latitude": 33.952, "longitude": -117.439, "useCount": 0, "id": "72286903171", "name": "RIVERSIDE MUNICIPAL AIRPORT, CA US", "quality": 100, "contribution": 0.0}}}