{"queryCost": 1, "latitude": 33.437, "longitude": -112.083, "resolvedAddress": "33.43700,-112.08300", "address": "33.43700,-112.08300", "timezone": "America/Phoenix", "tzoffset": -7.0, "days": [{"datetime": "2019-05-09", "datetimeEpoch": 1557385200, "tempmax": 88.5, "tempmin": 63.8, "temp": 76.2, "feelslikemax": 85.0, "feelslikemin": 63.8, "feelslike": 75.0, "dew": 45.2, "humidity": 37.5, "precip": 0.0, "precipprob": 0.0, "precipcover": 0.0, "preciptype": null, "snow": 0.0, "snowdepth": 0.0, "windgust": 19.7, "windspeed": 12.5, "winddir": 161.0, "pressure": 1004.8, "cloudcover": 35.3, "visibility": 9.9, "solarradiation": 284.8, "solarenergy": 24.7, "uvindex": 9.0, "sunrise": "05:32:51", "sunriseEpoch": 1557405171, "sunset": "19:17:10", "sunsetEpoch": 1557454630, "moonphase": 0.11, "conditions": "Partially cloudy", "description": "Partly cloudy throughout the day.", "icon": "partly-cloudy-day", "stations": ["72278903192", "72278403184", "MADC", "KSDL", "KDVT", "72278023183", "KPHX"], "source": "obs"}], "stations": {"72278903192": {"distance": 26125.0, "latitude": 33.623, "longitude": -111.911, "useCount": 0, "id": "72278903192", "name": "SCOTTSDALE MUNICIPAL AIRPORT, AZ US", "quality": 100, "contribution": 0.0}, "72278403184": {"distance": 27975.0, "latitude": 33.688, "longitude": -112.082, "useCount": 0, "id": "72278403184", "name": "PHOENIX DEER VALLEY MUNICIPAL AIRPORT, AZ US", "quality": 100, "contribution": 0.0}, "MADC": {"distance": 3617.0, "latitude": 33.427, "longitude": -112.12, "useCount": 0, "id": "MADC", "name": "Durango Complex AZ US AZ ALERT", "quality": 0, "contribution": 0.0}, "KSDL": {"distance": 24489.0, "latitude": 33.61, "longitude": -111.92, "useCount": 0, "id": "KSDL", "name": "KSDL", "quality": 100, "contribution": 0.0}, "KDVT": {"distance": 27078.0, "latitude": 33.68, "longitude": -112.07, "useCount": 0, "id": "KDVT", "name": "KDVT", "quality": 100, "contribution": 0.0}, "72278023183": {"distance": 7412.0, "latitude": 33.428, "longitude": -112.004, "useCount": 0, "id": "72278023183", "name": "PHOENIX AIRPORT, AZ US", "quality": 100, "contribution": 0.0}, "KPHX": {"distance": 5904.0, "latitude": 33.43, "longitude": -112.02, "useCount": 0, "id": "KPHX", "name": "KPHX", "quality": 100, "contribution": 0.0}}}