{"queryCost": 1, "latitude": 31.0, "longitude": -89.449, "resolvedAddress": "31.00000,-89.44900", "address": "31.00000,-89.44900", "timezone": "America/Chicago", "tzoffset": -5.0, "days": [{"datetime": "2019-05-07", "datetimeEpoch": 1557205200, "tempmax": 87.2, "tempmin": 56.9, "temp": 72.5, "feelslikemax": 86.3, "feelslikemin": 56.9, "feelslike": 72.6, "dew": 60.8, "humidity": 70.8, "precip": 0.0, "precipprob": 0.0, "precipcover": 0.0, "preciptype": null, "snow": 0.0, "snowdepth": 0.0, "windgust": null, "windspeed": 8.4, "winddir": 113.8, "pressure": 1017.5, "cloudcover": 1.4, "visibility": 9.8, "solarradiation": 318.9, "solarenergy": 27.7, "uvindex": 10.0, "sunrise": "06:08:25", "sunriseEpoch": 1557227305, "sunset": "19:40:43", "sunsetEpoch": 1557276043, "moonphase": 0.04, "conditions": "Clear", "description": "Clear conditions throughout the day.", "icon": "clear-day", "stations": ["KHBG", "74759013833", "FRGM6", "72234853808", "KPIB"], "source": "obs"}], "stations": {"72234853808": {"distance": 53107.0, "latitude": 31.467, "longitude": -89.333, "useCount": 0, "id": "72234853808", "name": "LAUREL HATTIESBURG PINE BELT REGIONAL AIRPORT, MS US", "quality": 99, "contribution": 0.0}, "KHBG": {"distance": 35538.0, "latitude": 31.27, "longitude": -89.25, "useCount": 0, "id": "KHBG", "name": "KHBG", "quality": 100, "contribution": 0.0}, "74759013833": {"distance": 36512.0, "latitude": 31.282, "longitude": -89.253, "useCount": 0, "id": "74759013833", "name": "HATTIESBURG CHAIN MUNICIPAL AIRPORT, MS US", "quality": 100, "contribution": 0.0}, "FRGM6": {"distance": 34387.0, "latitude": 31.204, "longitude": -89.178, "useCount": 0, "id": "FRGM6", "name": "RAGLAND HILLS MS US", "quality": 0, "contribution": 0.0}, "KPIB": {"distance": 53532.0, "latitude": 31.47, "longitude": -89.33, "useCount": 0, "id": "KPIB", "name": "PINE BELT RGNL, MS", "quality": 100, "contribution": 0.0}}}