{"queryCost": 1, "latitude": 47.683, "longitude": -117.238, "resolvedAddress": "47.68300,-117.23800", "address": "47.68300,-117.23800", "timezone": "America/Los_Angeles", "tzoffset": -7.0, "days": [{"datetime": "2019-05-04", "datetimeEpoch": 1556953200, "tempmax": 71.6, "tempmin": 40.1, "temp": 57.0, "feelslikemax": 71.6, "feelslikemin": 36.7, "feelslike": 56.4, "dew": 37.1, "humidity": 52.0, "precip": 0.0, "precipprob": 0.0, "precipcover": 0.0, "preciptype": null, "snow": 0.0, "snowdepth": 0.0, "windgust": 23.0, "windspeed": 11.3, "winddir": 169.5, "pressure": 1011.4, "cloudcover": 7.6, "visibility": 9.9, "solarradiation": 224.4, "solarenergy": 19.3, "uvindex": 8.0, "sunrise": "05:27:01", "sunriseEpoch": 1556972821, "sunset": "20:05:21", "sunsetEpoch": 1557025521, "moonphase": 1.0, "conditions": "Clear", "description": "Clear conditions throughout the day.", "icon": "clear-day", "stations": ["72785524114", "72785694176", "72785024157", "F4008", "KSFF", "KGEG", "KSKA"], "source": "obs"}], "stations": {"72785524114": {"distance": 31383.0, "latitude": 47.633, "longitude": -117.65, "useCount": 0, "id": "72785524114", "name": "FAIRCHILD AFB, WA US", "quality": 96, "contribution": 0.0}, "72785694176": {"distance": 6220.0, "latitude": 47.683, "longitude": -117.321, "useCount": 0, "id": "72785694176", "name": "SPOKANE FELTS FIELD, WA US", "quality": 100, "contribution": 0.0}, "72785024157": {"distance": 22795.0, "latitude": 47.622, "longitude": -117.528, "useCount": 0, "id": "72785024157", "name": "SPOKANE INTERNATIONAL AIRPORT, WA US", "quality": 100, "contribution": 0.0}, "F4008": {"distance": 32129.0, "latitude": 47.722, "longitude": -116.813, "useCount": 0, "id": "F4008", "name": "FW4008 Coeur d'Alene ID US", "quality": 0, "contribution": 0.0}, "KSFF": {"distance": 6155.0, "latitude": 47.68, "longitude": -117.32, "useCount": 0, "id": "KSFF", "name": "KSFF", "quality": 100, "contribution": 0.0}, "KGEG": {"distance": 22676.0, "latitude": 47.63, "longitude": -117.53, "useCount": 0, "id": "KGEG", "name": "KGEG", "quality": 100, "contribution": 0.0}, "KSKA": {"distance": 31681.0, "latitude": 47.62, "longitude": -117.65, "useCount": 0, "id": "KSKA", "name": "KSKA", "quality": 100, "contribution": 0.0}}}