{"queryCost": 1, "latitude": 39.375, "longitude": -76.541, "resolvedAddress": "39.37500,-76.54100", "address": "39.37500,-76.54100", "timezone": "America/New_York", "tzoffset": -4.0, "days": [{"datetime": "2019-05-02", "datetimeEpoch": 1556769600, "tempmax": 80.0, "tempmin": 59.0, "temp": 67.6, "feelslikemax": 80.0, "feelslikemin": 59.0, "feelslike": 67.6, "dew": 61.7, "humidity": 82.8, "precip": 0.27, "precipprob": 100.0, "precipcover": 4.17, "preciptype": ["rain"], "snow": 0.0, "snowdepth": 0.0, "windgust": 19.7, "windspeed": 6.4, "winddir": 77.5, "pressure": 1019.4, "cloudcover": 32.4, "visibility": 5.5, "solarradiation": 216.9, "solarenergy": 18.8, "uvindex": 9.0, "sunrise": "06:06:29", "sunriseEpoch": 1556791589, "sunset": "20:00:28", "sunsetEpoch": 1556841628, "moonphase": 0.97, "conditions": "Rain, Partially cloudy", "description": "Partly cloudy throughout the day with afternoon rain.", "icon": "rain", "stations": ["E1021", "72406093721", "KBWI", "74594493784", "KAPG", "KMTN", "C7109"], "source": "obs"}], "stations": {"E1021": {"distance": 9989.0, "latitude": 39.355, "longitude": -76.428, "useCount": 0, "id": "E1021", "name": "KB3WYD Middle River MD US", "quality": 0, "contribution": 0.0}, "72406093721": {"distance": 25613.0, "latitude": 39.173, "longitude": -76.684, "useCount": 0, "id": "72406093721", "name": "BALTIMORE WASHINGTON INTERNATIONAL AIRPORT, MD US", "quality": 100, "contribution": 0.0}, "KBWI": {"distance": 24388.0, "latitude": 39.18, "longitude": -76.67, "useCount": 0, "id": "KBWI", "name": "KBWI", "quality": 100, "contribution": 0.0}, "74594493784": {"distance": 12042.0, "latitude": 39.281, "longitude": -76.611, "useCount": 0, "id": "74594493784", "name": "MARYLAND SCIENCE CENTER, MD US", "quality": 71, "contribution": 0.0}, "KAPG": {"distance": 33610.0, "latitude": 39.47, "longitude": -76.17, "useCount": 0, "id": "KAPG", "name": "KAPG", "quality": 100, "contribution": 0.0}, "KMTN": {"distance": 11558.0, "latitude": 39.33, "longitude": -76.42, "useCount": 0, "id": "KMTN", "name": "KMTN", "quality": 88, "contribution": 0.0}, "C7109": {"distance": 4933.0, "latitude": 39.385, "longitude": -76.597, "useCount": 0, "id": "C7109", "name": "CW7109 Towson MD US", "quality": 0, "contribution": 0.0}}}