{"queryCost": 1, "latitude": 39.714, "longitude": -76.04, "resolvedAddress": "39.71400,-76.04000", "address": "39.71400,-76.04000", "timezone": "America/New_York", "tzoffset": -4.0, "days": [{"datetime": "2019-05-13", "datetimeEpoch": 1557720000, "tempmax": 51.6, "tempmin": 44.8, "temp": 47.4, "feelslikemax": 51.6, "feelslikemin": 38.6, "feelslike": 44.0, "dew": 46.0, "humidity": 94.64, "precip": 0.27, "precipprob": null, "precipcover": 45.83, "preciptype": null, "snow": 0.0, "snowdepth": 0.0, "windgust": 20.8, "windspeed": 13.6, "winddir": 83.3, "pressure": 1010.0, "cloudcover": 64.8, "visibility": 7.0, "solarradiation": 111.7, "solarenergy": 6.0, "uvindex": 4.0, "sunrise": "05:51:45", "sunriseEpoch": 1557741105, "sunset": "20:09:51", "sunsetEpoch": 1557792591, "moonphase": 0.33, "conditions": "Rain, Partially cloudy", "description": "Partly cloudy throughout the day with rain in the morning and afternoon.", "icon": "rain", "stations": ["DE041", "72418013781", "72405713701", "99999903761", "KILG", "72040800136", "KAPG"], "source": "obs"}], "stations": {"DE041": {"distance": 3127.0, "latitude": 39.742, "longitude": -76.046, "useCount": 0, "id": "DE041", "name": "Octoraro Creek Nottingham PA USA", "quality": 0, "contribution": 0.0}, "72418013781": {"distance": 37461.0, "latitude": 39.674, "longitude": -75.606, "useCount": 0, "id": "72418013781", "name": "WILMINGTON NEW CASTLE CO AIRPORT, DE US", "quality": 100, "contribution": 0.0}, "72405713701": {"distance": 29188.0, "latitude": 39.472, "longitude": -76.17, "useCount": 0, "id": "72405713701", "name": "ABERDEEN PHILLIPS FIELD, MD US", "quality": 98, "contribution": 0.0}, "99999903761": {"distance": 27080.0, "latitude": 39.859, "longitude": -75.786, "useCount": 0, "id": "99999903761", "name": "AVONDALE 2 N, PA US", "quality": 100, "contribution": 0.0}, "KILG": {"distance": 38729.0, "latitude": 39.68, "longitude": -75.59, "useCount": 0, "id": "KILG", "name": "KILG", "quality": 100, "contribution": 0.0}, "72040800136": {"distance": 33396.0, "latitude": 39.983, "longitude": -75.867, "useCount": 0, "id": "72040800136", "name": "CHESTER CO GO CARLSON AIRPORT, PA US", "quality": 100, "contribution": 0.0}, "KAPG": {"distance": 29362.0, "latitude": 39.47, "longitude": -76.17, "useCount": 0, "id": "KAPG", "name": "KAPG", "quality": 100, "contribution": 0.0}}}