{"queryCost": 1, "latitude": 36.812, "longitude": -97.288, "resolvedAddress": "36.81200,-97.28800", "address": "36.81200,-97.28800", "timezone": "America/Chicago", "tzoffset": -5.0, "days": [{"datetime": "2019-05-20", "datetimeEpoch": 1558328400, "tempmax": 60.7, "tempmin": 53.6, "temp": 56.5, "feelslikemax": 60.7, "feelslikemin": 53.6, "feelslike": 56.5, "dew": 54.6, "humidity": 93.7, "precip": 2.09, "precipprob": 100.0, "precipcover": 54.17, "preciptype": ["rain"], "snow": 0.0, "snowdepth": 0.0, "windgust": 40.6, "windspeed": 30.1, "winddir": 74.9, "pressure": 1009.5, "cloudcover": 30.4, "visibility": 6.4, "solarradiation": 23.4, "solarenergy": 1.7, "uvindex": 1.0, "sunrise": "06:17:57", "sunriseEpoch": 1558351077, "sunset": "20:33:52", "sunsetEpoch": 1558402432, "moonphase": 0.52, "conditions": "Rain, Partially cloudy", "description": "Partly cloudy throughout the day with rain.", "icon": "rain", "stations": ["72453013969", "ABRK1", "KWLD", "KBKN", "KPNC", "72062500212", "AS677", "72450213932"], "source": "obs"}], "stations": {"72453013969": {"distance": 18591.0, "latitude": 36.737, "longitude": -97.102, "useCount": 0, "id": "72453013969", "name": "PONCA CITY MUNICIPAL AIRPORT, OK US", "quality": 100, "contribution": 0.0}, "ABRK1": {"distance": 39830.0, "latitude": 37.131, "longitude": -97.086, "useCount": 0, "id": "ABRK1", "name": "ABRAMS KS US SCAN", "quality": 0, "contribution": 0.0}, "KWLD": {"distance": 45546.0, "latitude": 37.17, "longitude": -97.04, "useCount": 0, "id": "KWLD", "name": "KWLD", "quality": 100, "contribution": 0.0}, "KBKN": {"distance": 8843.0, "latitude": 36.75, "longitude": -97.35, "useCount": 0, "id": "KBKN", "name": "KBKN", "quality": 99, "contribution": 0.0}, "KPNC": {"distance": 19646.0, "latitude": 36.72, "longitude": -97.1, "useCount": 0, "id": "KPNC", "name": "KPNC", "quality": 100, "contribution": 0.0}, "72062500212": {"distance": 8843.0, "latitude": 36.75, "longitude": -97.35, "useCount": 0, "id": "72062500212", "name": "BLACKWELL TONKAWA MUNICIPAL AIRPORT, OK US", "quality": 100, "contribution": 0.0}, "AS677": {"distance": 39303.0, "latitude": 36.476, "longitude": -97.422, "useCount": 0, "id": "AS677", "name": "W5YDW Billings OK US", "quality": 0, "contribution": 0.0}, "72450213932": {"distance": 45496.0, "latitude": 37.168, "longitude": -97.037, "useCount": 0, "id": "72450213932", "name": "WINFIELD STROTHER FIELD AIRPORT, KS US", "quality": 100, "contribution": 0.0}}}