{"queryCost": 1, "latitude": 31.896, "longitude": -102.293, "resolvedAddress": "31.89600,-102.29300", "address": "31.89600,-102.29300", "timezone": "America/Chicago", "tzoffset": -5.0, "days": [{"datetime": "2019-05-26", "datetimeEpoch": 1558846800, "tempmax": 80.5, "tempmin": 70.7, "temp": 75.4, "feelslikemax": 82.4, "feelslikemin": 70.7, "feelslike": 75.5, "dew": 65.2, "humidity": 71.0, "precip": 0.0, "precipprob": 0.0, "precipcover": 0.0, "preciptype": null, "snow": 0.0, "snowdepth": 0.0, "windgust": 36.4, "windspeed": 23.3, "winddir": 165.0, "pressure": 1009.3, "cloudcover": 44.4, "visibility": 8.2, "solarradiation": 132.1, "solarenergy": 11.3, "uvindex": 5.0, "sunrise": "06:46:14", "sunriseEpoch": 1558871174, "sunset": "20:46:31", "sunsetEpoch": 1558921591, "moonphase": 0.75, "conditions": "Partially cloudy", "description": "Partly cloudy throughout the day.", "icon": "partly-cloudy-day", "stations": ["MNDT2", "KMAF", "72265023023", "KE11", "KODO", "72232403071", "72264803031"], "source": "obs"}], "stations": {"MNDT2": {"distance": 11055.0, "latitude": 31.943, "longitude": -102.19, "useCount": 0, "id": "MNDT2", "name": "MIDLAND TX US", "quality": 0, "contribution": 0.0}, "KMAF": {"distance": 12253.0, "latitude": 31.95, "longitude": -102.18, "useCount": 0, "id": "KMAF", "name": "KMAF", "quality": 100, "contribution": 0.0}, "72265023023": {"distance": 9791.0, "latitude": 31.948, "longitude": -102.209, "useCount": 0, "id": "72265023023", "name": "MIDLAND INTERNATIONAL AIRPORT, TX US", "quality": 100, "contribution": 0.0}, "KE11": {"distance": 53230.0, "latitude": 32.33, "longitude": -102.53, "useCount": 0, "id": "KE11", "name": "KE11", "quality": 100, "contribution": 0.0}, "KODO": {"distance": 9548.0, "latitude": 31.92, "longitude": -102.39, "useCount": 0, "id": "KODO", "name": "KODO", "quality": 100, "contribution": 0.0}, "72232403071": {"distance": 23939.0, "latitude": 32.036, "longitude": -102.101, "useCount": 0, "id": "72232403071", "name": "MIDLAND AIRPARK, TX US", "quality": 100, "contribution": 0.0}, "72264803031": {"distance": 9295.0, "latitude": 31.921, "longitude": -102.387, "useCount": 0, "id": "72264803031", "name": "ODESSA SCHLEMEYER FIELD, TX US", "quality": 100, "contribution": 0.0}}}