{"queryCost": 1, "latitude": 38.925, "longitude": -76.629, "resolvedAddress": "38.92500,-76.62900", "address": "38.92500,-76.62900", "timezone": "America/New_York", "tzoffset": -4.0, "days": [{"datetime": "2019-06-04", "datetimeEpoch": 1559620800, "tempmax": 75.7, "tempmin": 56.1, "temp": 67.8, "feelslikemax": 75.7, "feelslikemin": 56.1, "feelslike": 67.8, "dew": 46.0, "humidity": 46.5, "precip": 0.0, "precipprob": 0.0, "precipcover": 0.0, "preciptype": null, "snow": 0.0, "snowdepth": 0.0, "windgust": 17.2, "windspeed": 12.1, "winddir": 238.8, "pressure": 1020.0, "cloudcover": 3.3, "visibility": 9.9, "solarradiation": 233.9, "solarenergy": 20.1, "uvindex": 9.0, "sunrise": "05:42:04", "sunriseEpoch": 1559641324, "sunset": "20:27:55", "sunsetEpoch": 1559694475, "moonphase": 0.01, "conditions": "Clear", "description": "Clear conditions throughout the day.", "icon": "clear-day", "stations": ["D7859", "99999913752", "72215899999", "72406093721", "KADW", "KNAK", "74594013705"], "source": "obs"}], "stations": {"D7859": {"distance": 6067.0, "latitude": 38.918, "longitude": -76.559, "useCount": 0, "id": "D7859", "name": "DW7859 Edgewater MD US", "quality": 0, "contribution": 0.0}, "99999913752": {"distance": 14182.0, "latitude": 38.991, "longitude": -76.489, "useCount": 0, "id": "99999913752", "name": "ANNAPOLIS UNITED STATES NAVAL ACADEMY ASOS, MD US", "quality": 100, "contribution": 0.0}, "72215899999": {"distance": 14789.0, "latitude": 38.99, "longitude": -76.48, "useCount": 0, "id": "72215899999", "name": "ANNAPOLIS UNITED STATES NAVAL ACADEMY, MD US", "quality": 99, "contribution": 0.0}, "72406093721": {"distance": 28047.0, "latitude": 39.173, "longitude": -76.684, "useCount": 0, "id": "72406093721", "name": "BALTIMORE WASHINGTON INTERNATIONAL AIRPORT, MD US", "quality": 100, "contribution": 0.0}, "KADW": {"distance": 23935.0, "latitude": 38.82, "longitude": -76.87, "useCount": 0, "id": "KADW", "name": "KADW", "quality": 100, "contribution": 0.0}, "KNAK": {"distance": 13838.0, "latitude": 38.97, "longitude": -76.48, "useCount": 0, "id": "KNAK", "name": "KNAK", "quality": 100, "contribution": 0.0}, "74594013705": {"distance": 23870.0, "latitude": 38.817, "longitude": -76.867, "useCount": 0, "id": "74594013705", "name": "CAMP SPRINGS ANDREWS AFB, MD US", "quality": 100, "contribution": 0.0}}}