{"queryCost": 1, "latitude": 40.657, "longitude": -73.889, "resolvedAddress": "40.65700,-73.88900", "address": "40.65700,-73.88900", "timezone": "America/New_York", "tzoffset": -4.0, "days": [{"datetime": "2015-05-26", "datetimeEpoch": 1432612800, "tempmax": 80.9, "tempmin": 63.8, "temp": 71.8, "feelslikemax": 81.6, "feelslikemin": 63.8, "feelslike": 71.9, "dew": 57.4, "humidity": 61.1, "precip": 0.0, "precipprob": 0.0, "precipcover": 0.0, "preciptype": null, "snow": 0.0, "snowdepth": 0.0, "windgust": 32.5, "windspeed": 16.8, "winddir": 193.9, "pressure": 1022.2, "cloudcover": 48.5, "visibility": 9.9, "solarradiation": 231.0, "solarenergy": 19.9, "uvindex": 8.0, "sunrise": "05:30:11", "sunriseEpoch": 1432632611, "sunset": "20:15:28", "sunsetEpoch": 1432685728, "moonphase": 0.28, "conditions": "Partially cloudy", "description": "Partly cloudy throughout the day.", "icon": "partly-cloudy-day", "stations": ["72505394728", "KJFK", "74486094789", "KLGA", "KNYC", "72503014732"], "source": "obs"}], "stations": {"72505394728": {"distance": 15177.0, "latitude": 40.779, "longitude": -73.969, "useCount": 0, "id": "72505394728", "name": "NY CITY CENTRAL PARK, NY US", "quality": 100, "contribution": 0.0}, "KJFK": {"distance": 9238.0, "latitude": 40.65, "longitude": -73.78, "useCount": 0, "id": "KJFK", "name": "KJFK", "quality": 100, "contribution": 0.0}, "74486094789": {"distance": 10744.0, "latitude": 40.639, "longitude": -73.764, "useCount": 0, "id": "74486094789", "name": "JFK INTERNATIONAL AIRPORT, NY US", "quality": 100, "contribution": 0.0}, "KLGA": {"distance": 12613.0, "latitude": 40.77, "longitude": -73.9, "useCount": 0, "id": "KLGA", "name": "KLGA", "quality": 100, "contribution": 0.0}, "KNYC": {"distance": 14737.0, "latitude": 40.77, "longitude": -73.98, "useCount": 0, "id": "KNYC", "name": "KNYC", "quality": 100, "contribution": 0.0}, "72503014732": {"distance": 13645.0, "latitude": 40.779, "longitude": -73.88, "useCount": 0, "id": "72503014732", "name": "LAGUARDIA AIRPORT, NY US", "quality": 100, "contribution": 0.0}}}