{"queryCost": 1, "latitude": 34.865, "longitude": -92.127, "resolvedAddress": "34.86500,-92.12700", "address": "34.86500,-92.12700", "timezone": "America/Chicago", "tzoffset": -5.0, "days": [{"datetime": "2019-06-13", "datetimeEpoch": 1560402000, "tempmax": 80.5, "tempmin": 59.6, "temp": 69.9, "feelslikemax": 79.8, "feelslikemin": 59.6, "feelslike": 69.8, "dew": 51.8, "humidity": 56.98, "precip": 0.0, "precipprob": null, "precipcover": 0.0, "preciptype": null, "snow": 0.0, "snowdepth": 0.0, "windgust": 18.3, "windspeed": 11.5, "winddir": 251.0, "pressure": 1018.5, "cloudcover": 9.0, "visibility": 9.9, "solarradiation": 515.6, "solarenergy": 29.7, "uvindex": 10.0, "sunrise": "05:54:26", "sunriseEpoch": 1560423266, "sunset": "20:22:51", "sunsetEpoch": 1560475371, "moonphase": 0.42, "conditions": "Clear", "description": "Clear conditions throughout the day.", "icon": "clear-day", "stations": ["72340503930", "72340313963", "KLRF", "D8400", "KSRC", "KLIT", "72218853985"], "source": "obs"}], "stations": {"72340503930": {"distance": 6126.0, "latitude": 34.917, "longitude": -92.15, "useCount": 0, "id": "72340503930", "name": "LITTLE ROCK AFB, AR US", "quality": 99, "contribution": 0.0}, "72340313963": {"distance": 18428.0, "latitude": 34.727, "longitude": -92.239, "useCount": 0, "id": "72340313963", "name": "LITTLE ROCK AIRPORT ADAMS FIELD, AR US", "quality": 100, "contribution": 0.0}, "KLRF": {"distance": 6473.0, "latitude": 34.92, "longitude": -92.15, "useCount": 0, "id": "KLRF", "name": "KLRF", "quality": 100, "contribution": 0.0}, "D8400": {"distance": 4609.0, "latitude": 34.869, "longitude": -92.177, "useCount": 0, "id": "D8400", "name": "DW8400 Jacksonville AR US", "quality": 0, "contribution": 0.0}, "KSRC": {"distance": 52146.0, "latitude": 35.21, "longitude": -91.74, "useCount": 0, "id": "KSRC", "name": "SEARCY MUNI ARPT, AR", "quality": 100, "contribution": 0.0}, "KLIT": {"distance": 18687.0, "latitude": 34.72, "longitude": -92.23, "useCount": 0, "id": "KLIT", "name": "KLIT", "quality": 100, "contribution": 0.0}, "72218853985": {"distance": 52492.0, "latitude": 35.212, "longitude": -91.737, "useCount": 0, "id": "72218853985", "name": "SEARCY MUNICIPAL AIRPORT, AR US", "quality": 99, "contribution": 0.0}}}