{"queryCost": 1, "latitude": 64.838, "longitude": -147.716, "resolvedAddress": "64.83800,-147.71600", "address": "64.83800,-147.71600", "timezone": "America/Anchorage", "tzoffset": -8.0, "days": [{"datetime": "2019-06-16", "datetimeEpoch": 1560672000, "tempmax": 77.0, "tempmin": 55.8, "temp": 66.1, "feelslikemax": 77.0, "feelslikemin": 55.8, "feelslike": 66.1, "dew": 47.8, "humidity": 54.41, "precip": 0.0, "precipprob": null, "precipcover": 4.17, "preciptype": null, "snow": 0.0, "snowdepth": 0.0, "windgust": 23.0, "windspeed": 14.3, "winddir": 115.0, "pressure": 1006.3, "cloudcover": 39.5, "visibility": 9.5, "solarradiation": 299.6, "solarenergy": 25.9, "uvindex": 8.0, "sunrise": "02:59:54", "sunriseEpoch": 1560682794, "sunset": "00:44:21", "sunsetEpoch": 1560761061, "moonphase": 0.5, "conditions": "Partially cloudy", "description": "Partly cloudy throughout the day.", "icon": "partly-cloudy-day", "stations": ["PAFB", "PAFA", "70261026411", "99999926494", "SRGA2", "70261526498", "70265026407"], "source": "obs"}], "stations": {"PAFB": {"distance": 4631.0, "latitude": 64.83, "longitude": -147.62, "useCount": 0, "id": "PAFB", "name": "PAFB", "quality": 98, "contribution": 0.0}, "PAFA": {"distance": 7562.0, "latitude": 64.82, "longitude": -147.87, "useCount": 0, "id": "PAFA", "name": "FAIRBNKS INTLARPT, AK", "quality": 100, "contribution": 0.0}, "70261026411": {"distance": 8475.0, "latitude": 64.804, "longitude": -147.876, "useCount": 0, "id": "70261026411", "name": "FAIRBANKS INTERNATIONAL AIRPORT, AK US", "quality": 100, "contribution": 0.0}, "99999926494": {"distance": 17947.0, "latitude": 64.974, "longitude": -147.51, "useCount": 0, "id": "99999926494", "name": "FAIRBANKS 11 NE, AK US", "quality": 99, "contribution": 0.0}, "SRGA2": {"distance": 4928.0, "latitude": 64.814, "longitude": -147.629, "useCount": 0, "id": "SRGA2", "name": "SMALL ARMS RANGE RAWS HADS", "quality": 0, "contribution": 0.0}, "70261526498": {"distance": 4828.0, "latitude": 64.838, "longitude": -147.614, "useCount": 0, "id": "70261526498", "name": "FAIRBANKS WAINWRIGHT ARMY AIR FIELD AIRPORT, AK US", "quality": 95, "contribution": 0.0}, "70265026407": {"distance": 34631.0, "latitude": 64.683, "longitude": -147.083, "useCount": 0, "id": "70265026407", "name": "EIELSON FIELD, AK US", "quality": 99, "contribution": 0.0}}}