{"queryCost": 1, "latitude": 46.73, "longitude": -122.941, "resolvedAddress": "46.73000,-122.94100", "address": "46.73000,-122.94100", "timezone": "America/Los_Angeles", "tzoffset": -7.0, "days": [{"datetime": "2019-06-18", "datetimeEpoch": 1560841200, "tempmax": 71.4, "tempmin": 53.6, "temp": 60.8, "feelslikemax": 71.4, "feelslikemin": 53.6, "feelslike": 60.8, "dew": 51.9, "humidity": 74.5, "precip": 0.0, "precipprob": 0.0, "precipcover": 0.0, "preciptype": null, "snow": 0.0, "snowdepth": 0.0, "windgust": 16.1, "windspeed": 8.2, "winddir": 221.2, "pressure": 1022.6, "cloudcover": 64.2, "visibility": 8.8, "solarradiation": 183.7, "solarenergy": 15.9, "uvindex": 7.0, "sunrise": "05:17:27", "sunriseEpoch": 1560860247, "sunset": "21:08:29", "sunsetEpoch": 1560917309, "moonphase": 0.51, "conditions": "Partially cloudy", "description": "Partly cloudy throughout the day.", "icon": "partly-cloudy-day", "stations": ["72792024227", "KGRF", "72025400119", "KOLM", "CLSW1", "KCLS", "74207124201"], "source": "obs"}], "stations": {"72792024227": {"distance": 27238.0, "latitude": 46.973, "longitude": -122.903, "useCount": 0, "id": "72792024227", "name": "OLYMPIA AIRPORT, WA US", "quality": 100, "contribution": 0.0}, "KGRF": {"distance": 47664.0, "latitude": 47.08, "longitude": -122.58, "useCount": 0, "id": "KGRF", "name": "KGRF", "quality": 100, "contribution": 0.0}, "72025400119": {"distance": 6136.0, "latitude": 46.683, "longitude": -122.983, "useCount": 0, "id": "72025400119", "name": "CHEHALIS CENTRALIA AIRPORT, WA US", "quality": 100, "contribution": 0.0}, "KOLM": {"distance": 26898.0, "latitude": 46.97, "longitude": -122.9, "useCount": 0, "id": "KOLM", "name": "KOLM", "quality": 100, "contribution": 0.0}, "CLSW1": {"distance": 13594.0, "latitude": 46.61, "longitude": -122.908, "useCount": 0, "id": "CLSW1", "name": "CHEHALIS WA US", "quality": 0, "contribution": 0.0}, "KCLS": {"distance": 6312.0, "latitude": 46.68, "longitude": -122.98, "useCount": 0, "id": "KCLS", "name": "KCLS", "quality": 98, "contribution": 0.0}, "74207124201": {"distance": 47834.0, "latitude": 47.083, "longitude": -122.583, "useCount": 0, "id": "74207124201", "name": "GRAY ARMY AIR FIELD, WA US", "quality": 96, "contribution": 0.0}}}