{"queryCost": 1, "latitude": 39.624, "longitude": -105.146, "resolvedAddress": "39.62400,-105.14600", "address": "39.62400,-105.14600", "timezone": "America/Denver", "tzoffset": -6.0, "days": [{"datetime": "2019-06-18", "datetimeEpoch": 1560837600, "tempmax": 68.3, "tempmin": 55.2, "temp": 59.4, "feelslikemax": 68.3, "feelslikemin": 55.2, "feelslike": 59.4, "dew": 52.9, "humidity": 80.0, "precip": 0.19, "precipprob": 100.0, "precipcover": 12.5, "preciptype": ["rain"], "snow": 0.0, "snowdepth": 0.0, "windgust": 30.3, "windspeed": 16.7, "winddir": 233.5, "pressure": 1014.1, "cloudcover": 73.3, "visibility": 9.6, "solarradiation": 129.1, "solarenergy": 11.0, "uvindex": 5.0, "sunrise": "05:32:41", "sunriseEpoch": 1560857561, "sunset": "20:30:51", "sunsetEpoch": 1560911451, "moonphase": 0.51, "conditions": "Rain, Partially cloudy", "description": "Partly cloudy throughout the day with rain.", "icon": "rain", "stations": ["KBKF", "KDEN", "C8926", "KAPA", "72469523036", "72565003017", "72466693067"], "source": "obs"}], "stations": {"KBKF": {"distance": 35574.0, "latitude": 39.72, "longitude": -104.75, "useCount": 0, "id": "KBKF", "name": "KBKF", "quality": 100, "contribution": 0.0}, "KDEN": {"distance": 48480.0, "latitude": 39.86, "longitude": -104.67, "useCount": 0, "id": "KDEN", "name": "KDEN", "quality": 100, "contribution": 0.0}, "C8926": {"distance": 5388.0, "latitude": 39.672, "longitude": -105.15, "useCount": 0, "id": "C8926", "name": "CW8926 Lakewood CO US", "quality": 0, "contribution": 0.0}, "KAPA": {"distance": 26092.0, "latitude": 39.57, "longitude": -104.85, "useCount": 0, "id": "KAPA", "name": "KAPA", "quality": 100, "contribution": 0.0}, "72469523036": {"distance": 35466.0, "latitude": 39.717, "longitude": -104.75, "useCount": 0, "id": "72469523036", "name": "AURORA BUCKLEY FIELD ANGB, CO US", "quality": 100, "contribution": 0.0}, "72565003017": {"distance": 47810.0, "latitude": 39.833, "longitude": -104.658, "useCount": 0, "id": "72565003017", "name": "DENVER INTERNATIONAL AIRPORT, CO US", "quality": 100, "contribution": 0.0}, "72466693067": {"distance": 26168.0, "latitude": 39.57, "longitude": -104.849, "useCount": 0, "id": "72466693067", "name": "DENVER CENTENNIAL AIRPORT, CO US", "quality": 100, "contribution": 0.0}}}