{"queryCost": 1, "latitude": 29.417, "longitude": -98.482, "resolvedAddress": "29.41700,-98.48200", "address": "29.41700,-98.48200", "timezone": "America/Chicago", "tzoffset": -5.0, "days": [{"datetime": "2019-06-25", "datetimeEpoch": 1561438800, "tempmax": 91.0, "tempmin": 71.6, "temp": 79.3, "feelslikemax": 94.4, "feelslikemin": 71.6, "feelslike": 80.7, "dew": 66.8, "humidity": 66.9, "precip": 0.0, "precipprob": 0.0, "precipcover": 0.0, "preciptype": null, "snow": 0.0, "snowdepth": 0.0, "windgust": 29.8, "windspeed": 21.0, "winddir": 142.2, "pressure": 1013.4, "cloudcover": 35.2, "visibility": 9.9, "solarradiation": 48.0, "solarenergy": 4.1, "uvindex": 3.0, "sunrise": "06:35:50", "sunriseEpoch": 1561462550, "sunset": "20:37:18", "sunsetEpoch": 1561513038, "moonphase": 0.76, "conditions": "Partially cloudy", "description": "Partly cloudy throughout the day.", "icon": "partly-cloudy-day", "stations": ["KSKF", "E7101", "KSSF", "KSAT", "72253012921", "72252312970", "72253512909"], "source": "obs"}], "stations": {"KSKF": {"distance": 10359.0, "latitude": 29.38, "longitude": -98.58, "useCount": 0, "id": "KSKF", "name": "KSKF", "quality": 100, "contribution": 0.0}, "E7101": {"distance": 7291.0, "latitude": 29.482, "longitude": -98.47, "useCount": 0, "id": "E7101", "name": "EW7101 San Antonio TX US", "quality": 0, "contribution": 0.0}, "KSSF": {"distance": 9755.0, "latitude": 29.33, "longitude": -98.47, "useCount": 0, "id": "KSSF", "name": "KSSF", "quality": 100, "contribution": 0.0}, "KSAT": {"distance": 12633.0, "latitude": 29.53, "longitude": -98.47, "useCount": 0, "id": "KSAT", "name": "KSAT", "quality": 100, "contribution": 0.0}, "72253012921": {"distance": 14172.0, "latitude": 29.544, "longitude": -98.484, "useCount": 0, "id": "72253012921", "name": "SAN ANTONIO INTERNATIONAL AIRPORT, TX US", "quality": 100, "contribution": 0.0}, "72252312970": {"distance": 8748.0, "latitude": 29.339, "longitude": -98.472, "useCount": 0, "id": "72252312970", "name": "SAN ANTONIO STINSON MUNICIPAL AIRPORT, TX US", "quality": 100, "contribution": 0.0}, "72253512909": {"distance": 10516.0, "latitude": 29.383, "longitude": -98.583, "useCount": 0, "id": "72253512909", "name": "SAN ANTONIO KELLY FIELD AFB, TX US", "quality": 98, "contribution": 0.0}}}