{"queryCost": 1, "latitude": 30.153, "longitude": -85.611, "resolvedAddress": "30.15300,-85.61100", "address": "30.15300,-85.61100", "timezone": "America/Chicago", "tzoffset": -5.0, "days": [{"datetime": "2019-06-27", "datetimeEpoch": 1561611600, "tempmax": 93.8, "tempmin": 77.1, "temp": 83.6, "feelslikemax": 97.2, "feelslikemin": 77.1, "feelslike": 87.0, "dew": 69.9, "humidity": 64.6, "precip": 0.06, "precipprob": 100.0, "precipcover": 8.33, "preciptype": ["rain"], "snow": 0.0, "snowdepth": 0.0, "windgust": 19.8, "windspeed": 14.6, "winddir": 142.9, "pressure": 1019.6, "cloudcover": 34.8, "visibility": 9.7, "solarradiation": 228.2, "solarenergy": 19.8, "uvindex": 9.0, "sunrise": "05:43:10", "sunriseEpoch": 1561632190, "sunset": "19:47:49", "sunsetEpoch": 1561682869, "moonphase": 0.85, "conditions": "Rain, Partially cloudy", "description": "Partly cloudy throughout the day with rain.", "icon": "rain", "stations": ["72073573805", "KPAM", "F1493", "SURF1", "KECP", "99999963871", "74775013846", "72096400338"], "source": "obs"}], "stations": {"72073573805": {"distance": 27672.0, "latitude": 30.349, "longitude": -85.788, "useCount": 0, "id": "72073573805", "name": "NORTHWEST FLORIDA BEACHES INTERNATIONAL AIRPORT, FL US", "quality": 100, "contribution": 0.0}, "KPAM": {"distance": 9710.0, "latitude": 30.07, "longitude": -85.58, "useCount": 0, "id": "KPAM", "name": "KPAM", "quality": 100, "contribution": 0.0}, "F1493": {"distance": 6989.0, "latitude": 30.194, "longitude": -85.666, "useCount": 0, "id": "F1493", "name": "FW1493 Panama City FL US", "quality": 0, "contribution": 0.0}, "SURF1": {"distance": 61969.0, "latitude": 30.021, "longitude": -84.986, "useCount": 0, "id": "SURF1", "name": "SUMATRA FL US", "quality": 0, "contribution": 0.0}, "KECP": {"distance": 29347.0, "latitude": 30.36, "longitude": -85.8, "useCount": 0, "id": "KECP", "name": "KECP", "quality": 100, "contribution": 0.0}, "99999963871": {"distance": 77128.0, "latitude": 30.846, "longitude": -85.601, "useCount": 0, "id": "99999963871", "name": "BONIFAY TRI CO AIRPORT, FL US", "quality": 99, "contribution": 0.0}, "74775013846": {"distance": 9970.0, "latitude": 30.067, "longitude": -85.583, "useCount": 0, "id": "74775013846", "name": "TYNDALL AFB, FL US", "quality": 99, "contribution": 0.0}, "72096400338": {"distance": 15326.0, "latitude": 30.033, "longitude": -85.533, "useCount": 0, "id": "72096400338", "name": "TYNDALL DRONE RUNWAY, FL US", "quality": 94, "contribution": 0.0}}}