{"queryCost": 1, "latitude": 40.505, "longitude": -81.641, "resolvedAddress": "40.50500,-81.64100", "address": "40.50500,-81.64100", "timezone": "America/New_York", "tzoffset": -4.0, "days": [{"datetime": "2019-06-26", "datetimeEpoch": 1561521600, "tempmax": 84.7, "tempmin": 64.1, "temp": 75.2, "feelslikemax": 86.3, "feelslikemin": 64.1, "feelslike": 75.8, "dew": 63.6, "humidity": 68.66, "precip": 0.0, "precipprob": null, "precipcover": 0.0, "preciptype": null, "snow": 0.0, "snowdepth": 0.0, "windgust": 19.7, "windspeed": 9.2, "winddir": 251.7, "pressure": 1018.3, "cloudcover": 20.5, "visibility": 9.9, "solarradiation": 432.9, "solarenergy": 24.9, "uvindex": 10.0, "sunrise": "05:57:40", "sunriseEpoch": 1561543060, "sunset": "21:01:05", "sunsetEpoch": 1561597265, "moonphase": 0.81, "conditions": "Partially cloudy", "description": "Partly cloudy throughout the day.", "icon": "partly-cloudy-day", "stations": ["72521604842", "KPHD", "KBJJ", "72522404852", "99999954856", "E5141", "72521014895"], "source": "obs"}], "stations": {"72521604842": {"distance": 45926.0, "latitude": 40.873, "longitude": -81.887, "useCount": 0, "id": "72521604842", "name": "WOOSTER WAYNE CO AIRPORT, OH US", "quality": 100, "contribution": 0.0}, "KPHD": {"distance": 19112.0, "latitude": 40.47, "longitude": -81.42, "useCount": 0, "id": "KPHD", "name": "KPHD", "quality": 100, "contribution": 0.0}, "KBJJ": {"distance": 44371.0, "latitude": 40.86, "longitude": -81.88, "useCount": 0, "id": "KBJJ", "name": "KBJJ", "quality": 100, "contribution": 0.0}, "72522404852": {"distance": 18771.0, "latitude": 40.472, "longitude": -81.424, "useCount": 0, "id": "72522404852", "name": "NEW PHILADELPHIA CLEVER FIELD, OH US", "quality": 100, "contribution": 0.0}, "99999954856": {"distance": 36740.0, "latitude": 40.764, "longitude": -81.91, "useCount": 0, "id": "99999954856", "name": "WOOSTER 3 SSE, OH US", "quality": 100, "contribution": 0.0}, "E5141": {"distance": 2152.0, "latitude": 40.515, "longitude": -81.663, "useCount": 0, "id": "E5141", "name": "EW5141 Sugarcreek OH US", "quality": 0, "contribution": 0.0}, "72521014895": {"distance": 48913.0, "latitude": 40.918, "longitude": -81.443, "useCount": 0, "id": "72521014895", "name": "AKRON CANTON AIRPORT, OH US", "quality": 100, "contribution": 0.0}}}