{"queryCost": 1, "latitude": 34.03, "longitude": -118.144, "resolvedAddress": "34.03000,-118.14400", "address": "34.03000,-118.14400", "timezone": "America/Los_Angeles", "tzoffset": -7.0, "days": [{"datetime": "2019-06-27", "datetimeEpoch": 1561618800, "tempmax": 75.4, "tempmin": 62.2, "temp": 68.2, "feelslikemax": 75.4, "feelslikemin": 62.2, "feelslike": 68.2, "dew": 57.5, "humidity": 69.6, "precip": 0.0, "precipprob": 0.0, "precipcover": 0.0, "preciptype": null, "snow": 0.0, "snowdepth": 0.0, "windgust": 19.7, "windspeed": 9.5, "winddir": 190.8, "pressure": 1015.2, "cloudcover": 53.8, "visibility": 8.6, "solarradiation": 308.6, "solarenergy": 26.8, "uvindex": 10.0, "sunrise": "05:43:24", "sunriseEpoch": 1561639404, "sunset": "20:07:52", "sunsetEpoch": 1561691272, "moonphase": 0.85, "conditions": "Partially cloudy", "description": "Clearing in the afternoon.", "icon": "partly-cloudy-day", "stations": ["A2968", "KHHR", "KCQT", "72295603167", "72287493134", "72297603166", "KLGB"], "source": "obs"}], "stations": {"A2968": {"distance": 8662.0, "latitude": 34.066, "longitude": -118.227, "useCount": 0, "id": "A2968", "name": "Los Angeles - N. Main Street CA SCQ", "quality": 0, "contribution": 0.0}, "KHHR": {"distance": 21090.0, "latitude": 33.92, "longitude": -118.33, "useCount": 0, "id": "KHHR", "name": "KHHR", "quality": 100, "contribution": 0.0}, "KCQT": {"distance": 12597.0, "latitude": 34.02, "longitude": -118.28, "useCount": 0, "id": "KCQT", "name": "KCQT", "quality": 100, "contribution": 0.0}, "72295603167": {"distance": 21214.0, "latitude": 33.923, "longitude": -118.334, "useCount": 0, "id": "72295603167", "name": "HAWTHORNE MUNICIPAL AIRPORT, CA US", "quality": 100, "contribution": 0.0}, "72287493134": {"distance": 13581.0, "latitude": 34.024, "longitude": -118.291, "useCount": 0, "id": "72287493134", "name": "LOS ANGELES DOWNTOWN USC, CA US", "quality": 100, "contribution": 0.0}, "72297603166": {"distance": 23279.0, "latitude": 33.872, "longitude": -117.979, "useCount": 0, "id": "72297603166", "name": "FULLERTON MUNICIPAL AIRPORT, CA US", "quality": 100, "contribution": 0.0}, "KLGB": {"distance": 23384.0, "latitude": 33.82, "longitude": -118.15, "useCount": 0, "id": "KLGB", "name": "KLGB", "quality": 100, "contribution": 0.0}}}