{"queryCost": 1, "latitude": 33.102, "longitude": -97.126, "resolvedAddress": "33.10200,-97.12600", "address": "33.10200,-97.12600", "timezone": "America/Chicago", "tzoffset": -5.0, "days": [{"datetime": "2019-06-29", "datetimeEpoch": 1561784400, "tempmax": 96.3, "tempmin": 74.2, "temp": 83.8, "feelslikemax": 100.8, "feelslikemin": 74.2, "feelslike": 86.1, "dew": 68.6, "humidity": 62.6, "precip": 0.11, "precipprob": null, "precipcover": 8.33, "preciptype": null, "snow": 0.0, "snowdepth": 0.0, "windgust": 32.6, "windspeed": 19.3, "winddir": 193.3, "pressure": 1016.3, "cloudcover": 26.1, "visibility": 9.9, "solarradiation": 475.5, "solarenergy": 25.7, "uvindex": 9.0, "sunrise": "06:22:29", "sunriseEpoch": 1561807349, "sunset": "20:41:24", "sunsetEpoch": 1561858884, "moonphase": 0.94, "conditions": "Rain, Partially cloudy", "description": "Partly cloudy throughout the day with late afternoon rain.", "icon": "rain", "stations": ["72259453909", "KAFW", "KDTO", "72259003927", "KDFW", "72258903991", "AN486"], "source": "obs"}], "stations": {"72259453909": {"distance": 22948.0, "latitude": 32.973, "longitude": -97.318, "useCount": 0, "id": "72259453909", "name": "FORT WORTH ALLIANCE AIRPORT, TX US", "quality": 100, "contribution": 0.0}, "KAFW": {"distance": 23317.0, "latitude": 32.97, "longitude": -97.32, "useCount": 0, "id": "KAFW", "name": "KAFW", "quality": 100, "contribution": 0.0}, "KDTO": {"distance": 12014.0, "latitude": 33.2, "longitude": -97.18, "useCount": 0, "id": "KDTO", "name": "KDTO", "quality": 100, "contribution": 0.0}, "72259003927": {"distance": 24833.0, "latitude": 32.898, "longitude": -97.019, "useCount": 0, "id": "72259003927", "name": "DAL FTW WSCMO AIRPORT, TX US", "quality": 100, "contribution": 0.0}, "KDFW": {"distance": 24207.0, "latitude": 32.9, "longitude": -97.03, "useCount": 0, "id": "KDFW", "name": "KDFW", "quality": 100, "contribution": 0.0}, "72258903991": {"distance": 13433.0, "latitude": 33.206, "longitude": -97.199, "useCount": 0, "id": "72258903991", "name": "DENTON MUNICPAL AIRPORT, TX US", "quality": 100, "contribution": 0.0}, "AN486": {"distance": 12048.0, "latitude": 33.194, "longitude": -97.193, "useCount": 0, "id": "AN486", "name": "Denton Airport South C56 TX TCEQ", "quality": 0, "contribution": 0.0}}}