{"queryCost": 1, "latitude": 26.107, "longitude": -80.184, "resolvedAddress": "26.10700,-80.18400", "address": "26.10700,-80.18400", "timezone": "America/New_York", "tzoffset": -4.0, "days": [{"datetime": "2015-05-21", "datetimeEpoch": 1432180800, "tempmax": 90.2, "tempmin": 76.7, "temp": 82.6, "feelslikemax": 97.8, "feelslikemin": 76.7, "feelslike": 86.5, "dew": 72.4, "humidity": 72.1, "precip": 0.0, "precipprob": 0.0, "precipcover": 0.0, "preciptype": null, "snow": 0.0, "snowdepth": 0.0, "windgust": null, "windspeed": 14.2, "winddir": 191.0, "pressure": 1015.1, "cloudcover": 52.4, "visibility": 9.6, "solarradiation": 226.0, "solarenergy": 19.7, "uvindex": 7.0, "sunrise": "06:31:51", "sunriseEpoch": 1432204311, "sunset": "20:03:05", "sunsetEpoch": 1432252985, "moonphase": 0.06, "conditions": "Partially cloudy", "description": "Becoming cloudy in the afternoon.", "icon": "partly-cloudy-day", "stations": ["74783012849", "72204992805", "KFLL", "72203912885", "KFXE", "KPMP"], "source": "obs"}], "stations": {"74783012849": {"distance": 3822.0, "latitude": 26.079, "longitude": -80.162, "useCount": 0, "id": "74783012849", "name": "FORT LAUDERDALE INTERNATIONAL AIRPORT, FL US", "quality": 100, "contribution": 0.0}, "72204992805": {"distance": 17624.0, "latitude": 26.25, "longitude": -80.108, "useCount": 0, "id": "72204992805", "name": "POMPANO BEACH AIRPARK, FL US", "quality": 99, "contribution": 0.0}, "KFLL": {"distance": 5340.0, "latitude": 26.07, "longitude": -80.15, "useCount": 0, "id": "KFLL", "name": "KFLL", "quality": 100, "contribution": 0.0}, "72203912885": {"distance": 10094.0, "latitude": 26.197, "longitude": -80.171, "useCount": 0, "id": "72203912885", "name": "FORT LAUDERDALE EXECUTIVE AIRPORT, FL US", "quality": 99, "contribution": 0.0}, "KFXE": {"distance": 10447.0, "latitude": 26.2, "longitude": -80.17, "useCount": 0, "id": "KFXE", "name": "KFXE", "quality": 100, "contribution": 0.0}, "KPMP": {"distance": 17552.0, "latitude": 26.25, "longitude": -80.11, "useCount": 0, "id": "KPMP", "name": "KPMP", "quality": 100, "contribution": 0.0}}}