{"queryCost": 1, "latitude": 30.303, "longitude": -81.717, "resolvedAddress": "30.30300,-81.71700", "address": "30.30300,-81.71700", "timezone": "America/New_York", "tzoffset": -4.0, "days": [{"datetime": "2019-07-07", "datetimeEpoch": 1562472000, "tempmax": 88.9, "tempmin": 75.5, "temp": 80.9, "feelslikemax": 96.9, "feelslikemin": 75.5, "feelslike": 84.5, "dew": 73.1, "humidity": 78.2, "precip": 0.0, "precipprob": 0.0, "precipcover": 0.0, "preciptype": null, "snow": 0.0, "snowdepth": 0.0, "windgust": 20.7, "windspeed": 13.5, "winddir": 194.1, "pressure": 1015.2, "cloudcover": 59.4, "visibility": 9.8, "solarradiation": 174.8, "solarenergy": 15.0, "uvindex": 7.0, "sunrise": "06:31:12", "sunriseEpoch": 1562495472, "sunset": "20:32:14", "sunsetEpoch": 1562545934, "moonphase": 0.14, "conditions": "Partially cloudy", "description": "Partly cloudy throughout the day.", "icon": "partly-cloudy-day", "stations": ["72206013889", "KJAX", "72206593837", "KNIP", "C0639", "KCRG", "74782053860"], "source": "obs"}], "stations": {"72206013889": {"distance": 21491.0, "latitude": 30.495, "longitude": -81.694, "useCount": 0, "id": "72206013889", "name": "JACKSONVILLE INTERNATIONAL AIRPORT, FL US", "quality": 100, "contribution": 0.0}, "KJAX": {"distance": 21991.0, "latitude": 30.5, "longitude": -81.7, "useCount": 0, "id": "KJAX", "name": "KJAX", "quality": 100, "contribution": 0.0}, "72206593837": {"distance": 9143.0, "latitude": 30.233, "longitude": -81.667, "useCount": 0, "id": "72206593837", "name": "JACKSONVILLE NAS, FL US", "quality": 100, "contribution": 0.0}, "KNIP": {"distance": 8871.0, "latitude": 30.23, "longitude": -81.68, "useCount": 0, "id": "KNIP", "name": "KNIP", "quality": 100, "contribution": 0.0}, "C0639": {"distance": 5438.0, "latitude": 30.256, "longitude": -81.704, "useCount": 0, "id": "C0639", "name": "CW0639 Jacksonville FL US", "quality": 0, "contribution": 0.0}, "KCRG": {"distance": 19168.0, "latitude": 30.33, "longitude": -81.52, "useCount": 0, "id": "KCRG", "name": "KCRG", "quality": 100, "contribution": 0.0}, "74782053860": {"distance": 19786.0, "latitude": 30.336, "longitude": -81.515, "useCount": 0, "id": "74782053860", "name": "JACKSONVILLE CRAIG MUNICIPAL AIRPORT, FL US", "quality": 100, "contribution": 0.0}}}