{"queryCost": 1, "latitude": 47.735, "longitude": -122.648, "resolvedAddress": "47.73500,-122.64800", "address": "47.73500,-122.64800", "timezone": "America/Los_Angeles", "tzoffset": -7.0, "days": [{"datetime": "2019-07-03", "datetimeEpoch": 1562137200, "tempmax": 66.7, "tempmin": 55.9, "temp": 60.0, "feelslikemax": 66.7, "feelslikemin": 55.9, "feelslike": 60.0, "dew": 55.1, "humidity": 84.6, "precip": 0.0, "precipprob": 0.0, "precipcover": 0.0, "preciptype": null, "snow": 0.0, "snowdepth": 0.0, "windgust": null, "windspeed": 5.0, "winddir": 206.6, "pressure": 1018.9, "cloudcover": 87.4, "visibility": 8.2, "solarradiation": 62.8, "solarenergy": 5.3, "uvindex": 2.0, "sunrise": "05:17:37", "sunriseEpoch": 1562156257, "sunset": "21:11:46", "sunsetEpoch": 1562213506, "moonphase": 0.0, "conditions": "Partially cloudy", "description": "Partly cloudy throughout the day.", "icon": "partly-cloudy-day", "stations": ["KPWT", "72792894263", "E6244", "KBFI", "KPAE", "72793524234", "72793724222"], "source": "obs"}], "stations": {"KPWT": {"distance": 27257.0, "latitude": 47.5, "longitude": -122.75, "useCount": 0, "id": "KPWT", "name": "BREMERTON, WA", "quality": 100, "contribution": 0.0}, "72792894263": {"distance": 29408.0, "latitude": 47.483, "longitude": -122.767, "useCount": 0, "id": "72792894263", "name": "BREMERTON, WA US", "quality": 100, "contribution": 0.0}, "E6244": {"distance": 5150.0, "latitude": 47.78, "longitude": -122.664, "useCount": 0, "id": "E6244", "name": "EW6244 Poulsbo WA US", "quality": 0, "contribution": 0.0}, "KBFI": {"distance": 34674.0, "latitude": 47.53, "longitude": -122.3, "useCount": 0, "id": "KBFI", "name": "KBFI", "quality": 100, "contribution": 0.0}, "KPAE": {"distance": 34359.0, "latitude": 47.92, "longitude": -122.28, "useCount": 0, "id": "KPAE", "name": "KPAE", "quality": 100, "contribution": 0.0}, "72793524234": {"distance": 34595.0, "latitude": 47.53, "longitude": -122.301, "useCount": 0, "id": "72793524234", "name": "SEATTLE BOEING FIELD, WA US", "quality": 100, "contribution": 0.0}, "72793724222": {"distance": 33565.0, "latitude": 47.908, "longitude": -122.28, "useCount": 0, "id": "72793724222", "name": "EVERETT SNOHOMISH CO AIRPORT, WA US", "quality": 100, "contribution": 0.0}}}