{"queryCost": 1, "latitude": 27.721, "longitude": -82.414, "resolvedAddress": "27.72100,-82.41400", "address": "27.72100,-82.41400", "timezone": "America/New_York", "tzoffset": -4.0, "days": [{"datetime": "2019-07-05", "datetimeEpoch": 1562299200, "tempmax": 91.3, "tempmin": 78.2, "temp": 83.1, "feelslikemax": 105.6, "feelslikemin": 78.2, "feelslike": 89.5, "dew": 74.6, "humidity": 76.0, "precip": 0.0, "precipprob": 0.0, "precipcover": 0.0, "preciptype": null, "snow": 0.0, "snowdepth": 0.0, "windgust": 28.9, "windspeed": 13.9, "winddir": 134.0, "pressure": 1018.2, "cloudcover": 27.5, "visibility": 9.9, "solarradiation": 273.5, "solarenergy": 23.6, "uvindex": 9.0, "sunrise": "06:39:03", "sunriseEpoch": 1562323143, "sunset": "20:29:20", "sunsetEpoch": 1562372960, "moonphase": 0.05, "conditions": "Partially cloudy", "description": "Partly cloudy throughout the day.", "icon": "partly-cloudy-day", "stations": ["74788012810", "72210492806", "KMCF", "72211012842", "KTPA", "KSPG", "BALM"], "source": "obs"}], "stations": {"74788012810": {"distance": 17565.0, "latitude": 27.85, "longitude": -82.517, "useCount": 0, "id": "74788012810", "name": "MACDILL AFB, FL US", "quality": 99, "contribution": 0.0}, "72210492806": {"distance": 21590.0, "latitude": 27.765, "longitude": -82.627, "useCount": 0, "id": "72210492806", "name": "ST PETERSBURG ALBERT WHITTED AIRPORT, FL US", "quality": 100, "contribution": 0.0}, "KMCF": {"distance": 17754.0, "latitude": 27.85, "longitude": -82.52, "useCount": 0, "id": "KMCF", "name": "KMCF", "quality": 100, "contribution": 0.0}, "72211012842": {"distance": 29558.0, "latitude": 27.962, "longitude": -82.54, "useCount": 0, "id": "72211012842", "name": "TAMPA INTERNATIONAL AIRPORT, FL US", "quality": 100, "contribution": 0.0}, "KTPA": {"distance": 29978.0, "latitude": 27.97, "longitude": -82.53, "useCount": 0, "id": "KTPA", "name": "KTPA", "quality": 100, "contribution": 0.0}, "KSPG": {"distance": 21968.0, "latitude": 27.77, "longitude": -82.63, "useCount": 0, "id": "KSPG", "name": "KSPG", "quality": 100, "contribution": 0.0}, "BALM": {"distance": 19313.0, "latitude": 27.76, "longitude": -82.223, "useCount": 0, "id": "BALM", "name": "Balm FAWN", "quality": 0, "contribution": 0.0}}}