{"queryCost": 1, "latitude": 30.334, "longitude": -81.662, "resolvedAddress": "30.33400,-81.66200", "address": "30.33400,-81.66200", "timezone": "America/New_York", "tzoffset": -4.0, "days": [{"datetime": "2019-07-11", "datetimeEpoch": 1562817600, "tempmax": 91.5, "tempmin": 77.1, "temp": 82.9, "feelslikemax": 102.2, "feelslikemin": 77.1, "feelslike": 87.1, "dew": 74.0, "humidity": 76.0, "precip": 0.04, "precipprob": 100.0, "precipcover": 4.17, "preciptype": ["rain"], "snow": 0.0, "snowdepth": 0.0, "windgust": 42.2, "windspeed": 23.3, "winddir": 171.2, "pressure": 1014.9, "cloudcover": 43.1, "visibility": 9.6, "solarradiation": 266.6, "solarenergy": 22.9, "uvindex": 10.0, "sunrise": "06:32:52", "sunriseEpoch": 1562841172, "sunset": "20:31:16", "sunsetEpoch": 1562891476, "moonphase": 0.36, "conditions": "Rain, Partially cloudy", "description": "Partly cloudy throughout the day with late afternoon rain.", "icon": "rain", "stations": ["72206013889", "KJAX", "72206593837", "KNIP", "C0639", "KCRG", "74782053860"], "source": "obs"}], "stations": {"72206013889": {"distance": 18177.0, "latitude": 30.495, "longitude": -81.694, "useCount": 0, "id": "72206013889", "name": "JACKSONVILLE INTERNATIONAL AIRPORT, FL US", "quality": 100, "contribution": 0.0}, "KJAX": {"distance": 18836.0, "latitude": 30.5, "longitude": -81.7, "useCount": 0, "id": "KJAX", "name": "KJAX", "quality": 100, "contribution": 0.0}, "72206593837": {"distance": 11219.0, "latitude": 30.233, "longitude": -81.667, "useCount": 0, "id": "72206593837", "name": "JACKSONVILLE NAS, FL US", "quality": 100, "contribution": 0.0}, "KNIP": {"distance": 11706.0, "latitude": 30.23, "longitude": -81.68, "useCount": 0, "id": "KNIP", "name": "KNIP", "quality": 100, "contribution": 0.0}, "C0639": {"distance": 9618.0, "latitude": 30.256, "longitude": -81.704, "useCount": 0, "id": "C0639", "name": "CW0639 Jacksonville FL US", "quality": 0, "contribution": 0.0}, "KCRG": {"distance": 13651.0, "latitude": 30.33, "longitude": -81.52, "useCount": 0, "id": "KCRG", "name": "KCRG", "quality": 100, "contribution": 0.0}, "74782053860": {"distance": 14154.0, "latitude": 30.336, "longitude": -81.515, "useCount": 0, "id": "74782053860", "name": "JACKSONVILLE CRAIG MUNICIPAL AIRPORT, FL US", "quality": 100, "contribution": 0.0}}}