{"queryCost": 1, "latitude": 37.633, "longitude": -121.01, "resolvedAddress": "37.63300,-121.01000", "address": "37.63300,-121.01000", "timezone": "America/Los_Angeles", "tzoffset": -7.0, "days": [{"datetime": "2019-07-17", "datetimeEpoch": 1563346800, "tempmax": 93.8, "tempmin": 62.0, "temp": 77.8, "feelslikemax": 90.4, "feelslikemin": 62.0, "feelslike": 76.6, "dew": 50.4, "humidity": 42.1, "precip": 0.0, "precipprob": 0.0, "precipcover": 0.0, "preciptype": null, "snow": 0.0, "snowdepth": 0.0, "windgust": null, "windspeed": 10.2, "winddir": 255.1, "pressure": 1010.4, "cloudcover": 0.0, "visibility": 9.9, "solarradiation": 317.2, "solarenergy": 27.4, "uvindex": 9.0, "sunrise": "05:55:56", "sunriseEpoch": 1563368156, "sunset": "20:24:08", "sunsetEpoch": 1563420248, "moonphase": 0.5, "conditions": "Clear", "description": "Clear conditions throughout the day.", "icon": "clear-day", "stations": ["KSCK", "KMOD", "CI071", "72492623258", "72492023237", "D7479", "72481523257", "99999993243"], "source": "obs"}], "stations": {"KSCK": {"distance": 36462.0, "latitude": 37.9, "longitude": -121.25, "useCount": 0, "id": "KSCK", "name": "KSCK", "quality": 100, "contribution": 0.0}, "KMOD": {"distance": 5300.0, "latitude": 37.63, "longitude": -120.95, "useCount": 0, "id": "KMOD", "name": "KMOD", "quality": 100, "contribution": 0.0}, "CI071": {"distance": 15748.0, "latitude": 37.645, "longitude": -121.188, "useCount": 0, "id": "CI071", "name": "Modesto CA US CIMIS", "quality": 0, "contribution": 0.0}, "72492623258": {"distance": 5295.0, "latitude": 37.624, "longitude": -120.951, "useCount": 0, "id": "72492623258", "name": "MODESTO CITY CO AIRPORT, CA US", "quality": 100, "contribution": 0.0}, "72492023237": {"distance": 34265.0, "latitude": 37.889, "longitude": -121.226, "useCount": 0, "id": "72492023237", "name": "STOCKTON METROPOLITAN AIRPORT, CA US", "quality": 100, "contribution": 0.0}, "D7479": {"distance": 13606.0, "latitude": 37.744, "longitude": -120.944, "useCount": 0, "id": "D7479", "name": "DW7479 Riverbank CA US", "quality": 0, "contribution": 0.0}, "72481523257": {"distance": 58583.0, "latitude": 37.285, "longitude": -120.513, "useCount": 0, "id": "72481523257", "name": "MERCED MUNICIPAL AIRPORT, CA US", "quality": 100, "contribution": 0.0}, "99999993243": {"distance": 45393.0, "latitude": 37.238, "longitude": -120.882, "useCount": 0, "id": "99999993243", "name": "MERCED 23 WSW, CA US", "quality": 100, "contribution": 0.0}}}