{"queryCost": 1, "latitude": 38.801, "longitude": -104.77, "resolvedAddress": "38.80100,-104.77000", "address": "38.80100,-104.77000", "timezone": "America/Denver", "tzoffset": -6.0, "days": [{"datetime": "2019-07-23", "datetimeEpoch": 1563861600, "tempmax": 80.9, "tempmin": 58.8, "temp": 69.3, "feelslikemax": 80.5, "feelslikemin": 58.8, "feelslike": 69.2, "dew": 54.7, "humidity": 63.2, "precip": 0.0, "precipprob": 0.0, "precipcover": 0.0, "preciptype": null, "snow": 0.0, "snowdepth": 0.0, "windgust": 21.9, "windspeed": 13.6, "winddir": 139.3, "pressure": 1021.4, "cloudcover": 57.8, "visibility": 9.3, "solarradiation": 235.5, "solarenergy": 20.4, "uvindex": 10.0, "sunrise": "05:52:29", "sunriseEpoch": 1563882749, "sunset": "20:18:14", "sunsetEpoch": 1563934694, "moonphase": 0.68, "conditions": "Partially cloudy", "description": "Clearing in the afternoon.", "icon": "partly-cloudy-day", "stations": ["74531093065", "KAFF", "72466093037", "KFCS", "E7717", "KCOS"], "source": "obs"}], "stations": {"74531093065": {"distance": 18890.0, "latitude": 38.967, "longitude": -104.817, "useCount": 0, "id": "74531093065", "name": "COLORADO SPRINGS USAF ACADEMY, CO US", "quality": 96, "contribution": 0.0}, "KAFF": {"distance": 19305.0, "latitude": 38.97, "longitude": -104.82, "useCount": 0, "id": "KAFF", "name": "KAFF", "quality": 100, "contribution": 0.0}, "72466093037": {"distance": 7184.0, "latitude": 38.81, "longitude": -104.688, "useCount": 0, "id": "72466093037", "name": "COLORADO SPRINGS MUNICIPAL AIRPORT, CO US", "quality": 100, "contribution": 0.0}, "KFCS": {"distance": 13470.0, "latitude": 38.68, "longitude": -104.77, "useCount": 0, "id": "KFCS", "name": "KFCS", "quality": 100, "contribution": 0.0}, "E7717": {"distance": 5982.0, "latitude": 38.773, "longitude": -104.829, "useCount": 0, "id": "E7717", "name": "EW7717 Colorado Springs CO US", "quality": 0, "contribution": 0.0}, "KCOS": {"distance": 4825.0, "latitude": 38.82, "longitude": -104.72, "useCount": 0, "id": "KCOS", "name": "KCOS", "quality": 100, "contribution": 0.0}}}