{"queryCost": 1, "latitude": 41.758, "longitude": -72.694, "resolvedAddress": "41.75800,-72.69400", "address": "41.75800,-72.69400", "timezone": "America/New_York", "tzoffset": -4.0, "days": [{"datetime": "2019-07-26", "datetimeEpoch": 1564113600, "tempmax": 86.0, "tempmin": 61.9, "temp": 74.3, "feelslikemax": 84.7, "feelslikemin": 61.9, "feelslike": 74.3, "dew": 61.3, "humidity": 67.2, "precip": 0.0, "precipprob": 0.0, "precipcover": 0.0, "preciptype": null, "snow": 0.0, "snowdepth": 0.0, "windgust": null, "windspeed": 7.6, "winddir": 126.1, "pressure": 1023.5, "cloudcover": 6.5, "visibility": 9.8, "solarradiation": 268.8, "solarenergy": 23.3, "uvindex": 10.0, "sunrise": "05:38:47", "sunriseEpoch": 1564133927, "sunset": "20:15:17", "sunsetEpoch": 1564186517, "moonphase": 0.83, "conditions": "Clear", "description": "Clear conditions throughout the day.", "icon": "clear-day", "stations": ["KMMK", "KHFD", "E6187", "72508714752", "KBDL", "72508014740", "72502754788"], "source": "obs"}], "stations": {"KMMK": {"distance": 29836.0, "latitude": 41.51, "longitude": -72.83, "useCount": 0, "id": "KMMK", "name": "KMMK", "quality": 98, "contribution": 0.0}, "KHFD": {"distance": 4803.0, "latitude": 41.73, "longitude": -72.65, "useCount": 0, "id": "KHFD", "name": "KHFD", "quality": 100, "contribution": 0.0}, "E6187": {"distance": 7442.0, "latitude": 41.696, "longitude": -72.726, "useCount": 0, "id": "E6187", "name": "EW6187 Newington CT US", "quality": 0, "contribution": 0.0}, "72508714752": {"distance": 4352.0, "latitude": 41.736, "longitude": -72.651, "useCount": 0, "id": "72508714752", "name": "HARTFORD BRAINARD FIELD, CT US", "quality": 100, "contribution": 0.0}, "KBDL": {"distance": 19182.0, "latitude": 41.93, "longitude": -72.68, "useCount": 0, "id": "KBDL", "name": "KBDL", "quality": 100, "contribution": 0.0}, "72508014740": {"distance": 20007.0, "latitude": 41.938, "longitude": -72.682, "useCount": 0, "id": "72508014740", "name": "HARTFORD BRADLEY INTERNATIONAL AIRPORT, CT US", "quality": 100, "contribution": 0.0}, "72502754788": {"distance": 29798.0, "latitude": 41.51, "longitude": -72.828, "useCount": 0, "id": "72502754788", "name": "MERIDEN MARKHAM MUNICIPAL AIRPORT, CT US", "quality": 100, "contribution": 0.0}}}