{"queryCost": 1, "latitude": 38.492, "longitude": -85.775, "resolvedAddress": "38.49200,-85.77500", "address": "38.49200,-85.77500", "timezone": "America/Kentucky/Louisville", "tzoffset": -4.0, "days": [{"datetime": "2019-07-16", "datetimeEpoch": 1563249600, "tempmax": 90.3, "tempmin": 76.1, "temp": 81.8, "feelslikemax": 95.6, "feelslikemin": 76.1, "feelslike": 84.0, "dew": 69.6, "humidity": 67.6, "precip": 0.04, "precipprob": 100.0, "precipcover": 12.5, "preciptype": ["rain"], "snow": 0.0, "snowdepth": 0.0, "windgust": 33.3, "windspeed": 20.1, "winddir": 173.0, "pressure": 1015.6, "cloudcover": 50.1, "visibility": 9.8, "solarradiation": 144.5, "solarenergy": 12.3, "uvindex": 8.0, "sunrise": "06:31:51", "sunriseEpoch": 1563273111, "sunset": "21:06:08", "sunsetEpoch": 1563325568, "moonphase": 0.5, "conditions": "Rain, Partially cloudy", "description": "Partly cloudy throughout the day with late afternoon rain.", "icon": "rain", "stations": ["KFTK", "KLOU", "AU953", "KSDF", "72423093821", "72424013807", "72423513810", "E0833"], "source": "obs"}], "stations": {"KFTK": {"distance": 68073.0, "latitude": 37.9, "longitude": -85.97, "useCount": 0, "id": "KFTK", "name": "KFTK", "quality": 100, "contribution": 0.0}, "KLOU": {"distance": 31636.0, "latitude": 38.22, "longitude": -85.67, "useCount": 0, "id": "KLOU", "name": "KLOU", "quality": 100, "contribution": 0.0}, "AU953": {"distance": 20701.0, "latitude": 38.311, "longitude": -85.83, "useCount": 0, "id": "AU953", "name": "N9OKI New Albany IN US", "quality": 0, "contribution": 0.0}, "KSDF": {"distance": 34953.0, "latitude": 38.18, "longitude": -85.73, "useCount": 0, "id": "KSDF", "name": "KSDF", "quality": 100, "contribution": 0.0}, "72423093821": {"distance": 34751.0, "latitude": 38.181, "longitude": -85.739, "useCount": 0, "id": "72423093821", "name": "LOUISVILLE INTERNATIONAL AIRPORT, KY US", "quality": 100, "contribution": 0.0}, "72424013807": {"distance": 68002.0, "latitude": 37.9, "longitude": -85.967, "useCount": 0, "id": "72424013807", "name": "FORT KNOX GODMAN ARMY AIR FIELD, KY US", "quality": 99, "contribution": 0.0}, "72423513810": {"distance": 30945.0, "latitude": 38.228, "longitude": -85.664, "useCount": 0, "id": "72423513810", "name": "LOUISVILLE BOWMAN FIELD, KY US", "quality": 100, "contribution": 0.0}, "E0833": {"distance": 12100.0, "latitude": 38.385, "longitude": -85.797, "useCount": 0, "id": "E0833", "name": "EW0833 Sellersburg IN US", "quality": 0, "contribution": 0.0}}}