{"queryCost": 1, "latitude": 39.174, "longitude": -119.725, "resolvedAddress": "39.17400,-119.72500", "address": "39.17400,-119.72500", "timezone": "America/Los_Angeles", "tzoffset": -7.0, "days": [{"datetime": "2019-08-03", "datetimeEpoch": 1564815600, "tempmax": 90.7, "tempmin": 49.5, "temp": 70.9, "feelslikemax": 86.6, "feelslikemin": 49.5, "feelslike": 69.7, "dew": 40.1, "humidity": 37.67, "precip": 0.0, "precipprob": null, "precipcover": 0.0, "preciptype": null, "snow": 0.0, "snowdepth": 0.0, "windgust": 27.7, "windspeed": 16.4, "winddir": 196.2, "pressure": 1015.5, "cloudcover": 5.2, "visibility": 9.9, "solarradiation": 314.6, "solarenergy": 18.1, "uvindex": 10.0, "sunrise": "06:00:55", "sunriseEpoch": 1564837255, "sunset": "20:08:42", "sunsetEpoch": 1564888122, "moonphase": 0.04, "conditions": "Clear", "description": "Clear conditions throughout the day.", "icon": "clear-day", "stations": ["KMEV", "72584793230", "72488023185", "KRNO", "KTVL", "WNC", "72055199999", "C5091"], "source": "obs"}], "stations": {"KMEV": {"distance": 22812.0, "latitude": 38.97, "longitude": -119.75, "useCount": 0, "id": "KMEV", "name": "KMEV", "quality": 98, "contribution": 0.0}, "72584793230": {"distance": 38561.0, "latitude": 38.898, "longitude": -119.995, "useCount": 0, "id": "72584793230", "name": "SOUTH LAKE TAHOE AIRPORT, CA US", "quality": 100, "contribution": 0.0}, "72488023185": {"distance": 34713.0, "latitude": 39.484, "longitude": -119.771, "useCount": 0, "id": "72488023185", "name": "RENO AIRPORT, NV US", "quality": 100, "contribution": 0.0}, "KRNO": {"distance": 36598.0, "latitude": 39.5, "longitude": -119.78, "useCount": 0, "id": "KRNO", "name": "KRNO", "quality": 100, "contribution": 0.0}, "KTVL": {"distance": 38675.0, "latitude": 38.9, "longitude": -120.0, "useCount": 0, "id": "KTVL", "name": "KTVL", "quality": 100, "contribution": 0.0}, "WNC": {"distance": 6350.0, "latitude": 39.186, "longitude": -119.797, "useCount": 0, "id": "WNC", "name": "WESTERN NEVADA COLLEGE NV US DRI", "quality": 0, "contribution": 0.0}, "72055199999": {"distance": 19466.0, "latitude": 39.0, "longitude": -119.751, "useCount": 0, "id": "72055199999", "name": "MINDEN TAHOE AIRPORT, NV US", "quality": 100, "contribution": 0.0}, "C5091": {"distance": 4399.0, "latitude": 39.166, "longitude": -119.775, "useCount": 0, "id": "C5091", "name": "CW5091 Carson City NV US", "quality": 0, "contribution": 0.0}}}