{"queryCost": 1, "latitude": 40.593, "longitude": -75.545, "resolvedAddress": "40.59300,-75.54500", "address": "40.59300,-75.54500", "timezone": "America/New_York", "tzoffset": -4.0, "days": [{"datetime": "2019-08-01", "datetimeEpoch": 1564632000, "tempmax": 84.8, "tempmin": 66.3, "temp": 75.6, "feelslikemax": 81.9, "feelslikemin": 66.3, "feelslike": 74.5, "dew": 16.1, "humidity": 11.8, "precip": 0.0, "precipprob": null, "precipcover": 0.0, "preciptype": null, "snow": 0.0, "snowdepth": 0.0, "windgust": null, "windspeed": 7.3, "winddir": 74.6, "pressure": 1018.5, "cloudcover": 14.7, "visibility": 8.9, "solarradiation": 336.8, "solarenergy": 18.2, "uvindex": 9.0, "sunrise": "05:58:55", "sunriseEpoch": 1564653535, "sunset": "20:17:33", "sunsetEpoch": 1564705053, "moonphase": 0.0, "conditions": "Clear", "description": "Clear conditions throughout the day.", "icon": "clear-day", "stations": ["72517014737", "72510954782", "KABE", "KPTW", "99999900379", "KXLL", "D6615"], "source": "obs"}], "stations": {"72517014737": {"distance": 10372.0, "latitude": 40.65, "longitude": -75.448, "useCount": 0, "id": "72517014737", "name": "ALLENTOWN LEHIGH VALLEY INTERNATIONAL AIRPORT, PA US", "quality": 100, "contribution": 0.0}, "72510954782": {"distance": 39527.0, "latitude": 40.238, "longitude": -75.555, "useCount": 0, "id": "72510954782", "name": "HERITAGE FIELD AIRPORT, PA US", "quality": 100, "contribution": 0.0}, "KABE": {"distance": 11605.0, "latitude": 40.65, "longitude": -75.43, "useCount": 0, "id": "KABE", "name": "ALLENTOWN-BETHLE, PA", "quality": 100, "contribution": 0.0}, "KPTW": {"distance": 39316.0, "latitude": 40.24, "longitude": -75.56, "useCount": 0, "id": "KPTW", "name": "KPTW", "quality": 100, "contribution": 0.0}, "99999900379": {"distance": 5988.0, "latitude": 40.567, "longitude": -75.483, "useCount": 0, "id": "99999900379", "name": null, "quality": 99, "contribution": 0.0}, "KXLL": {"distance": 6063.0, "latitude": 40.57, "longitude": -75.48, "useCount": 0, "id": "KXLL", "name": "KXLL", "quality": 100, "contribution": 0.0}, "D6615": {"distance": 11537.0, "latitude": 40.57, "longitude": -75.678, "useCount": 0, "id": "D6615", "name": "DW6615 Breinigsville PA US", "quality": 0, "contribution": 0.0}}}