{"queryCost": 1, "latitude": 34.072, "longitude": -118.175, "resolvedAddress": "34.07200,-118.17500", "address": "34.07200,-118.17500", "timezone": "America/Los_Angeles", "tzoffset": -7.0, "days": [{"datetime": "2019-08-18", "datetimeEpoch": 1566111600, "tempmax": 78.2, "tempmin": 66.7, "temp": 70.8, "feelslikemax": 78.2, "feelslikemin": 66.7, "feelslike": 70.8, "dew": 59.5, "humidity": 67.82, "precip": 0.0, "precipprob": null, "precipcover": 0.0, "preciptype": null, "snow": 0.0, "snowdepth": 0.0, "windgust": null, "windspeed": 9.1, "winddir": 140.9, "pressure": 1011.8, "cloudcover": 49.1, "visibility": 9.3, "solarradiation": 441.8, "solarenergy": 23.9, "uvindex": 10.0, "sunrise": "06:16:12", "sunriseEpoch": 1566134172, "sunset": "19:36:23", "sunsetEpoch": 1566182183, "moonphase": 0.54, "conditions": "Partially cloudy", "description": "Clearing in the afternoon.", "icon": "partly-cloudy-day", "stations": ["A2968", "KHHR", "KBUR", "KCQT", "72295603167", "72288023152", "72287493134", "CQ070"], "source": "obs"}], "stations": {"A2968": {"distance": 4835.0, "latitude": 34.066, "longitude": -118.227, "useCount": 0, "id": "A2968", "name": "Los Angeles - N. Main Street CA SCQ", "quality": 0, "contribution": 0.0}, "KHHR": {"distance": 22157.0, "latitude": 33.92, "longitude": -118.33, "useCount": 0, "id": "KHHR", "name": "KHHR", "quality": 100, "contribution": 0.0}, "KBUR": {"distance": 21518.0, "latitude": 34.2, "longitude": -118.35, "useCount": 0, "id": "KBUR", "name": "KBUR", "quality": 100, "contribution": 0.0}, "KCQT": {"distance": 11283.0, "latitude": 34.02, "longitude": -118.28, "useCount": 0, "id": "KCQT", "name": "KCQT", "quality": 100, "contribution": 0.0}, "72295603167": {"distance": 22163.0, "latitude": 33.923, "longitude": -118.334, "useCount": 0, "id": "72295603167", "name": "HAWTHORNE MUNICIPAL AIRPORT, CA US", "quality": 100, "contribution": 0.0}, "72288023152": {"distance": 22049.0, "latitude": 34.201, "longitude": -118.357, "useCount": 0, "id": "72288023152", "name": "BURBANK GLENDALE PASADENA AIRPORT, CA US", "quality": 100, "contribution": 0.0}, "72287493134": {"distance": 11979.0, "latitude": 34.024, "longitude": -118.291, "useCount": 0, "id": "72287493134", "name": "LOS ANGELES DOWNTOWN USC, CA US", "quality": 100, "contribution": 0.0}, "CQ070": {"distance": 4829.0, "latitude": 34.067, "longitude": -118.227, "useCount": 0, "id": "CQ070", "name": "Los Angeles-North Main Street CA US CARB", "quality": 0, "contribution": 0.0}}}