{"queryCost": 1, "latitude": 38.91, "longitude": -86.573, "resolvedAddress": "38.91000,-86.57300", "address": "38.91000,-86.57300", "timezone": "America/Indiana/Indianapolis", "tzoffset": -4.0, "days": [{"datetime": "2019-08-17", "datetimeEpoch": 1566014400, "tempmax": 83.9, "tempmin": 66.8, "temp": 74.8, "feelslikemax": 89.1, "feelslikemin": 66.8, "feelslike": 76.1, "dew": 69.9, "humidity": 85.5, "precip": 0.01, "precipprob": 100.0, "precipcover": 4.17, "preciptype": ["rain"], "snow": 0.0, "snowdepth": 0.0, "windgust": 29.8, "windspeed": 12.2, "winddir": 112.8, "pressure": 1013.9, "cloudcover": 0.1, "visibility": 9.3, "solarradiation": 131.3, "solarenergy": 11.4, "uvindex": 6.0, "sunrise": "07:01:26", "sunriseEpoch": 1566039686, "sunset": "20:38:42", "sunsetEpoch": 1566088722, "moonphase": 0.52, "conditions": "Rain", "description": "Clear conditions throughout the day with afternoon rain.", "icon": "rain", "stations": ["KBMG", "KHNB", "F2670", "99999963898", "72090300441", "72437503893", "KDCY"], "source": "obs"}], "stations": {"KBMG": {"distance": 27024.0, "latitude": 39.15, "longitude": -86.62, "useCount": 0, "id": "KBMG", "name": "KBMG", "quality": 100, "contribution": 0.0}, "KHNB": {"distance": 80463.0, "latitude": 38.25, "longitude": -86.95, "useCount": 0, "id": "KHNB", "name": "HUNTINGBURG, IN", "quality": 100, "contribution": 0.0}, "F2670": {"distance": 14830.0, "latitude": 38.789, "longitude": -86.502, "useCount": 0, "id": "F2670", "name": "FW2670 Mitchell IN US", "quality": 0, "contribution": 0.0}, "99999963898": {"distance": 2435.0, "latitude": 38.888, "longitude": -86.571, "useCount": 0, "id": "99999963898", "name": "BEDFORD 5 WNW, IN US", "quality": 100, "contribution": 0.0}, "72090300441": {"distance": 53634.0, "latitude": 38.7, "longitude": -87.13, "useCount": 0, "id": "72090300441", "name": "DAVIESS CO AIRPORT, IN US", "quality": 100, "contribution": 0.0}, "72437503893": {"distance": 25143.0, "latitude": 39.133, "longitude": -86.617, "useCount": 0, "id": "72437503893", "name": "BLOOMINGTON MONROE CO AIRPORT, IN US", "quality": 100, "contribution": 0.0}, "KDCY": {"distance": 53677.0, "latitude": 38.7, "longitude": -87.13, "useCount": 0, "id": "KDCY", "name": "KDCY", "quality": 98, "contribution": 0.0}}}