{"queryCost": 1, "latitude": 34.236, "longitude": -118.418, "resolvedAddress": "34.23600,-118.41800", "address": "34.23600,-118.41800", "timezone": "America/Los_Angeles", "tzoffset": -7.0, "days": [{"datetime": "2019-08-19", "datetimeEpoch": 1566198000, "tempmax": 87.6, "tempmin": 62.2, "temp": 72.5, "feelslikemax": 85.3, "feelslikemin": 62.2, "feelslike": 72.2, "dew": 58.1, "humidity": 64.8, "precip": 0.0, "precipprob": 0.0, "precipcover": 0.0, "preciptype": null, "snow": 0.0, "snowdepth": 0.0, "windgust": 17.3, "windspeed": 11.1, "winddir": 136.8, "pressure": 1012.4, "cloudcover": 23.0, "visibility": 9.0, "solarradiation": 292.3, "solarenergy": 25.3, "uvindex": 9.0, "sunrise": "06:17:40", "sunriseEpoch": 1566220660, "sunset": "19:36:24", "sunsetEpoch": 1566268584, "moonphase": 0.57, "conditions": "Partially cloudy", "description": "Clearing in the afternoon.", "icon": "partly-cloudy-day", "stations": ["KVNY", "72288593197", "LTJC1", "KBUR", "KSMO", "72288623130", "72288023152"], "source": "obs"}], "stations": {"KVNY": {"distance": 5978.0, "latitude": 34.22, "longitude": -118.48, "useCount": 0, "id": "KVNY", "name": "KVNY", "quality": 100, "contribution": 0.0}, "72288593197": {"distance": 24700.0, "latitude": 34.016, "longitude": -118.451, "useCount": 0, "id": "72288593197", "name": "SANTA MONICA MUNICIPAL AIRPORT, CA US", "quality": 100, "contribution": 0.0}, "LTJC1": {"distance": 8283.0, "latitude": 34.294, "longitude": -118.361, "useCount": 0, "id": "LTJC1", "name": "LITTLE TUJUNGA CA US", "quality": 0, "contribution": 0.0}, "KBUR": {"distance": 7432.0, "latitude": 34.2, "longitude": -118.35, "useCount": 0, "id": "KBUR", "name": "KBUR", "quality": 100, "contribution": 0.0}, "KSMO": {"distance": 24225.0, "latitude": 34.02, "longitude": -118.45, "useCount": 0, "id": "KSMO", "name": "KSMO", "quality": 97, "contribution": 0.0}, "72288623130": {"distance": 7161.0, "latitude": 34.21, "longitude": -118.489, "useCount": 0, "id": "72288623130", "name": "VAN NUYS AIRPORT, CA US", "quality": 100, "contribution": 0.0}, "72288023152": {"distance": 6860.0, "latitude": 34.201, "longitude": -118.357, "useCount": 0, "id": "72288023152", "name": "BURBANK GLENDALE PASADENA AIRPORT, CA US", "quality": 100, "contribution": 0.0}}}