{"queryCost": 1, "latitude": 40.812, "longitude": -74.125, "resolvedAddress": "40.81200,-74.12500", "address": "40.81200,-74.12500", "timezone": "America/New_York", "tzoffset": -4.0, "days": [{"datetime": "2015-05-29", "datetimeEpoch": 1432872000, "tempmax": 81.9, "tempmin": 62.9, "temp": 72.5, "feelslikemax": 81.1, "feelslikemin": 62.9, "feelslike": 72.4, "dew": 54.7, "humidity": 54.9, "precip": 0.0, "precipprob": 0.0, "precipcover": 0.0, "preciptype": null, "snow": 0.0, "snowdepth": 0.0, "windgust": 18.3, "windspeed": 9.0, "winddir": 106.2, "pressure": 1024.3, "cloudcover": 9.2, "visibility": 9.9, "solarradiation": 348.4, "solarenergy": 30.1, "uvindex": 10.0, "sunrise": "05:28:54", "sunriseEpoch": 1432891734, "sunset": "20:19:19", "sunsetEpoch": 1432945159, "moonphase": 0.42, "conditions": "Clear", "description": "Clear conditions throughout the day.", "icon": "clear-day", "stations": ["72502594741", "KTEB", "72505394728", "KEWR", "72502014734", "KNYC"], "source": "obs"}], "stations": {"72502594741": {"distance": 6826.0, "latitude": 40.85, "longitude": -74.061, "useCount": 0, "id": "72502594741", "name": "TETERBORO AIRPORT, NJ US", "quality": 100, "contribution": 0.0}, "KTEB": {"distance": 6919.0, "latitude": 40.85, "longitude": -74.06, "useCount": 0, "id": "KTEB", "name": "KTEB", "quality": 100, "contribution": 0.0}, "72505394728": {"distance": 13626.0, "latitude": 40.779, "longitude": -73.969, "useCount": 0, "id": "72505394728", "name": "NY CITY CENTRAL PARK, NY US", "quality": 100, "contribution": 0.0}, "KEWR": {"distance": 13032.0, "latitude": 40.7, "longitude": -74.17, "useCount": 0, "id": "KEWR", "name": "KEWR", "quality": 100, "contribution": 0.0}, "72502014734": {"distance": 14894.0, "latitude": 40.683, "longitude": -74.169, "useCount": 0, "id": "72502014734", "name": "NEWARK LIBERTY INTERNATIONAL AIRPORT, NJ US", "quality": 100, "contribution": 0.0}, "KNYC": {"distance": 13084.0, "latitude": 40.77, "longitude": -73.98, "useCount": 0, "id": "KNYC", "name": "KNYC", "quality": 100, "contribution": 0.0}}}