{"queryCost": 1, "latitude": 39.752, "longitude": -84.239, "resolvedAddress": "39.75200,-84.23900", "address": "39.75200,-84.23900", "timezone": "America/New_York", "tzoffset": -4.0, "days": [{"datetime": "2019-08-22", "datetimeEpoch": 1566446400, "tempmax": 77.7, "tempmin": 70.1, "temp": 73.9, "feelslikemax": 77.7, "feelslikemin": 70.1, "feelslike": 73.9, "dew": 67.6, "humidity": 80.9, "precip": 0.06, "precipprob": 100.0, "precipcover": 8.33, "preciptype": ["rain"], "snow": 0.0, "snowdepth": 0.0, "windgust": 29.8, "windspeed": 14.2, "winddir": 215.7, "pressure": 1014.7, "cloudcover": 61.6, "visibility": 9.7, "solarradiation": 91.8, "solarenergy": 8.0, "uvindex": 3.0, "sunrise": "06:55:22", "sunriseEpoch": 1566471322, "sunset": "20:23:42", "sunsetEpoch": 1566519822, "moonphase": 0.7, "conditions": "Rain, Partially cloudy", "description": "Partly cloudy throughout the day with morning rain.", "icon": "rain", "stations": ["72429093815", "KDAY", "74570013840", "KMGY", "KFFO", "E1198", "72427653859"], "source": "obs"}], "stations": {"72429093815": {"distance": 17277.0, "latitude": 39.906, "longitude": -84.218, "useCount": 0, "id": "72429093815", "name": "DAYTON INTERNATIONAL AIRPORT, OH US", "quality": 100, "contribution": 0.0}, "KDAY": {"distance": 16809.0, "latitude": 39.9, "longitude": -84.2, "useCount": 0, "id": "KDAY", "name": "KDAY", "quality": 100, "contribution": 0.0}, "74570013840": {"distance": 18527.0, "latitude": 39.833, "longitude": -84.05, "useCount": 0, "id": "74570013840", "name": "DAYTON WRIGHT PATTERSON AFB, OH US", "quality": 100, "contribution": 0.0}, "KMGY": {"distance": 16938.0, "latitude": 39.6, "longitude": -84.23, "useCount": 0, "id": "KMGY", "name": "KMGY", "quality": 100, "contribution": 0.0}, "KFFO": {"distance": 18351.0, "latitude": 39.83, "longitude": -84.05, "useCount": 0, "id": "KFFO", "name": "KFFO", "quality": 100, "contribution": 0.0}, "E1198": {"distance": 3370.0, "latitude": 39.756, "longitude": -84.2, "useCount": 0, "id": "E1198", "name": "EW1198 Dayton OH US", "quality": 0, "contribution": 0.0}, "72427653859": {"distance": 17666.0, "latitude": 39.594, "longitude": -84.226, "useCount": 0, "id": "72427653859", "name": "DAYTON WRIGHT BROTHERS AIRPORT, OH US", "quality": 100, "contribution": 0.0}}}