{"queryCost": 1, "latitude": 32.766, "longitude": -97.229, "resolvedAddress": "32.76600,-97.22900", "address": "32.76600,-97.22900", "timezone": "America/Chicago", "tzoffset": -5.0, "days": [{"datetime": "2019-08-21", "datetimeEpoch": 1566363600, "tempmax": 98.0, "tempmin": 79.0, "temp": 88.7, "feelslikemax": 101.2, "feelslikemin": 79.0, "feelslike": 91.9, "dew": 67.8, "humidity": 52.0, "precip": 0.0, "precipprob": 0.0, "precipcover": 0.0, "preciptype": null, "snow": 0.0, "snowdepth": 0.0, "windgust": 24.2, "windspeed": 13.1, "winddir": 153.4, "pressure": 1013.6, "cloudcover": 4.1, "visibility": 9.9, "solarradiation": 270.2, "solarenergy": 23.3, "uvindex": 9.0, "sunrise": "06:56:13", "sunriseEpoch": 1566388573, "sunset": "20:07:26", "sunsetEpoch": 1566436046, "moonphase": 0.65, "conditions": "Clear", "description": "Clear conditions throughout the day.", "icon": "clear-day", "stations": ["72247953907", "74739013961", "E4676", "72259513911", "KGKY", "KGPM", "KFTW"], "source": "obs"}], "stations": {"72247953907": {"distance": 17031.0, "latitude": 32.664, "longitude": -97.094, "useCount": 0, "id": "72247953907", "name": "ARLINGTON MUNICIPAL AIRPORT, TX US", "quality": 100, "contribution": 0.0}, "74739013961": {"distance": 13733.0, "latitude": 32.819, "longitude": -97.361, "useCount": 0, "id": "74739013961", "name": "FORT WORTH MEACHAM FIELD, TX US", "quality": 100, "contribution": 0.0}, "E4676": {"distance": 9857.0, "latitude": 32.722, "longitude": -97.137, "useCount": 0, "id": "E4676", "name": "EW4676 Arlington TX US", "quality": 0, "contribution": 0.0}, "72259513911": {"distance": 20687.0, "latitude": 32.767, "longitude": -97.45, "useCount": 0, "id": "72259513911", "name": "FORT WORTH NAS, TX US", "quality": 100, "contribution": 0.0}, "KGKY": {"distance": 18338.0, "latitude": 32.65, "longitude": -97.09, "useCount": 0, "id": "KGKY", "name": "KGKY", "quality": 100, "contribution": 0.0}, "KGPM": {"distance": 18301.0, "latitude": 32.7, "longitude": -97.05, "useCount": 0, "id": "KGPM", "name": "KGPM", "quality": 98, "contribution": 0.0}, "KFTW": {"distance": 14499.0, "latitude": 32.82, "longitude": -97.37, "useCount": 0, "id": "KFTW", "name": "FT WORTH/MEACHAM, TX", "quality": 100, "contribution": 0.0}}}