{"queryCost": 1, "latitude": 32.758, "longitude": -117.073, "resolvedAddress": "32.75800,-117.07300", "address": "32.75800,-117.07300", "timezone": "America/Los_Angeles", "tzoffset": -7.0, "days": [{"datetime": "2019-08-24", "datetimeEpoch": 1566630000, "tempmax": 80.1, "tempmin": 64.5, "temp": 72.0, "feelslikemax": 81.7, "feelslikemin": 64.5, "feelslike": 72.1, "dew": 62.7, "humidity": 73.5, "precip": 0.0, "precipprob": 0.0, "precipcover": 0.0, "preciptype": null, "snow": 0.0, "snowdepth": 0.0, "windgust": null, "windspeed": 10.0, "winddir": 247.3, "pressure": 1013.1, "cloudcover": 16.0, "visibility": 9.7, "solarradiation": 211.2, "solarenergy": 18.4, "uvindex": 6.0, "sunrise": "06:17:37", "sunriseEpoch": 1566652657, "sunset": "19:23:11", "sunsetEpoch": 1566699791, "moonphase": 0.8, "conditions": "Clear", "description": "Clear conditions throughout the day.", "icon": "clear-day", "stations": ["KNKX", "F1077", "KSAN", "72290023188", "KMYF", "72290303131", "72293193107"], "source": "obs"}], "stations": {"KNKX": {"distance": 11146.0, "latitude": 32.85, "longitude": -117.12, "useCount": 0, "id": "KNKX", "name": "KNKX", "quality": 98, "contribution": 0.0}, "F1077": {"distance": 1670.0, "latitude": 32.749, "longitude": -117.059, "useCount": 0, "id": "F1077", "name": "FW1077 San Diego CA US", "quality": 0, "contribution": 0.0}, "KSAN": {"distance": 9602.0, "latitude": 32.73, "longitude": -117.17, "useCount": 0, "id": "KSAN", "name": "SAN DIEGO/LINDBE, CA", "quality": 100, "contribution": 0.0}, "72290023188": {"distance": 10651.0, "latitude": 32.734, "longitude": -117.183, "useCount": 0, "id": "72290023188", "name": "SAN DIEGO INTERNATIONAL AIRPORT, CA US", "quality": 100, "contribution": 0.0}, "KMYF": {"distance": 8723.0, "latitude": 32.82, "longitude": -117.13, "useCount": 0, "id": "KMYF", "name": "KMYF", "quality": 100, "contribution": 0.0}, "72290303131": {"distance": 8919.0, "latitude": 32.816, "longitude": -117.139, "useCount": 0, "id": "72290303131", "name": "SAN DIEGO MONTGOMERY FIELD, CA US", "quality": 100, "contribution": 0.0}, "72293193107": {"distance": 13339.0, "latitude": 32.867, "longitude": -117.133, "useCount": 0, "id": "72293193107", "name": "SAN DIEGO MIRAMAR NAS, CA US", "quality": 99, "contribution": 0.0}}}