{"queryCost": 1, "latitude": 34.545, "longitude": -90.655, "resolvedAddress": "34.54500,-90.65500", "address": "34.54500,-90.65500", "timezone": "America/Chicago", "tzoffset": -5.0, "days": [{"datetime": "2019-08-27", "datetimeEpoch": 1566882000, "tempmax": 86.0, "tempmin": 70.8, "temp": 78.1, "feelslikemax": 92.9, "feelslikemin": 70.8, "feelslike": 80.5, "dew": 73.7, "humidity": 87.49, "precip": 0.02, "precipprob": null, "precipcover": 8.33, "preciptype": null, "snow": 0.0, "snowdepth": 0.0, "windgust": 25.1, "windspeed": 11.4, "winddir": 249.1, "pressure": 1012.3, "cloudcover": 4.3, "visibility": 9.5, "solarradiation": 228.5, "solarenergy": 19.7, "uvindex": 9.0, "sunrise": "06:31:56", "sunriseEpoch": 1566905516, "sunset": "19:35:51", "sunsetEpoch": 1566952551, "moonphase": 0.94, "conditions": "Rain", "description": "Clear conditions throughout the day with morning rain.", "icon": "rain", "stations": ["72092700314", "TNAM6", "KUTA", "SFFA4", "72236423903", "KCKM", "72205453959", "KAWM"], "source": "obs"}], "stations": {"72092700314": {"distance": 30270.0, "latitude": 34.3, "longitude": -90.512, "useCount": 0, "id": "72092700314", "name": "FLETCHER FIELD AIRPORT, MS US", "quality": 100, "contribution": 0.0}, "TNAM6": {"distance": 26714.0, "latitude": 34.683, "longitude": -90.417, "useCount": 0, "id": "TNAM6", "name": "TUNICA MS US SCAN", "quality": 0, "contribution": 0.0}, "KUTA": {"distance": 31728.0, "latitude": 34.68, "longitude": -90.35, "useCount": 0, "id": "KUTA", "name": "KUTA", "quality": 98, "contribution": 0.0}, "SFFA4": {"distance": 24292.0, "latitude": 34.756, "longitude": -90.722, "useCount": 0, "id": "SFFA4", "name": "MARIANNA AR US", "quality": 0, "contribution": 0.0}, "72236423903": {"distance": 32052.0, "latitude": 34.681, "longitude": -90.347, "useCount": 0, "id": "72236423903", "name": "TUNICA MUNICIPAL AIRPORT, MS US", "quality": 100, "contribution": 0.0}, "KCKM": {"distance": 31354.0, "latitude": 34.29, "longitude": -90.51, "useCount": 0, "id": "KCKM", "name": "KCKM", "quality": 99, "contribution": 0.0}, "72205453959": {"distance": 76094.0, "latitude": 35.135, "longitude": -90.234, "useCount": 0, "id": "72205453959", "name": "WEST MEMPHIS MUNICIPAL AIRPORT, AR US", "quality": 100, "contribution": 0.0}, "KAWM": {"distance": 76777.0, "latitude": 35.14, "longitude": -90.23, "useCount": 0, "id": "KAWM", "name": "WEST MEMPHIS MUN, AR", "quality": 100, "contribution": 0.0}}}