{"queryCost": 1, "latitude": 33.318, "longitude": -87.908, "resolvedAddress": "33.31800,-87.90800", "address": "33.31800,-87.90800", "timezone": "America/Chicago", "tzoffset": -5.0, "days": [{"datetime": "2019-08-28", "datetimeEpoch": 1566968400, "tempmax": 89.1, "tempmin": 71.6, "temp": 78.4, "feelslikemax": 92.6, "feelslikemin": 71.6, "feelslike": 79.8, "dew": 69.9, "humidity": 78.1, "precip": 0.0, "precipprob": 0.0, "precipcover": 0.0, "preciptype": null, "snow": 0.0, "snowdepth": 0.0, "windgust": null, "windspeed": 10.2, "winddir": 262.2, "pressure": 1015.9, "cloudcover": 31.1, "visibility": 8.0, "solarradiation": 170.8, "solarenergy": 14.9, "uvindex": 9.0, "sunrise": "06:22:57", "sunriseEpoch": 1566991377, "sunset": "19:22:18", "sunsetEpoch": 1567038138, "moonphase": 0.98, "conditions": "Partially cloudy", "description": "Partly cloudy throughout the day.", "icon": "partly-cloudy-day", "stations": ["KCBM", "KTCL", "99999973801", "D1375", "99999963892", "72228693806", "72330613825"], "source": "obs"}], "stations": {"KCBM": {"distance": 62435.0, "latitude": 33.65, "longitude": -88.45, "useCount": 0, "id": "KCBM", "name": "KCBM", "quality": 100, "contribution": 0.0}, "KTCL": {"distance": 28940.0, "latitude": 33.22, "longitude": -87.62, "useCount": 0, "id": "KTCL", "name": "KTCL", "quality": 100, "contribution": 0.0}, "99999973801": {"distance": 31723.0, "latitude": 33.213, "longitude": -87.591, "useCount": 0, "id": "99999973801", "name": "NORTHPORT 2 S, AL US", "quality": 100, "contribution": 0.0}, "D1375": {"distance": 22466.0, "latitude": 33.237, "longitude": -87.687, "useCount": 0, "id": "D1375", "name": "DW1375 Coker AL US", "quality": 0, "contribution": 0.0}, "99999963892": {"distance": 57672.0, "latitude": 32.837, "longitude": -88.137, "useCount": 0, "id": "99999963892", "name": "GAINESVILLE 2 NE, AL US", "quality": 100, "contribution": 0.0}, "72228693806": {"distance": 29626.0, "latitude": 33.212, "longitude": -87.616, "useCount": 0, "id": "72228693806", "name": "TUSCALOOSA AIRPORT ASOS, AL US", "quality": 100, "contribution": 0.0}, "72330613825": {"distance": 62435.0, "latitude": 33.65, "longitude": -88.45, "useCount": 0, "id": "72330613825", "name": "COLUMBUS AFB, MS US", "quality": 98, "contribution": 0.0}}}