{"queryCost": 1, "latitude": 42.36, "longitude": -123.446, "resolvedAddress": "42.36000,-123.44600", "address": "42.36000,-123.44600", "timezone": "America/Los_Angeles", "tzoffset": -7.0, "days": [{"datetime": "2015-05-29", "datetimeEpoch": 1432882800, "tempmax": 78.4, "tempmin": 56.2, "temp": 65.9, "feelslikemax": 78.4, "feelslikemin": 56.2, "feelslike": 65.9, "dew": 52.2, "humidity": 62.8, "precip": 0.0, "precipprob": 0.0, "precipcover": 0.0, "preciptype": null, "snow": 0.0, "snowdepth": 0.0, "windgust": 19.7, "windspeed": 7.8, "winddir": 166.4, "pressure": 1013.0, "cloudcover": 10.0, "visibility": 9.5, "solarradiation": 272.4, "solarenergy": 23.6, "uvindex": 9.0, "sunrise": "05:41:16", "sunriseEpoch": 1432903276, "sunset": "20:41:35", "sunsetEpoch": 1432957295, "moonphase": 0.42, "conditions": "Clear", "description": "Clear conditions throughout the day.", "icon": "clear-day", "stations": ["72036524267", "KSXT", "72598524267", "72597024225", "72597524235", "KMFR"], "source": "obs"}], "stations": {"72036524267": {"distance": 76501.0, "latitude": 42.074, "longitude": -124.29, "useCount": 0, "id": "72036524267", "name": "BROOKINGS STATE AIRPORT, OR US", "quality": 100, "contribution": 0.0}, "KSXT": {"distance": 29608.0, "latitude": 42.62, "longitude": -123.37, "useCount": 0, "id": "KSXT", "name": "KSXT", "quality": 98, "contribution": 0.0}, "72598524267": {"distance": 76501.0, "latitude": 42.074, "longitude": -124.29, "useCount": 0, "id": "72598524267", "name": "BROOKINGS STATE AIRPORT, OR US", "quality": 99, "contribution": 0.0}, "72597024225": {"distance": 46828.0, "latitude": 42.375, "longitude": -122.877, "useCount": 0, "id": "72597024225", "name": "MEDFORD INTERNATIONAL AIRPORT, OR US", "quality": 100, "contribution": 0.0}, "72597524235": {"distance": 27584.0, "latitude": 42.6, "longitude": -123.364, "useCount": 0, "id": "72597524235", "name": "SEXTON SUMMIT, OR US", "quality": 100, "contribution": 0.0}, "KMFR": {"distance": 47389.0, "latitude": 42.37, "longitude": -122.87, "useCount": 0, "id": "KMFR", "name": "KMFR", "quality": 100, "contribution": 0.0}}}