{"queryCost": 1, "latitude": 38.809, "longitude": -97.627, "resolvedAddress": "38.80900,-97.62700", "address": "38.80900,-97.62700", "timezone": "America/Chicago", "tzoffset": -5.0, "days": [{"datetime": "2019-08-28", "datetimeEpoch": 1566968400, "tempmax": 84.8, "tempmin": 57.8, "temp": 70.9, "feelslikemax": 84.1, "feelslikemin": 57.8, "feelslike": 70.9, "dew": 58.1, "humidity": 67.13, "precip": 0.0, "precipprob": null, "precipcover": 20.83, "preciptype": null, "snow": 0.0, "snowdepth": 0.0, "windgust": null, "windspeed": 13.9, "winddir": 176.3, "pressure": 1018.0, "cloudcover": 0.0, "visibility": 9.9, "solarradiation": 478.9, "solarenergy": 24.1, "uvindex": 9.0, "sunrise": "06:55:43", "sunriseEpoch": 1566993343, "sunset": "20:07:08", "sunsetEpoch": 1567040828, "moonphase": 0.98, "conditions": "Clear", "description": "Clear conditions throughout the day.", "icon": "clear-day", "stations": ["KFRI", "F3077", "72078199999", "KSLN", "72458603919", "72455013947"], "source": "obs"}], "stations": {"KFRI": {"distance": 78547.0, "latitude": 39.04, "longitude": -96.77, "useCount": 0, "id": "KFRI", "name": "KFRI", "quality": 100, "contribution": 0.0}, "F3077": {"distance": 62243.0, "latitude": 38.851, "longitude": -96.911, "useCount": 0, "id": "F3077", "name": "FW3077 Woodbine KS US", "quality": 0, "contribution": 0.0}, "72078199999": {"distance": 73613.0, "latitude": 38.343, "longitude": -98.227, "useCount": 0, "id": "72078199999", "name": "LYONS RICE CO MUNICIPAL, KS US", "quality": 100, "contribution": 0.0}, "KSLN": {"distance": 2233.0, "latitude": 38.8, "longitude": -97.65, "useCount": 0, "id": "KSLN", "name": "SALINA, KS", "quality": 100, "contribution": 0.0}, "72458603919": {"distance": 2233.0, "latitude": 38.8, "longitude": -97.65, "useCount": 0, "id": "72458603919", "name": "SALINA MUNICIPAL AIRPORT, KS US", "quality": 100, "contribution": 0.0}, "72455013947": {"distance": 79183.0, "latitude": 39.05, "longitude": -96.767, "useCount": 0, "id": "72455013947", "name": "FORT RILEY MARSHALL ARMY AIR FIELD, KS US", "quality": 100, "contribution": 0.0}}}