{"queryCost": 1, "latitude": 43.61, "longitude": -116.708, "resolvedAddress": "43.61000,-116.70800", "address": "43.61000,-116.70800", "timezone": "America/Boise", "tzoffset": -6.0, "days": [{"datetime": "2019-09-01", "datetimeEpoch": 1567317600, "tempmax": 93.9, "tempmin": 56.6, "temp": 75.6, "feelslikemax": 90.3, "feelslikemin": 56.6, "feelslike": 74.5, "dew": 51.1, "humidity": 47.68, "precip": 0.0, "precipprob": null, "precipcover": 0.0, "preciptype": null, "snow": 0.0, "snowdepth": 0.0, "windgust": null, "windspeed": 8.0, "winddir": 166.0, "pressure": 1010.9, "cloudcover": 0.0, "visibility": 9.8, "solarradiation": 418.7, "solarenergy": 22.6, "uvindex": 8.0, "sunrise": "07:10:20", "sunriseEpoch": 1567343420, "sunset": "20:22:33", "sunsetEpoch": 1567390953, "moonphase": 0.03, "conditions": "Clear", "description": "Clear conditions throughout the day.", "icon": "clear-day", "stations": ["KEUL", "KBOI", "FG022", "99999904127", "72681394195", "KMAN", "72681024131"], "source": "obs"}], "stations": {"KEUL": {"distance": 6668.0, "latitude": 43.63, "longitude": -116.63, "useCount": 0, "id": "KEUL", "name": "CALDWELL (AWOS), ID", "quality": 100, "contribution": 0.0}, "KBOI": {"distance": 39597.0, "latitude": 43.57, "longitude": -116.22, "useCount": 0, "id": "KBOI", "name": "KBOI", "quality": 100, "contribution": 0.0}, "FG022": {"distance": 5652.0, "latitude": 43.586, "longitude": -116.77, "useCount": 0, "id": "FG022", "name": "Sunnyslope ID US FGNet", "quality": 0, "contribution": 0.0}, "99999904127": {"distance": 45285.0, "latitude": 43.204, "longitude": -116.751, "useCount": 0, "id": "99999904127", "name": "MURPHY 10 W, ID US", "quality": 100, "contribution": 0.0}, "72681394195": {"distance": 7506.0, "latitude": 43.65, "longitude": -116.633, "useCount": 0, "id": "72681394195", "name": "CALDWELL INDUSTRIAL AIRPORT, ID US", "quality": 100, "contribution": 0.0}, "KMAN": {"distance": 15520.0, "latitude": 43.58, "longitude": -116.52, "useCount": 0, "id": "KMAN", "name": "KMAN", "quality": 99, "contribution": 0.0}, "72681024131": {"distance": 37963.0, "latitude": 43.567, "longitude": -116.241, "useCount": 0, "id": "72681024131", "name": "BOISE AIR TERMINAL, ID US", "quality": 100, "contribution": 0.0}}}