{"queryCost": 1, "latitude": 37.695, "longitude": -97.281, "resolvedAddress": "37.69500,-97.28100", "address": "37.69500,-97.28100", "timezone": "America/Chicago", "tzoffset": -6.0, "days": [{"datetime": "2015-01-03", "datetimeEpoch": 1420264800, "tempmax": 40.6, "tempmin": 16.9, "temp": 32.7, "feelslikemax": 39.9, "feelslikemin": -0.4, "feelslike": 28.2, "dew": 28.2, "humidity": 84.7, "precip": 0.19, "precipprob": 100.0, "precipcover": 25.0, "preciptype": ["rain", "snow"], "snow": 0.0, "snowdepth": 0.0, "windgust": 39.8, "windspeed": 27.5, "winddir": 228.1, "pressure": 1013.3, "cloudcover": 75.8, "visibility": 6.1, "solarradiation": 67.8, "solarenergy": 6.0, "uvindex": 3.0, "sunrise": "07:44:41", "sunriseEpoch": 1420292681, "sunset": "17:22:43", "sunsetEpoch": 1420327363, "moonphase": 0.49, "conditions": "Snow, Rain, Partially cloudy", "description": "Partly cloudy throughout the day with rain or snow.", "icon": "rain", "stations": ["72450503923", "72450403974", "KAAO", "KIAB", "KICT", "72450003928"], "source": "obs"}], "stations": {"72450503923": {"distance": 8807.0, "latitude": 37.617, "longitude": -97.267, "useCount": 0, "id": "72450503923", "name": "WICHITA MCCONNELL AFB, KS US", "quality": 100, "contribution": 0.0}, "72450403974": {"distance": 7757.0, "latitude": 37.746, "longitude": -97.221, "useCount": 0, "id": "72450403974", "name": "WICHITA COLONEL JAMES JABARA AIRPORT, KS US", "quality": 100, "contribution": 0.0}, "KAAO": {"distance": 8145.0, "latitude": 37.75, "longitude": -97.22, "useCount": 0, "id": "KAAO", "name": "KAAO", "quality": 98, "contribution": 0.0}, "KIAB": {"distance": 9512.0, "latitude": 37.61, "longitude": -97.27, "useCount": 0, "id": "KIAB", "name": "KIAB", "quality": 100, "contribution": 0.0}, "KICT": {"distance": 14052.0, "latitude": 37.65, "longitude": -97.43, "useCount": 0, "id": "KICT", "name": "KICT", "quality": 100, "contribution": 0.0}, "72450003928": {"distance": 14154.0, "latitude": 37.648, "longitude": -97.43, "useCount": 0, "id": "72450003928", "name": "WICHITA DWIGHT D. EISENHOWER NATIONAL AIRPORT, KS US", "quality": 100, "contribution": 0.0}}}