{"queryCost": 1, "latitude": 32.147, "longitude": -90.109, "resolvedAddress": "32.14700,-90.10900", "address": "32.14700,-90.10900", "timezone": "America/Chicago", "tzoffset": -5.0, "days": [{"datetime": "2019-08-31", "datetimeEpoch": 1567227600, "tempmax": 91.9, "tempmin": 65.5, "temp": 79.1, "feelslikemax": 93.2, "feelslikemin": 65.5, "feelslike": 79.7, "dew": 64.8, "humidity": 64.8, "precip": 0.0, "precipprob": 0.0, "precipcover": 0.0, "preciptype": null, "snow": 0.0, "snowdepth": 0.0, "windgust": 17.2, "windspeed": 5.6, "winddir": 84.1, "pressure": 1016.9, "cloudcover": 1.6, "visibility": 9.9, "solarradiation": 246.8, "solarenergy": 21.3, "uvindex": 9.0, "sunrise": "06:34:50", "sunriseEpoch": 1567251290, "sunset": "19:26:13", "sunsetEpoch": 1567297573, "moonphase": 0.01, "conditions": "Clear", "description": "Clear conditions throughout the day.", "icon": "clear-day", "stations": ["72078700278", "D5633", "KJVW", "72235413927", "KHKS", "72235003940", "KJAN"], "source": "obs"}], "stations": {"72078700278": {"distance": 33381.0, "latitude": 32.304, "longitude": -90.411, "useCount": 0, "id": "72078700278", "name": "JOHN BELL WILLIAMS AIRPORT, MS US", "quality": 50, "contribution": 0.0}, "D5633": {"distance": 9412.0, "latitude": 32.218, "longitude": -90.163, "useCount": 0, "id": "D5633", "name": "DW5633 Richland MS US", "quality": 0, "contribution": 0.0}, "KJVW": {"distance": 32512.0, "latitude": 32.29, "longitude": -90.41, "useCount": 0, "id": "KJVW", "name": "KJVW", "quality": 45, "contribution": 0.0}, "72235413927": {"distance": 23621.0, "latitude": 32.337, "longitude": -90.221, "useCount": 0, "id": "72235413927", "name": "JACKSON HAWKINS FIELD, MS US", "quality": 100, "contribution": 0.0}, "KHKS": {"distance": 22896.0, "latitude": 32.33, "longitude": -90.22, "useCount": 0, "id": "KHKS", "name": "KHKS", "quality": 100, "contribution": 0.0}, "72235003940": {"distance": 19538.0, "latitude": 32.321, "longitude": -90.078, "useCount": 0, "id": "72235003940", "name": "JACKSON INTERNATIONAL AIRPORT, MS US", "quality": 100, "contribution": 0.0}, "KJAN": {"distance": 19451.0, "latitude": 32.32, "longitude": -90.08, "useCount": 0, "id": "KJAN", "name": "KJAN", "quality": 100, "contribution": 0.0}}}