{"queryCost": 1, "latitude": 33.452, "longitude": -112.238, "resolvedAddress": "33.45200,-112.23800", "address": "33.45200,-112.23800", "timezone": "America/Phoenix", "tzoffset": -7.0, "days": [{"datetime": "2019-08-30", "datetimeEpoch": 1567148400, "tempmax": 108.7, "tempmin": 84.3, "temp": 96.8, "feelslikemax": 109.1, "feelslikemin": 85.9, "feelslike": 97.3, "dew": 59.9, "humidity": 32.08, "precip": 0.0, "precipprob": null, "precipcover": 0.0, "preciptype": null, "snow": 0.0, "snowdepth": 0.0, "windgust": 22.9, "windspeed": 13.2, "winddir": 155.7, "pressure": 1008.0, "cloudcover": 6.5, "visibility": 9.9, "solarradiation": 421.2, "solarenergy": 22.7, "uvindex": 8.0, "sunrise": "06:01:32", "sunriseEpoch": 1567170092, "sunset": "18:57:07", "sunsetEpoch": 1567216627, "moonphase": 0.0, "conditions": "Clear", "description": "Clear conditions throughout the day.", "icon": "clear-day", "stations": ["72278403184", "KLUF", "KDVT", "72278023183", "KPHX", "72278523111", "SRP28"], "source": "obs"}], "stations": {"72278403184": {"distance": 30022.0, "latitude": 33.688, "longitude": -112.082, "useCount": 0, "id": "72278403184", "name": "PHOENIX DEER VALLEY MUNICIPAL AIRPORT, AZ US", "quality": 100, "contribution": 0.0}, "KLUF": {"distance": 15786.0, "latitude": 33.53, "longitude": -112.38, "useCount": 0, "id": "KLUF", "name": "KLUF", "quality": 100, "contribution": 0.0}, "KDVT": {"distance": 29783.0, "latitude": 33.68, "longitude": -112.07, "useCount": 0, "id": "KDVT", "name": "KDVT", "quality": 100, "contribution": 0.0}, "72278023183": {"distance": 21904.0, "latitude": 33.428, "longitude": -112.004, "useCount": 0, "id": "72278023183", "name": "PHOENIX AIRPORT, AZ US", "quality": 100, "contribution": 0.0}, "KPHX": {"distance": 20398.0, "latitude": 33.43, "longitude": -112.02, "useCount": 0, "id": "KPHX", "name": "KPHX", "quality": 100, "contribution": 0.0}, "72278523111": {"distance": 16199.0, "latitude": 33.55, "longitude": -112.367, "useCount": 0, "id": "72278523111", "name": "PHOENIX LUKE AFB, AZ US", "quality": 96, "contribution": 0.0}, "SRP28": {"distance": 4911.0, "latitude": 33.46, "longitude": -112.29, "useCount": 0, "id": "SRP28", "name": "Collier AZ US SRP", "quality": 0, "contribution": 0.0}}}