{"queryCost": 1, "latitude": 34.172, "longitude": -118.155, "resolvedAddress": "34.17200,-118.15500", "address": "34.17200,-118.15500", "timezone": "America/Los_Angeles", "tzoffset": -7.0, "days": [{"datetime": "2019-05-17", "datetimeEpoch": 1558076400, "tempmax": 71.6, "tempmin": 52.3, "temp": 62.1, "feelslikemax": 71.6, "feelslikemin": 52.3, "feelslike": 62.1, "dew": 43.1, "humidity": 52.86, "precip": 0.0, "precipprob": null, "precipcover": 0.0, "preciptype": null, "snow": 0.0, "snowdepth": 0.0, "windgust": 26.4, "windspeed": 15.6, "winddir": 205.7, "pressure": 1014.1, "cloudcover": 1.0, "visibility": 9.9, "solarradiation": 482.7, "solarenergy": 26.1, "uvindex": 10.0, "sunrise": "05:49:30", "sunriseEpoch": 1558097370, "sunset": "19:48:58", "sunsetEpoch": 1558147738, "moonphase": 0.49, "conditions": "Clear", "description": "Clear conditions throughout the day.", "icon": "clear-day", "stations": ["KVNY", "KBUR", "72288623130", "72288023152", "C9948"], "source": "obs"}], "stations": {"72288623130": {"distance": 31040.0, "latitude": 34.21, "longitude": -118.489, "useCount": 0, "id": "72288623130", "name": "VAN NUYS AIRPORT, CA US", "quality": 100, "contribution": 0.0}, "72288023152": {"distance": 18872.0, "latitude": 34.201, "longitude": -118.357, "useCount": 0, "id": "72288023152", "name": "BURBANK GLENDALE PASADENA AIRPORT, CA US", "quality": 100, "contribution": 0.0}, "KVNY": {"distance": 30398.0, "latitude": 34.22, "longitude": -118.48, "useCount": 0, "id": "KVNY", "name": "KVNY", "quality": 100, "contribution": 0.0}, "C9948": {"distance": 4200.0, "latitude": 34.206, "longitude": -118.174, "useCount": 0, "id": "C9948", "name": "CW9948 La Canada Flintridge CA US", "quality": 0, "contribution": 0.0}, "KBUR": {"distance": 18225.0, "latitude": 34.2, "longitude": -118.35, "useCount": 0, "id": "KBUR", "name": "KBUR", "quality": 100, "contribution": 0.0}}}