{"queryCost": 1, "latitude": 34.538, "longitude": -117.327, "resolvedAddress": "34.53800,-117.32700", "address": "34.53800,-117.32700", "timezone": "America/Los_Angeles", "tzoffset": -7.0, "days": [{"datetime": "2019-09-04", "datetimeEpoch": 1567580400, "tempmax": 93.6, "tempmin": 65.5, "temp": 79.2, "feelslikemax": 90.3, "feelslikemin": 65.5, "feelslike": 77.9, "dew": 50.5, "humidity": 40.44, "precip": 0.0, "precipprob": null, "precipcover": 0.0, "preciptype": null, "snow": 0.0, "snowdepth": 0.0, "windgust": 20.8, "windspeed": 10.6, "winddir": 265.8, "pressure": 1009.9, "cloudcover": 17.3, "visibility": 9.9, "solarradiation": 447.1, "solarenergy": 22.5, "uvindex": 9.0, "sunrise": "06:24:24", "sunriseEpoch": 1567603464, "sunset": "19:11:44", "sunsetEpoch": 1567649504, "moonphase": 0.16, "conditions": "Clear", "description": "Clear conditions throughout the day.", "icon": "clear-day", "stations": ["KL35", "CI117", "72095299999", "KONT", "A0685400115", "74704003102", "72381523161"], "source": "obs"}], "stations": {"KL35": {"distance": 52893.0, "latitude": 34.26, "longitude": -116.86, "useCount": 0, "id": "KL35", "name": "KL35", "quality": 100, "contribution": 0.0}, "CI117": {"distance": 9015.0, "latitude": 34.478, "longitude": -117.261, "useCount": 0, "id": "CI117", "name": "Victorville CA US CIMIS", "quality": 0, "contribution": 0.0}, "72095299999": {"distance": 32036.0, "latitude": 34.564, "longitude": -117.675, "useCount": 0, "id": "72095299999", "name": "GRAY BUTTE FIELD, CA US", "quality": 93, "contribution": 0.0}, "KONT": {"distance": 60858.0, "latitude": 34.04, "longitude": -117.6, "useCount": 0, "id": "KONT", "name": "KONT", "quality": 100, "contribution": 0.0}, "A0685400115": {"distance": 53083.0, "latitude": 34.264, "longitude": -116.854, "useCount": 0, "id": "A0685400115", "name": "BIG BEAR CITY AIRPORT, CA US", "quality": 100, "contribution": 0.0}, "74704003102": {"distance": 59229.0, "latitude": 34.056, "longitude": -117.6, "useCount": 0, "id": "74704003102", "name": "ONTARIO INTERNATIONAL AIRPORT, CA US", "quality": 100, "contribution": 0.0}, "72381523161": {"distance": 60713.0, "latitude": 34.854, "longitude": -116.786, "useCount": 0, "id": "72381523161", "name": "BARSTOW DAGGETT AIRPORT, CA US", "quality": 100, "contribution": 0.0}}}