{"queryCost": 1, "latitude": 47.233, "longitude": -122.409, "resolvedAddress": "47.23300,-122.40900", "address": "47.23300,-122.40900", "timezone": "America/Los_Angeles", "tzoffset": -7.0, "days": [{"datetime": "2019-09-08", "datetimeEpoch": 1567926000, "tempmax": 70.4, "tempmin": 57.8, "temp": 61.9, "feelslikemax": 70.4, "feelslikemin": 57.8, "feelslike": 61.9, "dew": 58.8, "humidity": 90.3, "precip": 0.02, "precipprob": 100.0, "precipcover": 8.33, "preciptype": ["rain"], "snow": 0.0, "snowdepth": 0.0, "windgust": 18.3, "windspeed": 12.7, "winddir": 199.9, "pressure": 1013.0, "cloudcover": 78.1, "visibility": 9.8, "solarradiation": 111.0, "solarenergy": 9.8, "uvindex": 5.0, "sunrise": "06:37:43", "sunriseEpoch": 1567949863, "sunset": "19:36:01", "sunsetEpoch": 1567996561, "moonphase": 0.37, "conditions": "Rain, Partially cloudy", "description": "Partly cloudy throughout the day with rain.", "icon": "rain", "stations": ["KTCM", "KGRF", "KTIW", "E6584", "74206024207", "72793894274", "74207124201"], "source": "obs"}], "stations": {"KTCM": {"distance": 12662.0, "latitude": 47.13, "longitude": -122.48, "useCount": 0, "id": "KTCM", "name": "KTCM", "quality": 100, "contribution": 0.0}, "KGRF": {"distance": 21392.0, "latitude": 47.08, "longitude": -122.58, "useCount": 0, "id": "KGRF", "name": "KGRF", "quality": 100, "contribution": 0.0}, "KTIW": {"distance": 13562.0, "latitude": 47.27, "longitude": -122.58, "useCount": 0, "id": "KTIW", "name": "KTIW", "quality": 100, "contribution": 0.0}, "E6584": {"distance": 6619.0, "latitude": 47.288, "longitude": -122.375, "useCount": 0, "id": "E6584", "name": "EW6584 Tacoma WA US", "quality": 0, "contribution": 0.0}, "74206024207": {"distance": 10803.0, "latitude": 47.15, "longitude": -122.483, "useCount": 0, "id": "74206024207", "name": "TACOMA MCCHORD AFB, WA US", "quality": 96, "contribution": 0.0}, "72793894274": {"distance": 13191.0, "latitude": 47.268, "longitude": -122.576, "useCount": 0, "id": "72793894274", "name": "TACOMA NARROWS AIRPORT, WA US", "quality": 100, "contribution": 0.0}, "74207124201": {"distance": 21241.0, "latitude": 47.083, "longitude": -122.583, "useCount": 0, "id": "74207124201", "name": "GRAY ARMY AIR FIELD, WA US", "quality": 96, "contribution": 0.0}}}