{"queryCost": 1, "latitude": 34.129, "longitude": -117.877, "resolvedAddress": "34.12900,-117.87700", "address": "34.12900,-117.87700", "timezone": "America/Los_Angeles", "tzoffset": -7.0, "days": [{"datetime": "2019-09-06", "datetimeEpoch": 1567753200, "tempmax": 95.9, "tempmin": 70.7, "temp": 82.1, "feelslikemax": 94.5, "feelslikemin": 70.7, "feelslike": 81.6, "dew": 58.0, "humidity": 46.6, "precip": 0.0, "precipprob": 0.0, "precipcover": 0.0, "preciptype": null, "snow": 0.0, "snowdepth": 0.0, "windgust": 21.9, "windspeed": 13.6, "winddir": 202.3, "pressure": 1014.9, "cloudcover": 15.9, "visibility": 9.8, "solarradiation": 181.6, "solarenergy": 15.7, "uvindex": 6.0, "sunrise": "06:28:19", "sunriseEpoch": 1567776499, "sunset": "19:10:53", "sunsetEpoch": 1567822253, "moonphase": 0.27, "conditions": "Clear", "description": "Clear conditions throughout the day.", "icon": "clear-day", "stations": ["KFUL", "72289903179", "KONT", "KCNO", "STFC1", "74704003102", "72297603166"], "source": "obs"}], "stations": {"KFUL": {"distance": 31418.0, "latitude": 33.86, "longitude": -117.98, "useCount": 0, "id": "KFUL", "name": "KFUL", "quality": 100, "contribution": 0.0}, "72289903179": {"distance": 28050.0, "latitude": 33.975, "longitude": -117.636, "useCount": 0, "id": "72289903179", "name": "CHINO AIRPORT, CA US", "quality": 100, "contribution": 0.0}, "KONT": {"distance": 27393.0, "latitude": 34.04, "longitude": -117.6, "useCount": 0, "id": "KONT", "name": "KONT", "quality": 100, "contribution": 0.0}, "KCNO": {"distance": 28850.0, "latitude": 33.97, "longitude": -117.63, "useCount": 0, "id": "KCNO", "name": "KCNO", "quality": 100, "contribution": 0.0}, "STFC1": {"distance": 6459.0, "latitude": 34.126, "longitude": -117.947, "useCount": 0, "id": "STFC1", "name": "SANTA FE DAM CA US", "quality": 0, "contribution": 0.0}, "74704003102": {"distance": 26794.0, "latitude": 34.056, "longitude": -117.6, "useCount": 0, "id": "74704003102", "name": "ONTARIO INTERNATIONAL AIRPORT, CA US", "quality": 100, "contribution": 0.0}, "72297603166": {"distance": 30129.0, "latitude": 33.872, "longitude": -117.979, "useCount": 0, "id": "72297603166", "name": "FULLERTON MUNICIPAL AIRPORT, CA US", "quality": 100, "contribution": 0.0}}}