{"queryCost": 1, "latitude": 35.595, "longitude": -97.621, "resolvedAddress": "35.59500,-97.62100", "address": "35.59500,-97.62100", "timezone": "America/Chicago", "tzoffset": -5.0, "days": [{"datetime": "2019-09-09", "datetimeEpoch": 1568005200, "tempmax": 91.0, "tempmin": 72.7, "temp": 82.8, "feelslikemax": 94.3, "feelslikemin": 72.7, "feelslike": 84.4, "dew": 65.6, "humidity": 57.1, "precip": 0.0, "precipprob": 0.0, "precipcover": 0.0, "preciptype": null, "snow": 0.0, "snowdepth": 0.0, "windgust": 30.7, "windspeed": 20.4, "winddir": 172.6, "pressure": 1012.3, "cloudcover": 5.9, "visibility": 9.9, "solarradiation": 235.2, "solarenergy": 20.4, "uvindex": 9.0, "sunrise": "07:08:27", "sunriseEpoch": 1568030907, "sunset": "19:46:40", "sunsetEpoch": 1568076400, "moonphase": 0.41, "conditions": "Clear", "description": "Clear conditions throughout the day.", "icon": "clear-day", "stations": ["72353013967", "KRCE", "E6087", "KPWA", "72354403954", "72062800215", "KOKC"], "source": "obs"}], "stations": {"72353013967": {"distance": 23017.0, "latitude": 35.389, "longitude": -97.601, "useCount": 0, "id": "72353013967", "name": "OKLAHOMA CITY WILL ROGERS WORLD AIRPORT, OK US", "quality": 100, "contribution": 0.0}, "KRCE": {"distance": 22773.0, "latitude": 35.47, "longitude": -97.82, "useCount": 0, "id": "KRCE", "name": "KRCE", "quality": 95, "contribution": 0.0}, "E6087": {"distance": 12788.0, "latitude": 35.652, "longitude": -97.498, "useCount": 0, "id": "E6087", "name": "EW6087 Edmond OK US", "quality": 0, "contribution": 0.0}, "KPWA": {"distance": 7698.0, "latitude": 35.53, "longitude": -97.65, "useCount": 0, "id": "KPWA", "name": "KPWA", "quality": 100, "contribution": 0.0}, "72354403954": {"distance": 7163.0, "latitude": 35.534, "longitude": -97.647, "useCount": 0, "id": "72354403954", "name": "OKLAHOMA CITY WILEY POST AIRPORT, OK US", "quality": 100, "contribution": 0.0}, "72062800215": {"distance": 21695.0, "latitude": 35.483, "longitude": -97.817, "useCount": 0, "id": "72062800215", "name": "CLARENCE E PAGE MUNICIPAL AIRPORT, OK US", "quality": 100, "contribution": 0.0}, "KOKC": {"distance": 21791.0, "latitude": 35.4, "longitude": -97.6, "useCount": 0, "id": "KOKC", "name": "KOKC", "quality": 100, "contribution": 0.0}}}