{"queryCost": 1, "latitude": 39.078, "longitude": -94.462, "resolvedAddress": "39.07800,-94.46200", "address": "39.07800,-94.46200", "timezone": "America/Chicago", "tzoffset": -5.0, "days": [{"datetime": "2019-09-12", "datetimeEpoch": 1568264400, "tempmax": 84.0, "tempmin": 73.5, "temp": 78.5, "feelslikemax": 88.0, "feelslikemin": 73.5, "feelslike": 79.4, "dew": 68.9, "humidity": 73.01, "precip": 0.27, "precipprob": null, "precipcover": 20.83, "preciptype": null, "snow": 0.0, "snowdepth": 0.0, "windgust": 28.3, "windspeed": 15.5, "winddir": 212.6, "pressure": 1015.1, "cloudcover": 43.4, "visibility": 9.8, "solarradiation": 147.5, "solarenergy": 10.1, "uvindex": 6.0, "sunrise": "06:56:14", "sunriseEpoch": 1568289374, "sunset": "19:31:25", "sunsetEpoch": 1568334685, "moonphase": 0.49, "conditions": "Rain, Partially cloudy", "description": "Partly cloudy throughout the day with rain.", "icon": "rain", "stations": ["A1182", "72030653879", "D5552", "72446003947", "KMKC", "KLXT", "KOJC", "72446313988"], "source": "obs"}], "stations": {"A1182": {"distance": 3495.0, "latitude": 39.048, "longitude": -94.45, "useCount": 0, "id": "A1182", "name": "Blue Ridge I-70 MO MODNR", "quality": 0, "contribution": 0.0}, "72030653879": {"distance": 15324.0, "latitude": 38.96, "longitude": -94.371, "useCount": 0, "id": "72030653879", "name": "LEES SUMMIT MUNICIPAL AIRPORT, MO US", "quality": 100, "contribution": 0.0}, "D5552": {"distance": 9602.0, "latitude": 39.086, "longitude": -94.351, "useCount": 0, "id": "D5552", "name": "DW5552 Independence MO US", "quality": 0, "contribution": 0.0}, "72446003947": {"distance": 33653.0, "latitude": 39.297, "longitude": -94.731, "useCount": 0, "id": "72446003947", "name": "KANSAS CITY INTERNATIONAL AIRPORT, MO US", "quality": 100, "contribution": 0.0}, "KMKC": {"distance": 12443.0, "latitude": 39.11, "longitude": -94.6, "useCount": 0, "id": "KMKC", "name": "KMKC", "quality": 100, "contribution": 0.0}, "KLXT": {"distance": 15358.0, "latitude": 38.96, "longitude": -94.37, "useCount": 0, "id": "KLXT", "name": "KLXT", "quality": 100, "contribution": 0.0}, "KOJC": {"distance": 34384.0, "latitude": 38.85, "longitude": -94.73, "useCount": 0, "id": "KOJC", "name": "KOJC", "quality": 100, "contribution": 0.0}, "72446313988": {"distance": 12590.0, "latitude": 39.121, "longitude": -94.597, "useCount": 0, "id": "72446313988", "name": "KANSAS CITY DOWNTOWN AIRPORT, MO US", "quality": 100, "contribution": 0.0}}}