{"queryCost": 1, "latitude": 37.643, "longitude": -77.62, "resolvedAddress": "37.64300,-77.62000", "address": "37.64300,-77.62000", "timezone": "America/New_York", "tzoffset": -4.0, "days": [{"datetime": "2019-09-17", "datetimeEpoch": 1568692800, "tempmax": 78.5, "tempmin": 64.9, "temp": 72.2, "feelslikemax": 78.5, "feelslikemin": 64.9, "feelslike": 72.2, "dew": 64.7, "humidity": 78.18, "precip": 0.01, "precipprob": null, "precipcover": 8.33, "preciptype": null, "snow": 0.0, "snowdepth": 0.0, "windgust": 21.9, "windspeed": 11.2, "winddir": 39.3, "pressure": 1017.6, "cloudcover": 64.3, "visibility": 9.6, "solarradiation": 123.2, "solarenergy": 5.8, "uvindex": 5.0, "sunrise": "06:53:47", "sunriseEpoch": 1568717627, "sunset": "19:15:39", "sunsetEpoch": 1568762139, "moonphase": 0.55, "conditions": "Rain, Partially cloudy", "description": "Partly cloudy throughout the day with morning rain.", "icon": "rain", "stations": ["C0630", "KRIC", "KFCI", "AS694", "72401013740", "K7W4", "KOFP", "72308493775"], "source": "obs"}], "stations": {"C0630": {"distance": 4682.0, "latitude": 37.655, "longitude": -77.569, "useCount": 0, "id": "C0630", "name": "CW0630 Glen Allen VA US", "quality": 0, "contribution": 0.0}, "KRIC": {"distance": 30135.0, "latitude": 37.5, "longitude": -77.33, "useCount": 0, "id": "KRIC", "name": "RICHMOND/BYRD FI, VA", "quality": 100, "contribution": 0.0}, "KFCI": {"distance": 27399.0, "latitude": 37.41, "longitude": -77.52, "useCount": 0, "id": "KFCI", "name": "RICHMOND, VA", "quality": 92, "contribution": 0.0}, "AS694": {"distance": 6019.0, "latitude": 37.601, "longitude": -77.577, "useCount": 0, "id": "AS694", "name": "N4DWK Richmond VA US", "quality": 0, "contribution": 0.0}, "72401013740": {"distance": 29984.0, "latitude": 37.512, "longitude": -77.323, "useCount": 0, "id": "72401013740", "name": "RICHMOND INTERNATIONAL AIRPORT, VA US", "quality": 100, "contribution": 0.0}, "K7W4": {"distance": 37095.0, "latitude": 37.96, "longitude": -77.75, "useCount": 0, "id": "K7W4", "name": "K7W4", "quality": 99, "contribution": 0.0}, "KOFP": {"distance": 17903.0, "latitude": 37.7, "longitude": -77.43, "useCount": 0, "id": "KOFP", "name": "KOFP", "quality": 100, "contribution": 0.0}, "72308493775": {"distance": 17887.0, "latitude": 37.708, "longitude": -77.434, "useCount": 0, "id": "72308493775", "name": "ASHLAND HANOVER CO MUNICIPAL AIRPORT, VA US", "quality": 100, "contribution": 0.0}}}