{"queryCost": 1, "latitude": 33.405, "longitude": -97.198, "resolvedAddress": "33.40500,-97.19800", "address": "33.40500,-97.19800", "timezone": "America/Chicago", "tzoffset": -5.0, "days": [{"datetime": "2019-09-16", "datetimeEpoch": 1568610000, "tempmax": 94.1, "tempmin": 71.1, "temp": 83.0, "feelslikemax": 96.0, "feelslikemin": 71.1, "feelslike": 84.3, "dew": 65.6, "humidity": 58.35, "precip": 0.0, "precipprob": null, "precipcover": 0.0, "preciptype": null, "snow": 0.0, "snowdepth": 0.0, "windgust": 20.8, "windspeed": 12.6, "winddir": 93.6, "pressure": 1015.5, "cloudcover": 8.5, "visibility": 9.4, "solarradiation": 142.7, "solarenergy": 8.7, "uvindex": 3.0, "sunrise": "07:12:42", "sunriseEpoch": 1568635962, "sunset": "19:34:07", "sunsetEpoch": 1568680447, "moonphase": 0.53, "conditions": "Clear", "description": "Clear conditions throughout the day.", "icon": "clear-day", "stations": ["KLUD", "C3518", "72255293929", "KGLE", "KDTO", "72258903991", "72030553964"], "source": "obs"}], "stations": {"KLUD": {"distance": 39499.0, "latitude": 33.25, "longitude": -97.58, "useCount": 0, "id": "KLUD", "name": "KLUD", "quality": 100, "contribution": 0.0}, "C3518": {"distance": 12472.0, "latitude": 33.342, "longitude": -97.309, "useCount": 0, "id": "C3518", "name": "CW3518 Sanger TX US", "quality": 0, "contribution": 0.0}, "72255293929": {"distance": 27429.0, "latitude": 33.651, "longitude": -97.197, "useCount": 0, "id": "72255293929", "name": "GAINESVILLE MUNICIPAL AIRPORT, TX US", "quality": 99, "contribution": 0.0}, "KGLE": {"distance": 27274.0, "latitude": 33.65, "longitude": -97.2, "useCount": 0, "id": "KGLE", "name": "KGLE", "quality": 99, "contribution": 0.0}, "KDTO": {"distance": 22882.0, "latitude": 33.2, "longitude": -97.18, "useCount": 0, "id": "KDTO", "name": "KDTO", "quality": 100, "contribution": 0.0}, "72258903991": {"distance": 22142.0, "latitude": 33.206, "longitude": -97.199, "useCount": 0, "id": "72258903991", "name": "DENTON MUNICPAL AIRPORT, TX US", "quality": 100, "contribution": 0.0}, "72030553964": {"distance": 39337.0, "latitude": 33.254, "longitude": -97.581, "useCount": 0, "id": "72030553964", "name": "DECATUR MUNICIPAL AIRPORT, TX US", "quality": 100, "contribution": 0.0}}}