{"queryCost": 1, "latitude": 38.415, "longitude": -82.444, "resolvedAddress": "38.41500,-82.44400", "address": "38.41500,-82.44400", "timezone": "America/New_York", "tzoffset": -4.0, "days": [{"datetime": "2019-09-24", "datetimeEpoch": 1569297600, "tempmax": 78.9, "tempmin": 53.6, "temp": 66.6, "feelslikemax": 78.9, "feelslikemin": 53.6, "feelslike": 66.6, "dew": 51.4, "humidity": 62.1, "precip": 0.0, "precipprob": 0.0, "precipcover": 0.0, "preciptype": null, "snow": 0.0, "snowdepth": 0.0, "windgust": null, "windspeed": 7.4, "winddir": 219.8, "pressure": 1015.6, "cloudcover": 0.3, "visibility": 9.9, "solarradiation": 212.1, "solarenergy": 18.3, "uvindex": 7.0, "sunrise": "07:19:01", "sunriseEpoch": 1569323941, "sunset": "19:24:03", "sunsetEpoch": 1569367443, "moonphase": 0.88, "conditions": "Clear", "description": "Clear conditions throughout the day.", "icon": "clear-day", "stations": ["72425003860", "72414013866", "KDWU", "72044999999", "BFRW2", "72070599999", "KHTS"], "source": "obs"}], "stations": {"72425003860": {"distance": 11139.0, "latitude": 38.365, "longitude": -82.555, "useCount": 0, "id": "72425003860", "name": "HUNTINGTON TRI STATE AIRPORT, WV US", "quality": 100, "contribution": 0.0}, "72414013866": {"distance": 74611.0, "latitude": 38.379, "longitude": -81.59, "useCount": 0, "id": "72414013866", "name": "CHARLESTON YEAGER AIRPORT, WV US", "quality": 100, "contribution": 0.0}, "KDWU": {"distance": 29958.0, "latitude": 38.555, "longitude": -82.738, "useCount": 0, "id": "KDWU", "name": "Ashland Regional Airport, KY", "quality": 100, "contribution": 0.0}, "72044999999": {"distance": 29958.0, "latitude": 38.555, "longitude": -82.738, "useCount": 0, "id": "72044999999", "name": "ASHLAND REGIONAL, KY US", "quality": 99, "contribution": 0.0}, "BFRW2": {"distance": 12948.0, "latitude": 38.301, "longitude": -82.417, "useCount": 0, "id": "BFRW2", "name": "BEECH FORK WV US", "quality": 0, "contribution": 0.0}, "72070599999": {"distance": 64116.0, "latitude": 38.981, "longitude": -82.578, "useCount": 0, "id": "72070599999", "name": "JAMES A RHODES, OH US", "quality": 100, "contribution": 0.0}, "KHTS": {"distance": 11092.0, "latitude": 38.36, "longitude": -82.55, "useCount": 0, "id": "KHTS", "name": "KHTS", "quality": 100, "contribution": 0.0}}}