{"queryCost": 1, "latitude": 33.932, "longitude": -117.933, "resolvedAddress": "33.93200,-117.93300", "address": "33.93200,-117.93300", "timezone": "America/Los_Angeles", "tzoffset": -7.0, "days": [{"datetime": "2019-09-26", "datetimeEpoch": 1569481200, "tempmax": 77.9, "tempmin": 70.0, "temp": 72.1, "feelslikemax": 77.9, "feelslikemin": 70.0, "feelslike": 72.1, "dew": 61.4, "humidity": 69.26, "precip": 0.0, "precipprob": null, "precipcover": 0.0, "preciptype": null, "snow": 0.0, "snowdepth": 0.0, "windgust": null, "windspeed": 8.8, "winddir": 173.9, "pressure": 1014.1, "cloudcover": 71.3, "visibility": 9.7, "solarradiation": 121.4, "solarenergy": 7.0, "uvindex": 4.0, "sunrise": "06:42:28", "sunriseEpoch": 1569505348, "sunset": "18:43:09", "sunsetEpoch": 1569548589, "moonphase": 0.97, "conditions": "Partially cloudy", "description": "Partly cloudy throughout the day.", "icon": "partly-cloudy-day", "stations": ["KFUL", "72289903179", "D7928", "SE138", "KSLI", "72297603166", "KLGB", "72297023129"], "source": "obs"}], "stations": {"KFUL": {"distance": 9116.0, "latitude": 33.86, "longitude": -117.98, "useCount": 0, "id": "KFUL", "name": "KFUL", "quality": 100, "contribution": 0.0}, "72289903179": {"distance": 27845.0, "latitude": 33.975, "longitude": -117.636, "useCount": 0, "id": "72289903179", "name": "CHINO AIRPORT, CA US", "quality": 100, "contribution": 0.0}, "D7928": {"distance": 4689.0, "latitude": 33.9, "longitude": -117.9, "useCount": 0, "id": "D7928", "name": "DW7928 Fullerton CA US", "quality": 0, "contribution": 0.0}, "SE138": {"distance": 5264.0, "latitude": 33.941, "longitude": -117.877, "useCount": 0, "id": "SE138", "name": "SCE Brea Canyon CA US SC-EDISON", "quality": 0, "contribution": 0.0}, "KSLI": {"distance": 20082.0, "latitude": 33.78, "longitude": -118.05, "useCount": 0, "id": "KSLI", "name": "KSLI", "quality": 93, "contribution": 0.0}, "72297603166": {"distance": 7926.0, "latitude": 33.872, "longitude": -117.979, "useCount": 0, "id": "72297603166", "name": "FULLERTON MUNICIPAL AIRPORT, CA US", "quality": 100, "contribution": 0.0}, "KLGB": {"distance": 23615.0, "latitude": 33.82, "longitude": -118.15, "useCount": 0, "id": "KLGB", "name": "KLGB", "quality": 100, "contribution": 0.0}, "72297023129": {"distance": 23816.0, "latitude": 33.812, "longitude": -118.146, "useCount": 0, "id": "72297023129", "name": "LONG BEACH DAUGHERTY AIRPORT, CA US", "quality": 100, "contribution": 0.0}}}