{"queryCost": 1, "latitude": 34.301, "longitude": -83.82, "resolvedAddress": "34.30100,-83.82000", "address": "34.30100,-83.82000", "timezone": "America/New_York", "tzoffset": -4.0, "days": [{"datetime": "2019-09-20", "datetimeEpoch": 1568952000, "tempmax": 78.2, "tempmin": 61.1, "temp": 68.9, "feelslikemax": 78.2, "feelslikemin": 61.1, "feelslike": 68.9, "dew": 56.0, "humidity": 65.2, "precip": 0.0, "precipprob": 0.0, "precipcover": 0.0, "preciptype": null, "snow": 0.0, "snowdepth": 0.0, "windgust": 17.2, "windspeed": 9.1, "winddir": 73.7, "pressure": 1025.1, "cloudcover": 15.2, "visibility": 9.9, "solarradiation": 228.2, "solarenergy": 19.6, "uvindex": 8.0, "sunrise": "07:21:42", "sunriseEpoch": 1568978502, "sunset": "19:35:16", "sunsetEpoch": 1569022516, "moonphase": 0.67, "conditions": "Clear", "description": "Clear conditions throughout the day.", "icon": "clear-day", "stations": ["KGVL", "72089799999", "74780863803", "0640W", "72218553838", "KLZU"], "source": "obs"}], "stations": {"KGVL": {"distance": 3571.0, "latitude": 34.27, "longitude": -83.83, "useCount": 0, "id": "KGVL", "name": "KGVL", "quality": 100, "contribution": 0.0}, "72089799999": {"distance": 58909.0, "latitude": 33.782, "longitude": -83.693, "useCount": 0, "id": "72089799999", "name": "MONROE WALTON CO, GA US", "quality": 100, "contribution": 0.0}, "74780863803": {"distance": 38126.0, "latitude": 33.98, "longitude": -83.963, "useCount": 0, "id": "74780863803", "name": "LAWRENCEVILLE GWINNET CO BRISCOE FIELD AIRPORT, GA US", "quality": 96, "contribution": 0.0}, "0640W": {"distance": 8723.0, "latitude": 34.233, "longitude": -83.867, "useCount": 0, "id": "0640W", "name": "University of North Georgia Gain GA US WEATHERSTEM", "quality": 0, "contribution": 0.0}, "72218553838": {"distance": 3375.0, "latitude": 34.272, "longitude": -83.83, "useCount": 0, "id": "72218553838", "name": "GAINESVILLE LEE GILMER MEMORIAL AIRPORT, GA US", "quality": 100, "contribution": 0.0}, "KLZU": {"distance": 37990.0, "latitude": 33.98, "longitude": -83.96, "useCount": 0, "id": "KLZU", "name": "LAWRENCEVILLE, GA", "quality": 98, "contribution": 0.0}}}