{"queryCost": 1, "latitude": 34.816, "longitude": -77.561, "resolvedAddress": "34.81600,-77.56100", "address": "34.81600,-77.56100", "timezone": "America/New_York", "tzoffset": -4.0, "days": [{"datetime": "2019-09-24", "datetimeEpoch": 1569297600, "tempmax": 87.4, "tempmin": 63.3, "temp": 74.5, "feelslikemax": 90.1, "feelslikemin": 63.3, "feelslike": 75.3, "dew": 65.9, "humidity": 77.09, "precip": 0.0, "precipprob": null, "precipcover": 0.0, "preciptype": null, "snow": 0.0, "snowdepth": 0.0, "windgust": null, "windspeed": 9.1, "winddir": 201.2, "pressure": 1012.1, "cloudcover": 26.4, "visibility": 9.9, "solarradiation": 338.3, "solarenergy": 17.0, "uvindex": 8.0, "sunrise": "06:59:29", "sunriseEpoch": 1569322769, "sunset": "19:04:36", "sunsetEpoch": 1569366276, "moonphase": 0.88, "conditions": "Partially cloudy", "description": "Clearing in the afternoon.", "icon": "partly-cloudy-day", "stations": ["KNCA", "72309693727", "72306993753", "KDPL", "74692903702", "CLJN7", "KOAJ", "HFMN7"], "source": "obs"}], "stations": {"KNCA": {"distance": 14739.0, "latitude": 34.72, "longitude": -77.45, "useCount": 0, "id": "KNCA", "name": "KNCA", "quality": 100, "contribution": 0.0}, "72309693727": {"distance": 16326.0, "latitude": 34.708, "longitude": -77.44, "useCount": 0, "id": "72309693727", "name": "NEW RIVER MCAF, NC US", "quality": 100, "contribution": 0.0}, "72306993753": {"distance": 5442.0, "latitude": 34.833, "longitude": -77.617, "useCount": 0, "id": "72306993753", "name": "JACKSONVILLE ALBERT ELLIS AIRPORT, NC US", "quality": 100, "contribution": 0.0}, "KDPL": {"distance": 43389.0, "latitude": 35.0, "longitude": -77.98, "useCount": 0, "id": "KDPL", "name": "KDPL", "quality": 93, "contribution": 0.0}, "74692903702": {"distance": 43526.0, "latitude": 35.0, "longitude": -77.982, "useCount": 0, "id": "74692903702", "name": "KENANSVILLE DUPLIN CO AIRPORT, NC US", "quality": 100, "contribution": 0.0}, "CLJN7": {"distance": 23668.0, "latitude": 34.612, "longitude": -77.487, "useCount": 0, "id": "CLJN7", "name": "SANDY RUN NC US", "quality": 0, "contribution": 0.0}, "KOAJ": {"distance": 5612.0, "latitude": 34.83, "longitude": -77.62, "useCount": 0, "id": "KOAJ", "name": "JACKSNVLLE/ELLIS, NC", "quality": 100, "contribution": 0.0}, "HFMN7": {"distance": 21764.0, "latitude": 34.825, "longitude": -77.323, "useCount": 0, "id": "HFMN7", "name": "HOFMANN FOREST NC US", "quality": 0, "contribution": 0.0}}}