{"queryCost": 1, "latitude": 38.303, "longitude": -121.172, "resolvedAddress": "38.30300,-121.17200", "address": "38.30300,-121.17200", "timezone": "America/Los_Angeles", "tzoffset": -7.0, "days": [{"datetime": "2019-10-06", "datetimeEpoch": 1570345200, "tempmax": 85.4, "tempmin": 49.6, "temp": 65.7, "feelslikemax": 82.3, "feelslikemin": 49.6, "feelslike": 65.2, "dew": 42.1, "humidity": 47.09, "precip": 0.0, "precipprob": null, "precipcover": 0.0, "preciptype": null, "snow": 0.0, "snowdepth": 0.0, "windgust": null, "windspeed": 6.9, "winddir": 163.8, "pressure": 1016.2, "cloudcover": 0.9, "visibility": 9.9, "solarradiation": 231.7, "solarenergy": 10.8, "uvindex": 4.0, "sunrise": "07:04:51", "sunriseEpoch": 1570370691, "sunset": "18:40:10", "sunsetEpoch": 1570412410, "moonphase": 0.29, "conditions": "Clear", "description": "Clear conditions throughout the day.", "icon": "clear-day", "stations": ["KSMF", "KSCK", "72483023232", "72483993225", "BH1WW", "KSAC", "5WLWW", "72492023237"], "source": "obs"}], "stations": {"KSMF": {"distance": 56714.0, "latitude": 38.7, "longitude": -121.58, "useCount": 0, "id": "KSMF", "name": "SACRAMENTO METRO, CA", "quality": 100, "contribution": 0.0}, "KSCK": {"distance": 45379.0, "latitude": 37.9, "longitude": -121.25, "useCount": 0, "id": "KSCK", "name": "KSCK", "quality": 100, "contribution": 0.0}, "72483023232": {"distance": 36182.0, "latitude": 38.507, "longitude": -121.495, "useCount": 0, "id": "72483023232", "name": "SACRAMENTO EXECUTIVE AIRPORT, CA US", "quality": 100, "contribution": 0.0}, "72483993225": {"distance": 56887.0, "latitude": 38.696, "longitude": -121.59, "useCount": 0, "id": "72483993225", "name": "SACRAMENTO METROPOLITAN AIRPORT, CA US", "quality": 100, "contribution": 0.0}, "BH1WW": {"distance": 5864.0, "latitude": 38.293, "longitude": -121.106, "useCount": 0, "id": "BH1WW", "name": "Borden Hills CA US WWG-LLWC", "quality": 0, "contribution": 0.0}, "KSAC": {"distance": 37444.0, "latitude": 38.52, "longitude": -121.5, "useCount": 0, "id": "KSAC", "name": "KSAC", "quality": 100, "contribution": 0.0}, "5WLWW": {"distance": 3625.0, "latitude": 38.276, "longitude": -121.195, "useCount": 0, "id": "5WLWW", "name": "5 Wells CA US WWG-LLWC", "quality": 0, "contribution": 0.0}, "72492023237": {"distance": 46317.0, "latitude": 37.889, "longitude": -121.226, "useCount": 0, "id": "72492023237", "name": "STOCKTON METROPOLITAN AIRPORT, CA US", "quality": 100, "contribution": 0.0}}}