{"queryCost": 1, "latitude": 30.477, "longitude": -81.639, "resolvedAddress": "30.47700,-81.63900", "address": "30.47700,-81.63900", "timezone": "America/New_York", "tzoffset": -4.0, "days": [{"datetime": "2019-10-04", "datetimeEpoch": 1570161600, "tempmax": 89.4, "tempmin": 63.7, "temp": 76.5, "feelslikemax": 92.8, "feelslikemin": 63.7, "feelslike": 77.7, "dew": 67.4, "humidity": 76.5, "precip": 0.0, "precipprob": 0.0, "precipcover": 0.0, "preciptype": null, "snow": 0.0, "snowdepth": 0.0, "windgust": null, "windspeed": 8.2, "winddir": 222.2, "pressure": 1016.1, "cloudcover": 17.7, "visibility": 9.0, "solarradiation": 220.9, "solarenergy": 19.1, "uvindex": 7.0, "sunrise": "07:21:39", "sunriseEpoch": 1570188099, "sunset": "19:08:31", "sunsetEpoch": 1570230511, "moonphase": 0.19, "conditions": "Clear", "description": "Clear conditions throughout the day.", "icon": "clear-day", "stations": ["72206013889", "KNRB", "KJAX", "72094600326", "74782053860", "KCRG", "0346W"], "source": "obs"}], "stations": {"72206013889": {"distance": 5608.0, "latitude": 30.495, "longitude": -81.694, "useCount": 0, "id": "72206013889", "name": "JACKSONVILLE INTERNATIONAL AIRPORT, FL US", "quality": 100, "contribution": 0.0}, "KNRB": {"distance": 22699.0, "latitude": 30.4, "longitude": -81.42, "useCount": 0, "id": "KNRB", "name": "KNRB", "quality": 100, "contribution": 0.0}, "KJAX": {"distance": 6387.0, "latitude": 30.5, "longitude": -81.7, "useCount": 0, "id": "KJAX", "name": "KJAX", "quality": 100, "contribution": 0.0}, "72094600326": {"distance": 22689.0, "latitude": 30.617, "longitude": -81.467, "useCount": 0, "id": "72094600326", "name": "FERNANDINA BEACH MUNICIPAL AIRPORT, FL US", "quality": 100, "contribution": 0.0}, "74782053860": {"distance": 19709.0, "latitude": 30.336, "longitude": -81.515, "useCount": 0, "id": "74782053860", "name": "JACKSONVILLE CRAIG MUNICIPAL AIRPORT, FL US", "quality": 100, "contribution": 0.0}, "KCRG": {"distance": 19958.0, "latitude": 30.33, "longitude": -81.52, "useCount": 0, "id": "KCRG", "name": "KCRG", "quality": 100, "contribution": 0.0}, "0346W": {"distance": 16008.0, "latitude": 30.611, "longitude": -81.579, "useCount": 0, "id": "0346W", "name": "Yulee Middle School and High Sch FL US WEATHERSTEM", "quality": 0, "contribution": 0.0}}}