{"queryCost": 1, "latitude": 34.712, "longitude": -118.148, "resolvedAddress": "34.71200,-118.14800", "address": "34.71200,-118.14800", "timezone": "America/Los_Angeles", "tzoffset": -7.0, "days": [{"datetime": "2019-10-10", "datetimeEpoch": 1570690800, "tempmax": 70.8, "tempmin": 44.0, "temp": 57.9, "feelslikemax": 70.8, "feelslikemin": 40.4, "feelslike": 57.0, "dew": 8.4, "humidity": 19.82, "precip": 0.0, "precipprob": null, "precipcover": 0.0, "preciptype": null, "snow": 0.0, "snowdepth": 0.0, "windgust": 34.4, "windspeed": 24.2, "winddir": 130.5, "pressure": 1016.4, "cloudcover": 6.7, "visibility": 10.2, "solarradiation": 427.4, "solarenergy": 20.0, "uvindex": 8.0, "sunrise": "06:54:04", "sunriseEpoch": 1570715644, "sunset": "18:24:35", "sunsetEpoch": 1570757075, "moonphase": 0.45, "conditions": "Clear", "description": "Clear conditions throughout the day.", "icon": "clear-day", "stations": ["SE178", "72381023114", "KWJF", "72382023182", "72381603159", "KEDW", "KPMD"], "source": "obs"}], "stations": {"SE178": {"distance": 12778.0, "latitude": 34.622, "longitude": -118.234, "useCount": 0, "id": "SE178", "name": "SCE Godde Pass CA US SC-EDISON", "quality": 0, "contribution": 0.0}, "72381023114": {"distance": 33131.0, "latitude": 34.9, "longitude": -117.867, "useCount": 0, "id": "72381023114", "name": "EDWARDS AFB, CA US", "quality": 96, "contribution": 0.0}, "KWJF": {"distance": 6648.0, "latitude": 34.72, "longitude": -118.22, "useCount": 0, "id": "KWJF", "name": "KWJF", "quality": 100, "contribution": 0.0}, "72382023182": {"distance": 10903.0, "latitude": 34.629, "longitude": -118.084, "useCount": 0, "id": "72382023182", "name": "PALMDALE AIRPORT, CA US", "quality": 100, "contribution": 0.0}, "72381603159": {"distance": 6692.0, "latitude": 34.741, "longitude": -118.212, "useCount": 0, "id": "72381603159", "name": "LANCASTER, CA US", "quality": 100, "contribution": 0.0}, "KEDW": {"distance": 32219.0, "latitude": 34.9, "longitude": -117.88, "useCount": 0, "id": "KEDW", "name": "KEDW", "quality": 100, "contribution": 0.0}, "KPMD": {"distance": 11049.0, "latitude": 34.63, "longitude": -118.08, "useCount": 0, "id": "KPMD", "name": "KPMD", "quality": 98, "contribution": 0.0}}}