{"queryCost": 1, "latitude": 27.746, "longitude": -97.413, "resolvedAddress": "27.74600,-97.41300", "address": "27.74600,-97.41300", "timezone": "America/Chicago", "tzoffset": -5.0, "days": [{"datetime": "2019-10-13", "datetimeEpoch": 1570942800, "tempmax": 78.2, "tempmin": 65.8, "temp": 72.6, "feelslikemax": 78.2, "feelslikemin": 65.8, "feelslike": 72.6, "dew": 59.3, "humidity": 64.64, "precip": 0.0, "precipprob": null, "precipcover": 4.17, "preciptype": null, "snow": 0.0, "snowdepth": 0.0, "windgust": null, "windspeed": 15.3, "winddir": 68.3, "pressure": 1015.0, "cloudcover": 86.5, "visibility": 9.9, "solarradiation": 153.8, "solarenergy": 7.2, "uvindex": 3.0, "sunrise": "07:28:33", "sunriseEpoch": 1570969713, "sunset": "19:02:51", "sunsetEpoch": 1571011371, "moonphase": 0.5, "conditions": "Partially cloudy", "description": "Partly cloudy throughout the day.", "icon": "partly-cloudy-day", "stations": ["KCRP", "72251012924", "72251512926", "F2599", "KRAS", "AN573", "99999912946", "KNGP"], "source": "obs"}], "stations": {"KCRP": {"distance": 8977.0, "latitude": 27.77, "longitude": -97.5, "useCount": 0, "id": "KCRP", "name": "KCRP", "quality": 100, "contribution": 0.0}, "72251012924": {"distance": 10264.0, "latitude": 27.774, "longitude": -97.512, "useCount": 0, "id": "72251012924", "name": "CORPUS CHRISTI INTERNATIONAL AIRPORT, TX US", "quality": 100, "contribution": 0.0}, "72251512926": {"distance": 14563.0, "latitude": 27.683, "longitude": -97.283, "useCount": 0, "id": "72251512926", "name": "CORPUS CHRISTI NAS, TX US", "quality": 100, "contribution": 0.0}, "F2599": {"distance": 20789.0, "latitude": 27.903, "longitude": -97.298, "useCount": 0, "id": "F2599", "name": "FW2599 Portland TX US", "quality": 0, "contribution": 0.0}, "KRAS": {"distance": 32601.0, "latitude": 27.81, "longitude": -97.09, "useCount": 0, "id": "KRAS", "name": "KRAS", "quality": 100, "contribution": 0.0}, "AN573": {"distance": 2996.0, "latitude": 27.765, "longitude": -97.434, "useCount": 0, "id": "AN573", "name": "Corpus Christi West C4 TX TCEQ", "quality": 0, "contribution": 0.0}, "99999912946": {"distance": 5498.0, "latitude": 27.7, "longitude": -97.433, "useCount": 0, "id": "99999912946", "name": "CORPUS CHRISTI CABANISS FIELD NAVAL OUTLYING FIELD, TX US", "quality": 91, "contribution": 0.0}, "KNGP": {"distance": 14071.0, "latitude": 27.7, "longitude": -97.28, "useCount": 0, "id": "KNGP", "name": "KNGP", "quality": 99, "contribution": 0.0}}}