{"queryCost": 1, "latitude": 36.783, "longitude": -76.348, "resolvedAddress": "36.78300,-76.34800", "address": "36.78300,-76.34800", "timezone": "America/New_York", "tzoffset": -5.0, "days": [{"datetime": "2015-01-14", "datetimeEpoch": 1421211600, "tempmax": 38.8, "tempmin": 34.3, "temp": 36.8, "feelslikemax": 30.7, "feelslikemin": 23.7, "feelslike": 27.6, "dew": 32.0, "humidity": 82.5, "precip": 0.37, "precipprob": 100.0, "precipcover": 41.67, "preciptype": ["rain", "snow"], "snow": 0.0, "snowdepth": 0.0, "windgust": 31.7, "windspeed": 21.9, "winddir": 267.5, "pressure": 1023.9, "cloudcover": 100.0, "visibility": 5.4, "solarradiation": 44.8, "solarenergy": 4.0, "uvindex": 2.0, "sunrise": "07:17:34", "sunriseEpoch": 1421237854, "sunset": "17:11:32", "sunsetEpoch": 1421273492, "moonphase": 0.81, "conditions": "Snow, Rain, Overcast", "description": "Cloudy skies throughout the day with rain or snow.", "icon": "rain", "stations": ["KNFE", "KNGU", "72308513750", "KORF", "72308013737", "72517213762"], "source": "obs"}], "stations": {"KNFE": {"distance": 21530.0, "latitude": 36.7, "longitude": -76.13, "useCount": 0, "id": "KNFE", "name": "KNFE", "quality": 100, "contribution": 0.0}, "KNGU": {"distance": 17449.0, "latitude": 36.93, "longitude": -76.28, "useCount": 0, "id": "KNGU", "name": "KNGU", "quality": 100, "contribution": 0.0}, "72308513750": {"distance": 17976.0, "latitude": 36.938, "longitude": -76.289, "useCount": 0, "id": "72308513750", "name": "NORFOLK NAS, VA US", "quality": 100, "contribution": 0.0}, "KORF": {"distance": 18533.0, "latitude": 36.9, "longitude": -76.2, "useCount": 0, "id": "KORF", "name": "KORF", "quality": 100, "contribution": 0.0}, "72308013737": {"distance": 19287.0, "latitude": 36.903, "longitude": -76.192, "useCount": 0, "id": "72308013737", "name": "NORFOLK INTERNATIONAL AIRPORT, VA US", "quality": 100, "contribution": 0.0}, "72517213762": {"distance": 21330.0, "latitude": 36.695, "longitude": -76.136, "useCount": 0, "id": "72517213762", "name": "FENTRESS NAVAL AUXILIARY FIELD, VA US", "quality": 100, "contribution": 0.0}}}