{"queryCost": 1, "latitude": 42.776, "longitude": -114.704, "resolvedAddress": "42.77600,-114.70400", "address": "42.77600,-114.70400", "timezone": "America/Boise", "tzoffset": -6.0, "days": [{"datetime": "2019-10-15", "datetimeEpoch": 1571119200, "tempmax": 70.1, "tempmin": 36.5, "temp": 52.4, "feelslikemax": 70.1, "feelslikemin": 29.7, "feelslike": 50.4, "dew": 29.2, "humidity": 44.97, "precip": 0.0, "precipprob": null, "precipcover": 0.0, "preciptype": null, "snow": 0.0, "snowdepth": 0.0, "windgust": null, "windspeed": 12.5, "winddir": 111.9, "pressure": 1020.4, "cloudcover": 0.0, "visibility": 9.9, "solarradiation": 334.8, "solarenergy": 15.7, "uvindex": 6.0, "sunrise": "07:51:53", "sunriseEpoch": 1571147513, "sunset": "18:56:37", "sunsetEpoch": 1571187397, "moonphase": 0.52, "conditions": "Clear", "description": "Clear conditions throughout the day.", "icon": "clear-day", "stations": ["72586694178", "TWFI", "72681604110", "KTWF", "KJER"], "source": "obs"}], "stations": {"72586694178": {"distance": 37252.0, "latitude": 42.482, "longitude": -114.487, "useCount": 0, "id": "72586694178", "name": "TWIN FALLS SUN VALLEY REGIONAL AIRPORT, ID US", "quality": 100, "contribution": 0.0}, "TWFI": {"distance": 38970.0, "latitude": 42.546, "longitude": -114.345, "useCount": 0, "id": "TWFI", "name": "TWIN FALLS ID US AGRIMET", "quality": 0, "contribution": 0.0}, "KTWF": {"distance": 37714.0, "latitude": 42.48, "longitude": -114.48, "useCount": 0, "id": "KTWF", "name": "KTWF", "quality": 100, "contribution": 0.0}, "72681604110": {"distance": 21002.0, "latitude": 42.727, "longitude": -114.456, "useCount": 0, "id": "72681604110", "name": "JEROME CO AIRPORT, ID US", "quality": 100, "contribution": 0.0}, "KJER": {"distance": 20592.0, "latitude": 42.73, "longitude": -114.46, "useCount": 0, "id": "KJER", "name": "KJER", "quality": 100, "contribution": 0.0}}}