{"queryCost": 1, "latitude": 43.639, "longitude": -116.234, "resolvedAddress": "43.63900,-116.23400", "address": "43.63900,-116.23400", "timezone": "America/Boise", "tzoffset": -6.0, "days": [{"datetime": "2019-10-20", "datetimeEpoch": 1571551200, "tempmax": 50.0, "tempmin": 35.5, "temp": 44.0, "feelslikemax": 50.0, "feelslikemin": 31.1, "feelslike": 40.9, "dew": 29.3, "humidity": 57.09, "precip": 0.0, "precipprob": null, "precipcover": 0.0, "preciptype": null, "snow": 0.0, "snowdepth": 0.0, "windgust": null, "windspeed": 13.8, "winddir": 199.0, "pressure": 1019.8, "cloudcover": 38.0, "visibility": 9.9, "solarradiation": 110.3, "solarenergy": 9.1, "uvindex": 5.0, "sunrise": "08:05:07", "sunriseEpoch": 1571580307, "sunset": "18:53:38", "sunsetEpoch": 1571619218, "moonphase": 0.7, "conditions": "Partially cloudy", "description": "Becoming cloudy in the afternoon.", "icon": "partly-cloudy-day", "stations": ["KBOI", "KEUL", "A1712", "99999904127", "KMAN", "72681394195", "72681024131"], "source": "obs"}], "stations": {"KBOI": {"distance": 7764.0, "latitude": 43.57, "longitude": -116.22, "useCount": 0, "id": "KBOI", "name": "KBOI", "quality": 100, "contribution": 0.0}, "KEUL": {"distance": 31921.0, "latitude": 43.63, "longitude": -116.63, "useCount": 0, "id": "KEUL", "name": "CALDWELL (AWOS), ID", "quality": 100, "contribution": 0.0}, "A1712": {"distance": 2988.0, "latitude": 43.648, "longitude": -116.269, "useCount": 0, "id": "A1712", "name": "Garden City ID IDDEQ", "quality": 0, "contribution": 0.0}, "99999904127": {"distance": 63936.0, "latitude": 43.204, "longitude": -116.751, "useCount": 0, "id": "99999904127", "name": "MURPHY 10 W, ID US", "quality": 100, "contribution": 0.0}, "KMAN": {"distance": 23969.0, "latitude": 43.58, "longitude": -116.52, "useCount": 0, "id": "KMAN", "name": "KMAN", "quality": 99, "contribution": 0.0}, "72681394195": {"distance": 32165.0, "latitude": 43.65, "longitude": -116.633, "useCount": 0, "id": "72681394195", "name": "CALDWELL INDUSTRIAL AIRPORT, ID US", "quality": 100, "contribution": 0.0}, "72681024131": {"distance": 8079.0, "latitude": 43.567, "longitude": -116.241, "useCount": 0, "id": "72681024131", "name": "BOISE AIR TERMINAL, ID US", "quality": 100, "contribution": 0.0}}}