{"queryCost": 1, "latitude": 34.259, "longitude": -83.961, "resolvedAddress": "34.25900,-83.96100", "address": "34.25900,-83.96100", "timezone": "America/New_York", "tzoffset": -4.0, "days": [{"datetime": "2019-10-25", "datetimeEpoch": 1571976000, "tempmax": 64.6, "tempmin": 58.0, "temp": 61.4, "feelslikemax": 64.6, "feelslikemin": 58.0, "feelslike": 61.4, "dew": 52.1, "humidity": 72.26, "precip": 0.0, "precipprob": null, "precipcover": 4.17, "preciptype": null, "snow": 0.0, "snowdepth": 0.0, "windgust": 18.3, "windspeed": 13.5, "winddir": 74.3, "pressure": 1022.4, "cloudcover": 81.2, "visibility": 9.8, "solarradiation": 105.6, "solarenergy": 4.6, "uvindex": 2.0, "sunrise": "07:49:17", "sunriseEpoch": 1572004157, "sunset": "18:50:03", "sunsetEpoch": 1572043803, "moonphase": 0.95, "conditions": "Partially cloudy", "description": "Partly cloudy throughout the day.", "icon": "partly-cloudy-day", "stations": ["KGVL", "74780863803", "0640W", "72218553838", "KLZU", "KPDK"], "source": "obs"}], "stations": {"KGVL": {"distance": 12114.0, "latitude": 34.27, "longitude": -83.83, "useCount": 0, "id": "KGVL", "name": "KGVL", "quality": 100, "contribution": 0.0}, "74780863803": {"distance": 31092.0, "latitude": 33.98, "longitude": -83.963, "useCount": 0, "id": "74780863803", "name": "LAWRENCEVILLE GWINNET CO BRISCOE FIELD AIRPORT, GA US", "quality": 96, "contribution": 0.0}, "0640W": {"distance": 9134.0, "latitude": 34.233, "longitude": -83.867, "useCount": 0, "id": "0640W", "name": "University of North Georgia Gain GA US WEATHERSTEM", "quality": 0, "contribution": 0.0}, "72218553838": {"distance": 12110.0, "latitude": 34.272, "longitude": -83.83, "useCount": 0, "id": "72218553838", "name": "GAINESVILLE LEE GILMER MEMORIAL AIRPORT, GA US", "quality": 100, "contribution": 0.0}, "KLZU": {"distance": 31058.0, "latitude": 33.98, "longitude": -83.96, "useCount": 0, "id": "KLZU", "name": "LAWRENCEVILLE, GA", "quality": 98, "contribution": 0.0}, "KPDK": {"distance": 52509.0, "latitude": 33.88, "longitude": -84.3, "useCount": 0, "id": "KPDK", "name": "KPDK", "quality": 100, "contribution": 0.0}}}