{"queryCost": 1, "latitude": 32.518, "longitude": -93.713, "resolvedAddress": "32.51800,-93.71300", "address": "32.51800,-93.71300", "timezone": "America/Chicago", "tzoffset": -5.0, "days": [{"datetime": "2019-10-25", "datetimeEpoch": 1571979600, "tempmax": 62.0, "tempmin": 54.6, "temp": 58.0, "feelslikemax": 62.0, "feelslikemin": 54.6, "feelslike": 58.0, "dew": 54.8, "humidity": 89.7, "precip": 1.32, "precipprob": 100.0, "precipcover": 75.0, "preciptype": ["rain"], "snow": 0.0, "snowdepth": 0.0, "windgust": 24.0, "windspeed": 15.9, "winddir": 192.0, "pressure": 1015.2, "cloudcover": 69.3, "visibility": 6.9, "solarradiation": 12.5, "solarenergy": 1.1, "uvindex": 0.0, "sunrise": "07:26:14", "sunriseEpoch": 1572006374, "sunset": "18:31:08", "sunsetEpoch": 1572046268, "moonphase": 0.95, "conditions": "Rain, Partially cloudy", "description": "Partly cloudy throughout the day with a chance of rain throughout the day.", "icon": "rain", "stations": ["KDTN", "72248513944", "72248013957", "E7656", "KSHV", "72248453905", "KBAD", "CADT2"], "source": "obs"}], "stations": {"KDTN": {"distance": 3721.0, "latitude": 32.53, "longitude": -93.75, "useCount": 0, "id": "KDTN", "name": "KDTN", "quality": 100, "contribution": 0.0}, "72248513944": {"distance": 4786.0, "latitude": 32.5, "longitude": -93.667, "useCount": 0, "id": "72248513944", "name": "SHREVEPORT BARKSDALE AFB, LA US", "quality": 98, "contribution": 0.0}, "72248013957": {"distance": 13098.0, "latitude": 32.447, "longitude": -93.824, "useCount": 0, "id": "72248013957", "name": "SHREVEPORT REGIONAL AIRPORT, LA US", "quality": 100, "contribution": 0.0}, "E7656": {"distance": 8847.0, "latitude": 32.567, "longitude": -93.787, "useCount": 0, "id": "E7656", "name": "EW7656 Shreveport LA US", "quality": 0, "contribution": 0.0}, "KSHV": {"distance": 11379.0, "latitude": 32.47, "longitude": -93.82, "useCount": 0, "id": "KSHV", "name": "KSHV", "quality": 100, "contribution": 0.0}, "72248453905": {"distance": 4079.0, "latitude": 32.543, "longitude": -93.745, "useCount": 0, "id": "72248453905", "name": "SHREVEPORT DOWNTOWN AIRPORT, LA US", "quality": 100, "contribution": 0.0}, "KBAD": {"distance": 4507.0, "latitude": 32.5, "longitude": -93.67, "useCount": 0, "id": "KBAD", "name": "KBAD", "quality": 100, "contribution": 0.0}, "CADT2": {"distance": 40933.0, "latitude": 32.658, "longitude": -94.116, "useCount": 0, "id": "CADT2", "name": "CADDO LAKE TX US", "quality": 0, "contribution": 0.0}}}