{"queryCost": 1, "latitude": 31.778, "longitude": -106.469, "resolvedAddress": "31.77800,-106.46900", "address": "31.77800,-106.46900", "timezone": "America/Denver", "tzoffset": -6.0, "days": [{"datetime": "2019-10-23", "datetimeEpoch": 1571810400, "tempmax": 79.3, "tempmin": 44.9, "temp": 62.2, "feelslikemax": 79.3, "feelslikemin": 44.4, "feelslike": 62.0, "dew": 23.1, "humidity": 24.3, "precip": 0.0, "precipprob": 0.0, "precipcover": 0.0, "preciptype": null, "snow": 0.0, "snowdepth": 0.0, "windgust": null, "windspeed": 8.2, "winddir": 178.8, "pressure": 1011.8, "cloudcover": 2.9, "visibility": 9.8, "solarradiation": 212.1, "solarenergy": 18.2, "uvindex": 8.0, "sunrise": "07:14:53", "sunriseEpoch": 1571836493, "sunset": "18:25:03", "sunsetEpoch": 1571876703, "moonphase": 0.86, "conditions": "Clear", "description": "Clear conditions throughout the day.", "icon": "clear-day", "stations": ["KBIF", "KLRU", "72270499999", "72364099999", "72270023044", "KELP", "F2547"], "source": "obs"}], "stations": {"KBIF": {"distance": 11624.0, "latitude": 31.85, "longitude": -106.38, "useCount": 0, "id": "KBIF", "name": "KBIF", "quality": 98, "contribution": 0.0}, "KLRU": {"distance": 70245.0, "latitude": 32.28, "longitude": -106.92, "useCount": 0, "id": "KLRU", "name": "KLRU", "quality": 100, "contribution": 0.0}, "72270499999": {"distance": 11586.0, "latitude": 31.85, "longitude": -106.38, "useCount": 0, "id": "72270499999", "name": "BIGGS ARMY AIR FIELD FORT BLISS TEXAS USA, TX US", "quality": 98, "contribution": 0.0}, "72364099999": {"distance": 24895.0, "latitude": 31.88, "longitude": -106.703, "useCount": 0, "id": "72364099999", "name": "DONA ANA CO INTERNATIONAL JETPORT ARPT SANTA TERESA, NM US", "quality": 100, "contribution": 0.0}, "72270023044": {"distance": 9540.0, "latitude": 31.811, "longitude": -106.376, "useCount": 0, "id": "72270023044", "name": "EL PASO INTERNATIONAL AIRPORT, TX US", "quality": 100, "contribution": 0.0}, "KELP": {"distance": 6973.0, "latitude": 31.8, "longitude": -106.4, "useCount": 0, "id": "KELP", "name": "KELP", "quality": 100, "contribution": 0.0}, "F2547": {"distance": 3219.0, "latitude": 31.749, "longitude": -106.472, "useCount": 0, "id": "F2547", "name": "FW2547 Centro Comunitario La Montada MX", "quality": 0, "contribution": 0.0}}}