{"queryCost": 1, "latitude": 40.668, "longitude": -73.906, "resolvedAddress": "40.66800,-73.90600", "address": "40.66800,-73.90600", "timezone": "America/New_York", "tzoffset": -4.0, "days": [{"datetime": "2019-10-25", "datetimeEpoch": 1571976000, "tempmax": 64.6, "tempmin": 50.5, "temp": 58.2, "feelslikemax": 64.6, "feelslikemin": 50.5, "feelslike": 58.2, "dew": 48.9, "humidity": 71.7, "precip": 0.0, "precipprob": 0.0, "precipcover": 0.0, "preciptype": null, "snow": 0.0, "snowdepth": 0.0, "windgust": null, "windspeed": 11.6, "winddir": 217.3, "pressure": 1024.5, "cloudcover": 34.2, "visibility": 9.9, "solarradiation": 93.3, "solarenergy": 8.1, "uvindex": 4.0, "sunrise": "07:17:30", "sunriseEpoch": 1572002250, "sunset": "18:01:18", "sunsetEpoch": 1572040878, "moonphase": 0.95, "conditions": "Partially cloudy", "description": "Partly cloudy throughout the day.", "icon": "partly-cloudy-day", "stations": ["D9152", "72505394728", "KJFK", "KLGA", "74486094789", "KNYC", "72503014732"], "source": "obs"}], "stations": {"D9152": {"distance": 9488.0, "latitude": 40.751, "longitude": -73.882, "useCount": 0, "id": "D9152", "name": "DW9152 Jackson Heights NY US", "quality": 0, "contribution": 0.0}, "72505394728": {"distance": 13461.0, "latitude": 40.779, "longitude": -73.969, "useCount": 0, "id": "72505394728", "name": "NY CITY CENTRAL PARK, NY US", "quality": 100, "contribution": 0.0}, "KJFK": {"distance": 10827.0, "latitude": 40.65, "longitude": -73.78, "useCount": 0, "id": "KJFK", "name": "KJFK", "quality": 100, "contribution": 0.0}, "KLGA": {"distance": 11366.0, "latitude": 40.77, "longitude": -73.9, "useCount": 0, "id": "KLGA", "name": "KLGA", "quality": 100, "contribution": 0.0}, "74486094789": {"distance": 12416.0, "latitude": 40.639, "longitude": -73.764, "useCount": 0, "id": "74486094789", "name": "JFK INTERNATIONAL AIRPORT, NY US", "quality": 100, "contribution": 0.0}, "KNYC": {"distance": 12958.0, "latitude": 40.77, "longitude": -73.98, "useCount": 0, "id": "KNYC", "name": "KNYC", "quality": 100, "contribution": 0.0}, "72503014732": {"distance": 12589.0, "latitude": 40.779, "longitude": -73.88, "useCount": 0, "id": "72503014732", "name": "LAGUARDIA AIRPORT, NY US", "quality": 100, "contribution": 0.0}}}