{"queryCost": 1, "latitude": 35.109, "longitude": -106.604, "resolvedAddress": "35.10900,-106.60400", "address": "35.10900,-106.60400", "timezone": "America/Denver", "tzoffset": -6.0, "days": [{"datetime": "2019-10-25", "datetimeEpoch": 1571983200, "tempmax": 57.8, "tempmin": 28.8, "temp": 41.8, "feelslikemax": 57.8, "feelslikemin": 21.4, "feelslike": 39.3, "dew": 19.6, "humidity": 45.53, "precip": 0.0, "precipprob": null, "precipcover": 0.0, "preciptype": null, "snow": 0.0, "snowdepth": 0.0, "windgust": 19.7, "windspeed": 9.1, "winddir": 230.3, "pressure": 1026.6, "cloudcover": 0.1, "visibility": 9.9, "solarradiation": 305.7, "solarenergy": 14.3, "uvindex": 8.0, "sunrise": "07:20:57", "sunriseEpoch": 1572009657, "sunset": "18:19:30", "sunsetEpoch": 1572049170, "moonphase": 0.95, "conditions": "Clear", "description": "Clear conditions throughout the day.", "icon": "clear-day", "stations": ["72365623049", "K0E0", "72072499999", "72365023050", "KABQ", "A2679", "KSAF", "F3713"], "source": "obs"}], "stations": {"72365623049": {"distance": 73365.0, "latitude": 35.617, "longitude": -106.089, "useCount": 0, "id": "72365623049", "name": "SANTA FE CO MUNICIPAL AIRPORT, NM US", "quality": 100, "contribution": 0.0}, "K0E0": {"distance": 57184.0, "latitude": 34.97, "longitude": -106.0, "useCount": 0, "id": "K0E0", "name": "K0E0", "quality": 100, "contribution": 0.0}, "72072499999": {"distance": 55736.0, "latitude": 34.646, "longitude": -106.836, "useCount": 0, "id": "72072499999", "name": "BELEN REGIONAL AIRPORT, NM US", "quality": 92, "contribution": 0.0}, "72365023050": {"distance": 7549.0, "latitude": 35.042, "longitude": -106.616, "useCount": 0, "id": "72365023050", "name": "ALBUQUERQUE INTERNATIONAL AIRPORT, NM US", "quality": 100, "contribution": 0.0}, "KABQ": {"distance": 7818.0, "latitude": 35.04, "longitude": -106.62, "useCount": 0, "id": "KABQ", "name": "KABQ", "quality": 100, "contribution": 0.0}, "A2679": {"distance": 3401.0, "latitude": 35.135, "longitude": -106.585, "useCount": 0, "id": "A2679", "name": "Del Norte NM ABQEHD", "quality": 0, "contribution": 0.0}, "KSAF": {"distance": 73304.0, "latitude": 35.61, "longitude": -106.08, "useCount": 0, "id": "KSAF", "name": "KSAF", "quality": 100, "contribution": 0.0}, "F3713": {"distance": 1391.0, "latitude": 35.104, "longitude": -106.618, "useCount": 0, "id": "F3713", "name": "FW3713 Albuquerque NM US", "quality": 0, "contribution": 0.0}}}