{"queryCost": 1, "latitude": 34.722, "longitude": -84.963, "resolvedAddress": "34.72200,-84.96300", "address": "34.72200,-84.96300", "timezone": "America/New_York", "tzoffset": -4.0, "days": [{"datetime": "2019-10-25", "datetimeEpoch": 1571976000, "tempmax": 58.9, "tempmin": 53.6, "temp": 56.6, "feelslikemax": 58.9, "feelslikemin": 53.6, "feelslike": 56.6, "dew": 52.4, "humidity": 85.95, "precip": 2.96, "precipprob": null, "precipcover": 66.67, "preciptype": null, "snow": 0.0, "snowdepth": 0.0, "windgust": null, "windspeed": 6.6, "winddir": 187.1, "pressure": 1021.7, "cloudcover": 90.1, "visibility": 7.6, "solarradiation": 23.7, "solarenergy": 1.0, "uvindex": 1.0, "sunrise": "07:53:51", "sunriseEpoch": 1572004431, "sunset": "18:53:29", "sunsetEpoch": 1572044009, "moonphase": 0.95, "conditions": "Rain, Overcast", "description": "Cloudy skies throughout the day with rain.", "icon": "rain", "stations": ["KCHA", "KRMG", "72320093801", "72324013882", "72215453885", "EJAG1", "KDNN"], "source": "obs"}], "stations": {"KCHA": {"distance": 40547.0, "latitude": 35.03, "longitude": -85.2, "useCount": 0, "id": "KCHA", "name": "KCHA", "quality": 100, "contribution": 0.0}, "KRMG": {"distance": 45554.0, "latitude": 34.35, "longitude": -85.17, "useCount": 0, "id": "KRMG", "name": "KRMG", "quality": 100, "contribution": 0.0}, "72320093801": {"distance": 45445.0, "latitude": 34.348, "longitude": -85.161, "useCount": 0, "id": "72320093801", "name": "ROME R B RUSSELL AIRPORT, GA US", "quality": 100, "contribution": 0.0}, "72324013882": {"distance": 40905.0, "latitude": 35.034, "longitude": -85.2, "useCount": 0, "id": "72324013882", "name": "CHATTANOOGA AIRPORT, TN US", "quality": 100, "contribution": 0.0}, "72215453885": {"distance": 8610.0, "latitude": 34.722, "longitude": -84.869, "useCount": 0, "id": "72215453885", "name": "DALTON MUNICIPAL AIRPORT, GA US", "quality": 50, "contribution": 0.0}, "EJAG1": {"distance": 19313.0, "latitude": 34.766, "longitude": -84.759, "useCount": 0, "id": "EJAG1", "name": "CHATSWORTH GA US", "quality": 0, "contribution": 0.0}, "KDNN": {"distance": 8512.0, "latitude": 34.72, "longitude": -84.87, "useCount": 0, "id": "KDNN", "name": "KDNN", "quality": 50, "contribution": 0.0}}}