{"queryCost": 1, "latitude": 47.69, "longitude": -117.361, "resolvedAddress": "47.69000,-117.36100", "address": "47.69000,-117.36100", "timezone": "America/Los_Angeles", "tzoffset": -7.0, "days": [{"datetime": "2019-10-23", "datetimeEpoch": 1571814000, "tempmax": 66.4, "tempmin": 33.3, "temp": 44.9, "feelslikemax": 66.4, "feelslikemin": 33.3, "feelslike": 43.8, "dew": 30.8, "humidity": 61.1, "precip": 0.0, "precipprob": 0.0, "precipcover": 0.0, "preciptype": null, "snow": 0.0, "snowdepth": 0.0, "windgust": 17.2, "windspeed": 8.5, "winddir": 263.8, "pressure": 1029.1, "cloudcover": 1.2, "visibility": 10.0, "solarradiation": 64.2, "solarenergy": 5.2, "uvindex": 3.0, "sunrise": "07:19:54", "sunriseEpoch": 1571840394, "sunset": "17:46:52", "sunsetEpoch": 1571878012, "moonphase": 0.86, "conditions": "Clear", "description": "Clear conditions throughout the day.", "icon": "clear-day", "stations": ["F4353", "TWRW1", "72785524114", "72785694176", "72785024157", "KSFF", "KGEG", "KSKA"], "source": "obs"}], "stations": {"F4353": {"distance": 6977.0, "latitude": 47.668, "longitude": -117.448, "useCount": 0, "id": "F4353", "name": "FW4353 Spokane WA US", "quality": 0, "contribution": 0.0}, "TWRW1": {"distance": 32827.0, "latitude": 47.418, "longitude": -117.528, "useCount": 0, "id": "TWRW1", "name": "CHENEY WA US", "quality": 0, "contribution": 0.0}, "72785524114": {"distance": 22568.0, "latitude": 47.633, "longitude": -117.65, "useCount": 0, "id": "72785524114", "name": "FAIRCHILD AFB, WA US", "quality": 96, "contribution": 0.0}, "72785694176": {"distance": 3094.0, "latitude": 47.683, "longitude": -117.321, "useCount": 0, "id": "72785694176", "name": "SPOKANE FELTS FIELD, WA US", "quality": 100, "contribution": 0.0}, "72785024157": {"distance": 14655.0, "latitude": 47.622, "longitude": -117.528, "useCount": 0, "id": "72785024157", "name": "SPOKANE INTERNATIONAL AIRPORT, WA US", "quality": 100, "contribution": 0.0}, "KSFF": {"distance": 3268.0, "latitude": 47.68, "longitude": -117.32, "useCount": 0, "id": "KSFF", "name": "KSFF", "quality": 100, "contribution": 0.0}, "KGEG": {"distance": 14324.0, "latitude": 47.63, "longitude": -117.53, "useCount": 0, "id": "KGEG", "name": "KGEG", "quality": 100, "contribution": 0.0}, "KSKA": {"distance": 23029.0, "latitude": 47.62, "longitude": -117.65, "useCount": 0, "id": "KSKA", "name": "KSKA", "quality": 100, "contribution": 0.0}}}