{"queryCost": 1, "latitude": 33.875, "longitude": -118.171, "resolvedAddress": "33.87500,-118.17100", "address": "33.87500,-118.17100", "timezone": "America/Los_Angeles", "tzoffset": -7.0, "days": [{"datetime": "2019-10-23", "datetimeEpoch": 1571814000, "tempmax": 86.8, "tempmin": 62.2, "temp": 73.6, "feelslikemax": 83.3, "feelslikemin": 62.2, "feelslike": 72.8, "dew": 46.6, "humidity": 42.13, "precip": 0.0, "precipprob": null, "precipcover": 0.0, "preciptype": null, "snow": 0.0, "snowdepth": 0.0, "windgust": null, "windspeed": 9.2, "winddir": 84.0, "pressure": 1011.7, "cloudcover": 0.0, "visibility": 9.8, "solarradiation": 280.8, "solarenergy": 13.1, "uvindex": 6.0, "sunrise": "07:04:02", "sunriseEpoch": 1571839442, "sunset": "18:09:28", "sunsetEpoch": 1571879368, "moonphase": 0.86, "conditions": "Clear", "description": "Clear conditions throughout the day.", "icon": "clear-day", "stations": ["KFUL", "KHHR", "CI174", "72295603167", "72297603166", "KLGB", "72297023129"], "source": "obs"}], "stations": {"KFUL": {"distance": 17733.0, "latitude": 33.86, "longitude": -117.98, "useCount": 0, "id": "KFUL", "name": "KFUL", "quality": 100, "contribution": 0.0}, "KHHR": {"distance": 15522.0, "latitude": 33.92, "longitude": -118.33, "useCount": 0, "id": "KHHR", "name": "KHHR", "quality": 100, "contribution": 0.0}, "CI174": {"distance": 11229.0, "latitude": 33.797, "longitude": -118.094, "useCount": 0, "id": "CI174", "name": "Long Beach CA US CIMIS", "quality": 0, "contribution": 0.0}, "72295603167": {"distance": 15973.0, "latitude": 33.923, "longitude": -118.334, "useCount": 0, "id": "72295603167", "name": "HAWTHORNE MUNICIPAL AIRPORT, CA US", "quality": 100, "contribution": 0.0}, "72297603166": {"distance": 17749.0, "latitude": 33.872, "longitude": -117.979, "useCount": 0, "id": "72297603166", "name": "FULLERTON MUNICIPAL AIRPORT, CA US", "quality": 100, "contribution": 0.0}, "KLGB": {"distance": 6423.0, "latitude": 33.82, "longitude": -118.15, "useCount": 0, "id": "KLGB", "name": "KLGB", "quality": 100, "contribution": 0.0}, "72297023129": {"distance": 7427.0, "latitude": 33.812, "longitude": -118.146, "useCount": 0, "id": "72297023129", "name": "LONG BEACH DAUGHERTY AIRPORT, CA US", "quality": 100, "contribution": 0.0}}}