{"queryCost": 1, "latitude": 30.928, "longitude": -85.119, "resolvedAddress": "30.92800,-85.11900", "address": "30.92800,-85.11900", "timezone": "America/Chicago", "tzoffset": -5.0, "days": [{"datetime": "2019-10-31", "datetimeEpoch": 1572498000, "tempmax": 86.8, "tempmin": 44.9, "temp": 68.7, "feelslikemax": 94.3, "feelslikemin": 39.1, "feelslike": 68.8, "dew": 63.3, "humidity": 83.51, "precip": 0.24, "precipprob": null, "precipcover": 16.67, "preciptype": null, "snow": 0.0, "snowdepth": 0.0, "windgust": 34.9, "windspeed": 23.1, "winddir": 256.5, "pressure": 1016.0, "cloudcover": 63.7, "visibility": 9.6, "solarradiation": 154.7, "solarenergy": 7.2, "uvindex": 4.0, "sunrise": "06:54:37", "sunriseEpoch": 1572522877, "sunset": "17:53:06", "sunsetEpoch": 1572562386, "moonphase": 0.07, "conditions": "Rain, Partially cloudy", "description": "Partly cloudy throughout the day with afternoon rain.", "icon": "rain", "stations": ["74776003818", "0217W", "KBGE", "KMAI", "72026853882", "99999963871", "MAIF1", "K1J0"], "source": "obs"}], "stations": {"74776003818": {"distance": 12010.0, "latitude": 30.836, "longitude": -85.184, "useCount": 0, "id": "74776003818", "name": "MARIANNA MUNICIPAL AIRPORT, FL US", "quality": 100, "contribution": 0.0}, "0217W": {"distance": 5264.0, "latitude": 30.953, "longitude": -85.165, "useCount": 0, "id": "0217W", "name": "Malone School FL US WEATHERSTEM", "quality": 0, "contribution": 0.0}, "KBGE": {"distance": 45969.0, "latitude": 30.97, "longitude": -84.64, "useCount": 0, "id": "KBGE", "name": "KBGE", "quality": 100, "contribution": 0.0}, "KMAI": {"distance": 11398.0, "latitude": 30.84, "longitude": -85.18, "useCount": 0, "id": "KMAI", "name": "KMAI", "quality": 99, "contribution": 0.0}, "72026853882": {"distance": 46774.0, "latitude": 30.983, "longitude": -84.633, "useCount": 0, "id": "72026853882", "name": "BAINBRIDGE DECATUR CO INDUSTRIAL AIR PARK AIRPORT, GA US", "quality": 100, "contribution": 0.0}, "99999963871": {"distance": 46984.0, "latitude": 30.846, "longitude": -85.601, "useCount": 0, "id": "99999963871", "name": "BONIFAY TRI CO AIRPORT, FL US", "quality": 99, "contribution": 0.0}, "MAIF1": {"distance": 9740.0, "latitude": 30.85, "longitude": -85.165, "useCount": 0, "id": "MAIF1", "name": "Marianna FAWN", "quality": 0, "contribution": 0.0}, "K1J0": {"distance": 46985.0, "latitude": 30.84, "longitude": -85.6, "useCount": 0, "id": "K1J0", "name": "K1J0", "quality": 94, "contribution": 0.0}}}