{"queryCost": 1, "latitude": 33.568, "longitude": -112.152, "resolvedAddress": "33.56800,-112.15200", "address": "33.56800,-112.15200", "timezone": "America/Phoenix", "tzoffset": -7.0, "days": [{"datetime": "2019-11-04", "datetimeEpoch": 1572850800, "tempmax": 84.2, "tempmin": 54.8, "temp": 69.1, "feelslikemax": 81.3, "feelslikemin": 54.8, "feelslike": 68.6, "dew": 30.3, "humidity": 24.7, "precip": 0.0, "precipprob": null, "precipcover": 0.0, "preciptype": null, "snow": 0.0, "snowdepth": 0.0, "windgust": null, "windspeed": 7.5, "winddir": 123.6, "pressure": 1012.8, "cloudcover": 3.9, "visibility": 9.9, "solarradiation": 376.4, "solarenergy": 16.3, "uvindex": 7.0, "sunrise": "06:50:01", "sunriseEpoch": 1572875401, "sunset": "17:33:52", "sunsetEpoch": 1572914032, "moonphase": 0.25, "conditions": "Clear", "description": "Clear conditions throughout the day.", "icon": "clear-day", "stations": ["72278403184", "F3692", "KLUF", "KDVT", "72278023183", "KPHX", "E8980", "72278523111"], "source": "obs"}], "stations": {"72278403184": {"distance": 14881.0, "latitude": 33.688, "longitude": -112.082, "useCount": 0, "id": "72278403184", "name": "PHOENIX DEER VALLEY MUNICIPAL AIRPORT, AZ US", "quality": 100, "contribution": 0.0}, "F3692": {"distance": 1209.0, "latitude": 33.569, "longitude": -112.139, "useCount": 0, "id": "F3692", "name": "FW3692 Phoenix AZ US", "quality": 0, "contribution": 0.0}, "KLUF": {"distance": 21572.0, "latitude": 33.53, "longitude": -112.38, "useCount": 0, "id": "KLUF", "name": "KLUF", "quality": 100, "contribution": 0.0}, "KDVT": {"distance": 14602.0, "latitude": 33.68, "longitude": -112.07, "useCount": 0, "id": "KDVT", "name": "KDVT", "quality": 100, "contribution": 0.0}, "72278023183": {"distance": 20801.0, "latitude": 33.428, "longitude": -112.004, "useCount": 0, "id": "72278023183", "name": "PHOENIX AIRPORT, AZ US", "quality": 100, "contribution": 0.0}, "KPHX": {"distance": 19650.0, "latitude": 33.43, "longitude": -112.02, "useCount": 0, "id": "KPHX", "name": "KPHX", "quality": 100, "contribution": 0.0}, "E8980": {"distance": 1626.0, "latitude": 33.58, "longitude": -112.142, "useCount": 0, "id": "E8980", "name": "EW8980 Phoenix AZ US", "quality": 0, "contribution": 0.0}, "72278523111": {"distance": 20045.0, "latitude": 33.55, "longitude": -112.367, "useCount": 0, "id": "72278523111", "name": "PHOENIX LUKE AFB, AZ US", "quality": 96, "contribution": 0.0}}}