{"queryCost": 1, "latitude": 44.146, "longitude": -87.568, "resolvedAddress": "44.14600,-87.56800", "address": "44.14600,-87.56800", "timezone": "America/Chicago", "tzoffset": -6.0, "days": [{"datetime": "2019-11-04", "datetimeEpoch": 1572847200, "tempmax": 45.0, "tempmin": 35.1, "temp": 40.1, "feelslikemax": 38.9, "feelslikemin": 29.1, "feelslike": 34.1, "dew": 35.0, "humidity": 82.37, "precip": 0.08, "precipprob": null, "precipcover": 29.17, "preciptype": null, "snow": 0.0, "snowdepth": 0.0, "windgust": 26.8, "windspeed": 17.0, "winddir": 248.8, "pressure": 1013.0, "cloudcover": 80.7, "visibility": 9.9, "solarradiation": 68.7, "solarenergy": 3.0, "uvindex": 2.0, "sunrise": "06:30:43", "sunriseEpoch": 1572870643, "sunset": "16:36:20", "sunsetEpoch": 1572906980, "moonphase": 0.25, "conditions": "Rain, Partially cloudy", "description": "Partly cloudy throughout the day with rain clearing later.", "icon": "rain", "stations": ["KSBM", "E9019", "72645014898", "MIKWS", "KMTW", "F2467", "72642504841", "72645594897", "KGRB"], "source": "obs"}], "stations": {"KSBM": {"distance": 46589.0, "latitude": 43.78, "longitude": -87.85, "useCount": 0, "id": "KSBM", "name": "KSBM", "quality": 100, "contribution": 0.0}, "E9019": {"distance": 6673.0, "latitude": 44.117, "longitude": -87.641, "useCount": 0, "id": "E9019", "name": "EW9019 Manitowoc WI US", "quality": 0, "contribution": 0.0}, "72645014898": {"distance": 58555.0, "latitude": 44.479, "longitude": -88.137, "useCount": 0, "id": "72645014898", "name": "GREEN BAY A S INTERNATIONAL AIRPORT, WI US", "quality": 100, "contribution": 0.0}, "MIKWS": {"distance": 29528.0, "latitude": 44.402, "longitude": -87.665, "useCount": 0, "id": "MIKWS", "name": "Kewaunee WI US MAWN", "quality": 0, "contribution": 0.0}, "KMTW": {"distance": 9123.0, "latitude": 44.13, "longitude": -87.68, "useCount": 0, "id": "KMTW", "name": "MANITOWOC, WI", "quality": 100, "contribution": 0.0}, "F2467": {"distance": 11644.0, "latitude": 44.078, "longitude": -87.679, "useCount": 0, "id": "F2467", "name": "FW2467 Manitowoc WI US", "quality": 0, "contribution": 0.0}, "72642504841": {"distance": 47648.0, "latitude": 43.769, "longitude": -87.851, "useCount": 0, "id": "72642504841", "name": "SHEBOYGAN CO MEMORIAL AIRPORT, WI US", "quality": 100, "contribution": 0.0}, "72645594897": {"distance": 8011.0, "latitude": 44.133, "longitude": -87.667, "useCount": 0, "id": "72645594897", "name": "MANITOWOC, WI US", "quality": 99, "contribution": 0.0}, "KGRB": {"distance": 58192.0, "latitude": 44.48, "longitude": -88.13, "useCount": 0, "id": "KGRB", "name": "KGRB", "quality": 100, "contribution": 0.0}}}