{"queryCost": 1, "latitude": 41.027, "longitude": -81.729, "resolvedAddress": "41.02700,-81.72900", "address": "41.02700,-81.72900", "timezone": "America/New_York", "tzoffset": -5.0, "days": [{"datetime": "2019-11-07", "datetimeEpoch": 1573102800, "tempmax": 46.0, "tempmin": 29.3, "temp": 38.2, "feelslikemax": 45.7, "feelslikemin": 20.4, "feelslike": 32.4, "dew": 31.5, "humidity": 77.4, "precip": 0.1, "precipprob": null, "precipcover": 45.83, "preciptype": null, "snow": 0.0, "snowdepth": 0.0, "windgust": 20.8, "windspeed": 11.9, "winddir": 305.4, "pressure": 1023.4, "cloudcover": 88.2, "visibility": 8.0, "solarradiation": 42.5, "solarenergy": 3.2, "uvindex": 5.0, "sunrise": "07:04:39", "sunriseEpoch": 1573128279, "sunset": "17:15:58", "sunsetEpoch": 1573164958, "moonphase": 0.39, "conditions": "Rain, Partially cloudy", "description": "Partly cloudy throughout the day with a chance of rain throughout the day.", "icon": "rain", "stations": ["72430314813", "72521604842", "KCAK", "E2482", "D2323", "KBJJ", "D0019", "KAKR", "72521014895"], "source": "obs"}], "stations": {"72430314813": {"distance": 22267.0, "latitude": 41.038, "longitude": -81.464, "useCount": 0, "id": "72430314813", "name": "AKRON FULTON INTERNATIONAL AIRPORT, OH US", "quality": 100, "contribution": 0.0}, "72521604842": {"distance": 21664.0, "latitude": 40.873, "longitude": -81.887, "useCount": 0, "id": "72521604842", "name": "WOOSTER WAYNE CO AIRPORT, OH US", "quality": 100, "contribution": 0.0}, "KCAK": {"distance": 27810.0, "latitude": 40.92, "longitude": -81.43, "useCount": 0, "id": "KCAK", "name": "KCAK", "quality": 100, "contribution": 0.0}, "E2482": {"distance": 25779.0, "latitude": 41.25, "longitude": -81.813, "useCount": 0, "id": "E2482", "name": "EW2482 Brunswick OH US", "quality": 0, "contribution": 0.0}, "D2323": {"distance": 13323.0, "latitude": 40.989, "longitude": -81.579, "useCount": 0, "id": "D2323", "name": "DW2323 Barberton OH US", "quality": 0, "contribution": 0.0}, "KBJJ": {"distance": 22513.0, "latitude": 40.86, "longitude": -81.88, "useCount": 0, "id": "KBJJ", "name": "KBJJ", "quality": 100, "contribution": 0.0}, "D0019": {"distance": 26704.0, "latitude": 40.854, "longitude": -81.509, "useCount": 0, "id": "D0019", "name": "DW0019 Massillon OH US", "quality": 0, "contribution": 0.0}, "KAKR": {"distance": 23473.0, "latitude": 41.04, "longitude": -81.45, "useCount": 0, "id": "KAKR", "name": "KAKR", "quality": 100, "contribution": 0.0}, "72521014895": {"distance": 26884.0, "latitude": 40.918, "longitude": -81.443, "useCount": 0, "id": "72521014895", "name": "AKRON CANTON AIRPORT, OH US", "quality": 100, "contribution": 0.0}}}