{"queryCost": 1, "latitude": 36.905, "longitude": -121.751, "resolvedAddress": "36.90500,-121.75100", "address": "36.90500,-121.75100", "timezone": "America/Los_Angeles", "tzoffset": -7.0, "days": [{"datetime": "2015-06-06", "datetimeEpoch": 1433574000, "tempmax": 64.4, "tempmin": 54.0, "temp": 57.7, "feelslikemax": 64.4, "feelslikemin": 54.0, "feelslike": 57.7, "dew": 52.7, "humidity": 84.3, "precip": 0.0, "precipprob": 0.0, "precipcover": 0.0, "preciptype": null, "snow": 0.0, "snowdepth": 0.0, "windgust": 23.0, "windspeed": 13.0, "winddir": 246.5, "pressure": 1013.3, "cloudcover": 87.2, "visibility": 9.1, "solarradiation": 346.3, "solarenergy": 29.9, "uvindex": 10.0, "sunrise": "05:47:53", "sunriseEpoch": 1433594873, "sunset": "20:23:45", "sunsetEpoch": 1433647425, "moonphase": 0.59, "conditions": "Partially cloudy", "description": "Partly cloudy throughout the day.", "icon": "partly-cloudy-day", "stations": ["72593023233", "74505823277", "KCVH", "KWVI", "74917900392", "KSNS"], "source": "obs"}], "stations": {"72593023233": {"distance": 29743.0, "latitude": 36.664, "longitude": -121.608, "useCount": 0, "id": "72593023233", "name": "SALINAS AIRPORT, CA US", "quality": 100, "contribution": 0.0}, "74505823277": {"distance": 4816.0, "latitude": 36.936, "longitude": -121.789, "useCount": 0, "id": "74505823277", "name": "WATSONVILLE MUNICIPAL AIRPORT, CA US", "quality": 99, "contribution": 0.0}, "KCVH": {"distance": 30403.0, "latitude": 36.89, "longitude": -121.41, "useCount": 0, "id": "KCVH", "name": "KCVH", "quality": 100, "contribution": 0.0}, "KWVI": {"distance": 5218.0, "latitude": 36.94, "longitude": -121.79, "useCount": 0, "id": "KWVI", "name": "KWVI", "quality": 100, "contribution": 0.0}, "74917900392": {"distance": 29737.0, "latitude": 36.9, "longitude": -121.417, "useCount": 0, "id": "74917900392", "name": "HOLLISTER MUNICIPAL AIRPORT, CA US", "quality": 99, "contribution": 0.0}, "KSNS": {"distance": 29421.0, "latitude": 36.67, "longitude": -121.6, "useCount": 0, "id": "KSNS", "name": "KSNS", "quality": 99, "contribution": 0.0}}}