{"queryCost": 1, "latitude": 37.256, "longitude": -121.874, "resolvedAddress": "37.25600,-121.87400", "address": "37.25600,-121.87400", "timezone": "America/Los_Angeles", "tzoffset": -8.0, "days": [{"datetime": "2019-11-09", "datetimeEpoch": 1573286400, "tempmax": 66.4, "tempmin": 50.9, "temp": 55.7, "feelslikemax": 66.4, "feelslikemin": 50.9, "feelslike": 55.7, "dew": 49.8, "humidity": 82.05, "precip": 0.0, "precipprob": null, "precipcover": 0.0, "preciptype": null, "snow": 0.0, "snowdepth": 0.0, "windgust": null, "windspeed": 7.6, "winddir": 242.1, "pressure": 1020.1, "cloudcover": 41.2, "visibility": 6.3, "solarradiation": 219.0, "solarenergy": 9.5, "uvindex": 5.0, "sunrise": "06:40:11", "sunriseEpoch": 1573310411, "sunset": "17:01:59", "sunsetEpoch": 1573347719, "moonphase": 0.46, "conditions": "Partially cloudy", "description": "Partly cloudy throughout the day.", "icon": "partly-cloudy-day", "stations": ["72585093228", "KSJC", "D8509", "74505823277", "72492723285", "72494523293", "KWVI", "C2789"], "source": "obs"}], "stations": {"72585093228": {"distance": 49178.0, "latitude": 37.654, "longitude": -122.115, "useCount": 0, "id": "72585093228", "name": "HAYWARD AIR TERMINAL, CA US", "quality": 100, "contribution": 0.0}, "KSJC": {"distance": 12273.0, "latitude": 37.36, "longitude": -121.92, "useCount": 0, "id": "KSJC", "name": "KSJC", "quality": 100, "contribution": 0.0}, "D8509": {"distance": 1897.0, "latitude": 37.259, "longitude": -121.895, "useCount": 0, "id": "D8509", "name": "DW8509 San Jose CA US", "quality": 0, "contribution": 0.0}, "74505823277": {"distance": 36435.0, "latitude": 36.936, "longitude": -121.789, "useCount": 0, "id": "74505823277", "name": "WATSONVILLE MUNICIPAL AIRPORT, CA US", "quality": 99, "contribution": 0.0}, "72492723285": {"distance": 48901.0, "latitude": 37.693, "longitude": -121.814, "useCount": 0, "id": "72492723285", "name": "LIVERMORE MUNICIPAL AIRPORT, CA US", "quality": 100, "contribution": 0.0}, "72494523293": {"distance": 12301.0, "latitude": 37.359, "longitude": -121.924, "useCount": 0, "id": "72494523293", "name": "SAN JOSE, CA US", "quality": 100, "contribution": 0.0}, "KWVI": {"distance": 35959.0, "latitude": 36.94, "longitude": -121.79, "useCount": 0, "id": "KWVI", "name": "KWVI", "quality": 100, "contribution": 0.0}, "C2789": {"distance": 5917.0, "latitude": 37.203, "longitude": -121.869, "useCount": 0, "id": "C2789", "name": "CW2789 San Jose CA US", "quality": 0, "contribution": 0.0}}}