{"queryCost": 1, "latitude": 34.806, "longitude": -81.558, "resolvedAddress": "34.80600,-81.55800", "address": "34.80600,-81.55800", "timezone": "America/New_York", "tzoffset": -5.0, "days": [{"datetime": "2019-11-09", "datetimeEpoch": 1573275600, "tempmax": 49.1, "tempmin": 31.1, "temp": 37.6, "feelslikemax": 49.1, "feelslikemin": 24.5, "feelslike": 35.1, "dew": 24.8, "humidity": 62.96, "precip": 0.0, "precipprob": null, "precipcover": 0.0, "preciptype": null, "snow": 0.0, "snowdepth": 0.0, "windgust": null, "windspeed": 6.8, "winddir": 56.1, "pressure": null, "cloudcover": 0.9, "visibility": 9.1, "solarradiation": 318.1, "solarenergy": 13.7, "uvindex": 6.0, "sunrise": "06:54:18", "sunriseEpoch": 1573300458, "sunset": "17:25:21", "sunsetEpoch": 1573338321, "moonphase": 0.46, "conditions": "Clear", "description": "Clear conditions throughout the day.", "icon": "clear-day", "stations": ["KDCM", "72059900192", "KSPA", "99999993804", "72059700190", "72312699999", "WHIS1"], "source": "obs"}], "stations": {"KDCM": {"distance": 33687.0, "latitude": 34.79, "longitude": -81.19, "useCount": 0, "id": "KDCM", "name": "KDCM", "quality": 99, "contribution": 0.0}, "72059900192": {"distance": 32827.0, "latitude": 34.783, "longitude": -81.2, "useCount": 0, "id": "72059900192", "name": "CHESTER CATAWBA REGIONAL AIRPORT, SC US", "quality": 99, "contribution": 0.0}, "KSPA": {"distance": 37307.0, "latitude": 34.9, "longitude": -81.95, "useCount": 0, "id": "KSPA", "name": "KSPA", "quality": 99, "contribution": 0.0}, "99999993804": {"distance": 37867.0, "latitude": 34.917, "longitude": -81.95, "useCount": 0, "id": "99999993804", "name": "SPARTANBURG, SC US", "quality": 99, "contribution": 0.0}, "72059700190": {"distance": 49486.0, "latitude": 34.5, "longitude": -81.95, "useCount": 0, "id": "72059700190", "name": "LAURENS CO AIRPORT, SC US", "quality": 100, "contribution": 0.0}, "72312699999": {"distance": 38394.0, "latitude": 34.916, "longitude": -81.956, "useCount": 0, "id": "72312699999", "name": "SPARTANBURG DOWNTOWN MEM, SC US", "quality": 100, "contribution": 0.0}, "WHIS1": {"distance": 29836.0, "latitude": 34.538, "longitude": -81.562, "useCount": 0, "id": "WHIS1", "name": "WHITMIRE SC US", "quality": 0, "contribution": 0.0}}}