{"queryCost": 1, "latitude": 33.411, "longitude": -111.858, "resolvedAddress": "33.41100,-111.85800", "address": "33.41100,-111.85800", "timezone": "America/Phoenix", "tzoffset": -7.0, "days": [{"datetime": "2019-11-16", "datetimeEpoch": 1573887600, "tempmax": 79.8, "tempmin": 60.5, "temp": 68.5, "feelslikemax": 79.8, "feelslikemin": 60.5, "feelslike": 68.5, "dew": 32.3, "humidity": 26.96, "precip": 0.0, "precipprob": null, "precipcover": 0.0, "preciptype": null, "snow": 0.0, "snowdepth": 0.0, "windgust": null, "windspeed": 9.2, "winddir": 90.6, "pressure": 1013.0, "cloudcover": 24.3, "visibility": 9.9, "solarradiation": 255.7, "solarenergy": 11.0, "uvindex": 6.0, "sunrise": "06:59:37", "sunriseEpoch": 1573912777, "sunset": "17:24:25", "sunsetEpoch": 1573950265, "moonphase": 0.58, "conditions": "Partially cloudy", "description": "Partly cloudy throughout the day.", "icon": "partly-cloudy-day", "stations": ["72278903192", "KSDL", "72278023183", "AZM29", "KPHX", "72278303185", "E4905", "KFFZ"], "source": "obs"}], "stations": {"72278903192": {"distance": 24085.0, "latitude": 33.623, "longitude": -111.911, "useCount": 0, "id": "72278903192", "name": "SCOTTSDALE MUNICIPAL AIRPORT, AZ US", "quality": 100, "contribution": 0.0}, "KSDL": {"distance": 22888.0, "latitude": 33.61, "longitude": -111.92, "useCount": 0, "id": "KSDL", "name": "KSDL", "quality": 100, "contribution": 0.0}, "72278023183": {"distance": 13692.0, "latitude": 33.428, "longitude": -112.004, "useCount": 0, "id": "72278023183", "name": "PHOENIX AIRPORT, AZ US", "quality": 100, "contribution": 0.0}, "AZM29": {"distance": 2860.0, "latitude": 33.387, "longitude": -111.868, "useCount": 0, "id": "AZM29", "name": "Mesa AZ US AZMET", "quality": 0, "contribution": 0.0}, "KPHX": {"distance": 15200.0, "latitude": 33.43, "longitude": -112.02, "useCount": 0, "id": "KPHX", "name": "KPHX", "quality": 100, "contribution": 0.0}, "72278303185": {"distance": 13163.0, "latitude": 33.467, "longitude": -111.733, "useCount": 0, "id": "72278303185", "name": "MESA FALCON FIELD, AZ US", "quality": 100, "contribution": 0.0}, "E4905": {"distance": 4866.0, "latitude": 33.424, "longitude": -111.908, "useCount": 0, "id": "E4905", "name": "EW4905 Tempe AZ US", "quality": 0, "contribution": 0.0}, "KFFZ": {"distance": 13583.0, "latitude": 33.47, "longitude": -111.73, "useCount": 0, "id": "KFFZ", "name": "FALCON FLD MESA, AZ", "quality": 100, "contribution": 0.0}}}