{"queryCost": 1, "latitude": 32.873, "longitude": -105.968, "resolvedAddress": "32.87300,-105.96800", "address": "32.87300,-105.96800", "timezone": "America/Denver", "tzoffset": -6.0, "days": [{"datetime": "2019-11-01", "datetimeEpoch": 1572588000, "tempmax": 64.2, "tempmin": 23.1, "temp": 42.7, "feelslikemax": 64.2, "feelslikemin": 18.5, "feelslike": 40.5, "dew": 5.0, "humidity": 22.82, "precip": 0.0, "precipprob": null, "precipcover": 0.0, "preciptype": null, "snow": 0.0, "snowdepth": 0.0, "windgust": null, "windspeed": 9.4, "winddir": 179.2, "pressure": 1023.4, "cloudcover": 0.0, "visibility": 9.9, "solarradiation": 360.5, "solarenergy": 16.9, "uvindex": 7.0, "sunrise": "07:21:35", "sunriseEpoch": 1572614495, "sunset": "18:12:51", "sunsetEpoch": 1572653571, "moonphase": 0.11, "conditions": "Clear", "description": "Clear conditions throughout the day.", "icon": "clear-day", "stations": ["72268393083", "99999903074", "C5738", "KALM", "72269393097", "WSM17", "KHMN", "74732023002"], "source": "obs"}], "stations": {"72268393083": {"distance": 76759.0, "latitude": 33.45, "longitude": -105.517, "useCount": 0, "id": "72268393083", "name": "RUIDOSO SIERRA BLANCA AIRPORT, NM US", "quality": 100, "contribution": 0.0}, "99999903074": {"distance": 77920.0, "latitude": 32.614, "longitude": -106.741, "useCount": 0, "id": "99999903074", "name": "LAS CRUCES 20 N, NM US", "quality": 100, "contribution": 0.0}, "C5738": {"distance": 13969.0, "latitude": 32.941, "longitude": -105.842, "useCount": 0, "id": "C5738", "name": "CW5738 High Rolls NM US", "quality": 0, "contribution": 0.0}, "KALM": {"distance": 4917.0, "latitude": 32.83, "longitude": -105.98, "useCount": 0, "id": "KALM", "name": "KALM", "quality": 97, "contribution": 0.0}, "72269393097": {"distance": 4286.0, "latitude": 32.84, "longitude": -105.991, "useCount": 0, "id": "72269393097", "name": "ALAMOGORDO WHITE SANDS REGIONAL AIRPORT, NM US", "quality": 97, "contribution": 0.0}, "WSM17": {"distance": 16691.0, "latitude": 32.788, "longitude": -105.821, "useCount": 0, "id": "WSM17", "name": "Sacramento Peak Observatory NM US WSMR", "quality": 0, "contribution": 0.0}, "KHMN": {"distance": 12606.0, "latitude": 32.85, "longitude": -106.1, "useCount": 0, "id": "KHMN", "name": "KHMN", "quality": 100, "contribution": 0.0}, "74732023002": {"distance": 12606.0, "latitude": 32.85, "longitude": -106.1, "useCount": 0, "id": "74732023002", "name": "HOLLOMAN AFB, NM US", "quality": 95, "contribution": 0.0}}}