{"queryCost": 1, "latitude": 46.664, "longitude": -119.177, "resolvedAddress": "46.66400,-119.17700", "address": "46.66400,-119.17700", "timezone": "America/Los_Angeles", "tzoffset": -8.0, "days": [{"datetime": "2019-11-18", "datetimeEpoch": 1574064000, "tempmax": 49.7, "tempmin": 37.0, "temp": 44.1, "feelslikemax": 47.3, "feelslikemin": 34.2, "feelslike": 42.1, "dew": 41.1, "humidity": 89.5, "precip": 0.03, "precipprob": null, "precipcover": 12.5, "preciptype": null, "snow": 0.0, "snowdepth": 0.0, "windgust": null, "windspeed": 8.5, "winddir": 242.3, "pressure": 1014.0, "cloudcover": 40.6, "visibility": 8.1, "solarradiation": 900.7, "solarenergy": 77.8, "uvindex": 9.0, "sunrise": "07:03:13", "sunriseEpoch": 1574089393, "sunset": "16:20:03", "sunsetEpoch": 1574122803, "moonphase": 0.68, "conditions": "Rain, Partially cloudy", "description": "Partly cloudy throughout the day with late afternoon rain.", "icon": "rain", "stations": ["KMWH", "72784524163", "72788499999", "72782724110", "KPSC", "K1S5", "C6988"], "source": "obs"}], "stations": {"KMWH": {"distance": 60649.0, "latitude": 47.2, "longitude": -119.32, "useCount": 0, "id": "KMWH", "name": "KMWH", "quality": 100, "contribution": 0.0}, "72784524163": {"distance": 44466.0, "latitude": 46.267, "longitude": -119.117, "useCount": 0, "id": "72784524163", "name": "PASCO TRI CITIES AIRPORT, WA US", "quality": 100, "contribution": 0.0}, "72788499999": {"distance": 41067.0, "latitude": 46.306, "longitude": -119.304, "useCount": 0, "id": "72788499999", "name": "RICHLAND AIRPORT, WA US", "quality": 100, "contribution": 0.0}, "72782724110": {"distance": 61490.0, "latitude": 47.208, "longitude": -119.319, "useCount": 0, "id": "72782724110", "name": "MOSES LAKE GRANT CO AIRPORT, WA US", "quality": 100, "contribution": 0.0}, "KPSC": {"distance": 44077.0, "latitude": 46.27, "longitude": -119.12, "useCount": 0, "id": "KPSC", "name": "PASCO/TRI-CITIES, WA", "quality": 100, "contribution": 0.0}, "K1S5": {"distance": 70588.0, "latitude": 46.33, "longitude": -119.96, "useCount": 0, "id": "K1S5", "name": "K1S5", "quality": 99, "contribution": 0.0}, "C6988": {"distance": 15539.0, "latitude": 46.534, "longitude": -119.251, "useCount": 0, "id": "C6988", "name": "CW6988 Basin City WA US", "quality": 0, "contribution": 0.0}}}