{"queryCost": 1, "latitude": 39.162, "longitude": -94.495, "resolvedAddress": "39.16200,-94.49500", "address": "39.16200,-94.49500", "timezone": "America/Chicago", "tzoffset": -6.0, "days": [{"datetime": "2019-11-18", "datetimeEpoch": 1574056800, "tempmax": 58.0, "tempmin": 31.9, "temp": 45.4, "feelslikemax": 58.0, "feelslikemin": 31.7, "feelslike": 44.5, "dew": 32.4, "humidity": 63.4, "precip": 0.0, "precipprob": null, "precipcover": 0.0, "preciptype": null, "snow": 0.0, "snowdepth": 0.0, "windgust": 21.9, "windspeed": 13.2, "winddir": 244.2, "pressure": 1008.4, "cloudcover": 39.2, "visibility": 9.9, "solarradiation": 77.3, "solarenergy": 6.4, "uvindex": 4.0, "sunrise": "07:04:24", "sunriseEpoch": 1574082264, "sunset": "17:01:29", "sunsetEpoch": 1574118089, "moonphase": 0.68, "conditions": "Partially cloudy", "description": "Partly cloudy throughout the day.", "icon": "partly-cloudy-day", "stations": ["A1182", "72030653879", "72446003947", "KMKC", "KMCI", "KLXT", "72446313988"], "source": "obs"}], "stations": {"A1182": {"distance": 13270.0, "latitude": 39.048, "longitude": -94.45, "useCount": 0, "id": "A1182", "name": "Blue Ridge I-70 MO MODNR", "quality": 0, "contribution": 0.0}, "72030653879": {"distance": 24926.0, "latitude": 38.96, "longitude": -94.371, "useCount": 0, "id": "72030653879", "name": "LEES SUMMIT MUNICIPAL AIRPORT, MO US", "quality": 100, "contribution": 0.0}, "72446003947": {"distance": 25283.0, "latitude": 39.297, "longitude": -94.731, "useCount": 0, "id": "72446003947", "name": "KANSAS CITY INTERNATIONAL AIRPORT, MO US", "quality": 100, "contribution": 0.0}, "KMKC": {"distance": 10757.0, "latitude": 39.11, "longitude": -94.6, "useCount": 0, "id": "KMKC", "name": "KMKC", "quality": 100, "contribution": 0.0}, "KMCI": {"distance": 26185.0, "latitude": 39.32, "longitude": -94.72, "useCount": 0, "id": "KMCI", "name": "KMCI", "quality": 100, "contribution": 0.0}, "KLXT": {"distance": 24948.0, "latitude": 38.96, "longitude": -94.37, "useCount": 0, "id": "KLXT", "name": "KLXT", "quality": 100, "contribution": 0.0}, "72446313988": {"distance": 9922.0, "latitude": 39.121, "longitude": -94.597, "useCount": 0, "id": "72446313988", "name": "KANSAS CITY DOWNTOWN AIRPORT, MO US", "quality": 100, "contribution": 0.0}}}