{"queryCost": 1, "latitude": 36.056, "longitude": -115.037, "resolvedAddress": "36.05600,-115.03700", "address": "36.05600,-115.03700", "timezone": "America/Los_Angeles", "tzoffset": -8.0, "days": [{"datetime": "2019-11-20", "datetimeEpoch": 1574236800, "tempmax": 60.3, "tempmin": 45.5, "temp": 53.9, "feelslikemax": 60.3, "feelslikemin": 41.0, "feelslike": 53.3, "dew": 47.9, "humidity": 81.4, "precip": 0.78, "precipprob": 100.0, "precipcover": 62.5, "preciptype": ["rain"], "snow": 0.0, "snowdepth": 0.0, "windgust": 35.7, "windspeed": 16.0, "winddir": 140.5, "pressure": 1000.4, "cloudcover": 63.0, "visibility": 9.0, "solarradiation": 82.6, "solarenergy": 7.1, "uvindex": 5.0, "sunrise": "06:21:41", "sunriseEpoch": 1574259701, "sunset": "16:29:31", "sunsetEpoch": 1574296171, "moonphase": 0.79, "conditions": "Rain, Partially cloudy", "description": "Partly cloudy throughout the day with rain.", "icon": "rain", "stations": ["KLAS", "KHND", "D2751", "CMP10", "74614023112", "KLSV", "72386023169", "F0069", "72209653127"], "source": "obs"}], "stations": {"KLAS": {"distance": 12262.0, "latitude": 36.08, "longitude": -115.17, "useCount": 0, "id": "KLAS", "name": "KLAS", "quality": 100, "contribution": 0.0}, "KHND": {"distance": 12719.0, "latitude": 35.97, "longitude": -115.13, "useCount": 0, "id": "KHND", "name": "LAS VEGAS/HENDER, NV", "quality": 95, "contribution": 0.0}, "D2751": {"distance": 1700.0, "latitude": 36.068, "longitude": -115.049, "useCount": 0, "id": "D2751", "name": "DW2751 Henderson NV US", "quality": 0, "contribution": 0.0}, "CMP10": {"distance": 8367.0, "latitude": 36.008, "longitude": -114.966, "useCount": 0, "id": "CMP10", "name": "Henderson NV US CEMP", "quality": 0, "contribution": 0.0}, "74614023112": {"distance": 21599.0, "latitude": 36.25, "longitude": -115.033, "useCount": 0, "id": "74614023112", "name": "LAS VEGAS NELLIS AFB, NV US", "quality": 96, "contribution": 0.0}, "KLSV": {"distance": 18267.0, "latitude": 36.22, "longitude": -115.03, "useCount": 0, "id": "KLSV", "name": "KLSV", "quality": 99, "contribution": 0.0}, "72386023169": {"distance": 11476.0, "latitude": 36.072, "longitude": -115.163, "useCount": 0, "id": "72386023169", "name": "MCCARRAN INTERNATIONAL AIRPORT, NV US", "quality": 100, "contribution": 0.0}, "F0069": {"distance": 9501.0, "latitude": 35.978, "longitude": -115.079, "useCount": 0, "id": "F0069", "name": "FW0069 Henderson NV US", "quality": 0, "contribution": 0.0}, "72209653127": {"distance": 12340.0, "latitude": 35.976, "longitude": -115.132, "useCount": 0, "id": "72209653127", "name": "LAS VEGAS HENDERSON AIRPORT, NV US", "quality": 95, "contribution": 0.0}}}