{"queryCost": 1, "latitude": 34.71, "longitude": -81.219, "resolvedAddress": "34.71000,-81.21900", "address": "34.71000,-81.21900", "timezone": "America/New_York", "tzoffset": -5.0, "days": [{"datetime": "2019-11-23", "datetimeEpoch": 1574485200, "tempmax": 61.0, "tempmin": 53.7, "temp": 56.6, "feelslikemax": 61.0, "feelslikemin": 53.7, "feelslike": 56.6, "dew": 55.5, "humidity": 96.3, "precip": 1.34, "precipprob": 100.0, "precipcover": 58.33, "preciptype": ["rain"], "snow": 0.0, "snowdepth": 0.0, "windgust": 24.3, "windspeed": 13.1, "winddir": 130.1, "pressure": 1010.7, "cloudcover": 79.3, "visibility": 4.6, "solarradiation": 10.9, "solarenergy": 0.8, "uvindex": 1.0, "sunrise": "07:06:17", "sunriseEpoch": 1574510777, "sunset": "17:15:56", "sunsetEpoch": 1574547356, "moonphase": 0.94, "conditions": "Rain, Partially cloudy", "description": "Partly cloudy throughout the day with rain.", "icon": "rain", "stations": ["KDCM", "72311753871", "KUZA", "72059900192", "72060700199", "F4541", "KNGS1", "KLKR", "WHIS1"], "source": "obs"}], "stations": {"KDCM": {"distance": 9292.0, "latitude": 34.79, "longitude": -81.19, "useCount": 0, "id": "KDCM", "name": "KDCM", "quality": 99, "contribution": 0.0}, "72311753871": {"distance": 34173.0, "latitude": 34.987, "longitude": -81.057, "useCount": 0, "id": "72311753871", "name": "ROCK HILL YORK CO AIRPORT, SC US", "quality": 100, "contribution": 0.0}, "KUZA": {"distance": 34388.0, "latitude": 34.99, "longitude": -81.06, "useCount": 0, "id": "KUZA", "name": "KUZA", "quality": 100, "contribution": 0.0}, "72059900192": {"distance": 8310.0, "latitude": 34.783, "longitude": -81.2, "useCount": 0, "id": "72059900192", "name": "CHESTER CATAWBA REGIONAL AIRPORT, SC US", "quality": 99, "contribution": 0.0}, "72060700199": {"distance": 33775.0, "latitude": 34.717, "longitude": -80.85, "useCount": 0, "id": "72060700199", "name": "LANCASTER CO MC WHIRTER FIELD AIRPORT, SC US", "quality": 100, "contribution": 0.0}, "F4541": {"distance": 30965.0, "latitude": 34.984, "longitude": -81.281, "useCount": 0, "id": "F4541", "name": "FW4541 York SC US", "quality": 0, "contribution": 0.0}, "KNGS1": {"distance": 51292.0, "latitude": 35.146, "longitude": -81.402, "useCount": 0, "id": "KNGS1", "name": "KINGS MOUNTAIN SC US", "quality": 0, "contribution": 0.0}, "KLKR": {"distance": 34698.0, "latitude": 34.72, "longitude": -80.84, "useCount": 0, "id": "KLKR", "name": "KLKR", "quality": 99, "contribution": 0.0}, "WHIS1": {"distance": 36787.0, "latitude": 34.538, "longitude": -81.562, "useCount": 0, "id": "WHIS1", "name": "WHITMIRE SC US", "quality": 0, "contribution": 0.0}}}