{"queryCost": 1, "latitude": 42.782, "longitude": -85.549, "resolvedAddress": "42.78200,-85.54900", "address": "42.78200,-85.54900", "timezone": "America/Detroit", "tzoffset": -5.0, "days": [{"datetime": "2019-11-24", "datetimeEpoch": 1574571600, "tempmax": 46.9, "tempmin": 28.6, "temp": 38.0, "feelslikemax": 40.6, "feelslikemin": 22.3, "feelslike": 31.8, "dew": 32.2, "humidity": 80.35, "precip": 0.01, "precipprob": null, "precipcover": 4.17, "preciptype": null, "snow": 0.0, "snowdepth": 0.0, "windgust": 26.4, "windspeed": 20.7, "winddir": 225.0, "pressure": 1003.3, "cloudcover": 55.2, "visibility": 7.9, "solarradiation": 174.1, "solarenergy": 6.9, "uvindex": 4.0, "sunrise": "07:44:53", "sunriseEpoch": 1574599493, "sunset": "17:12:29", "sunsetEpoch": 1574633549, "moonphase": 0.97, "conditions": "Rain, Partially cloudy", "description": "Partly cloudy throughout the day with late afternoon rain.", "icon": "rain", "stations": ["72635094860", "A0735900240", "BDLM4", "KY70", "KBIV", "72539404839", "KGRR"], "source": "obs"}], "stations": {"72635094860": {"distance": 11374.0, "latitude": 42.883, "longitude": -85.524, "useCount": 0, "id": "72635094860", "name": "GRAND RAPIDS GERALD R FORD INTERNATIONAL AIRPORT, MI US", "quality": 100, "contribution": 0.0}, "A0735900240": {"distance": 43442.0, "latitude": 42.938, "longitude": -85.061, "useCount": 0, "id": "A0735900240", "name": "IONIA CO AIRPORT, MI US", "quality": 100, "contribution": 0.0}, "BDLM4": {"distance": 15473.0, "latitude": 42.663, "longitude": -85.647, "useCount": 0, "id": "BDLM4", "name": "PLAINWELL MI US", "quality": 0, "contribution": 0.0}, "KY70": {"distance": 43606.0, "latitude": 42.94, "longitude": -85.06, "useCount": 0, "id": "KY70", "name": "KY70", "quality": 100, "contribution": 0.0}, "KBIV": {"distance": 45170.0, "latitude": 42.75, "longitude": -86.1, "useCount": 0, "id": "KBIV", "name": "KBIV", "quality": 100, "contribution": 0.0}, "72539404839": {"distance": 44939.0, "latitude": 42.746, "longitude": -86.097, "useCount": 0, "id": "72539404839", "name": "HOLLAND TULIP CITY AIRPORT, MI US", "quality": 100, "contribution": 0.0}, "KGRR": {"distance": 11163.0, "latitude": 42.88, "longitude": -85.52, "useCount": 0, "id": "KGRR", "name": "KGRR", "quality": 100, "contribution": 0.0}}}