{"queryCost": 1, "latitude": 39.729, "longitude": -105.016, "resolvedAddress": "39.72900,-105.01600", "address": "39.72900,-105.01600", "timezone": "America/Denver", "tzoffset": -6.0, "days": [{"datetime": "2019-10-21", "datetimeEpoch": 1571637600, "tempmax": 51.5, "tempmin": 33.6, "temp": 41.8, "feelslikemax": 51.5, "feelslikemin": 27.0, "feelslike": 36.9, "dew": 15.0, "humidity": 34.6, "precip": 0.0, "precipprob": 0.0, "precipcover": 0.0, "preciptype": null, "snow": 0.0, "snowdepth": 0.0, "windgust": 37.6, "windspeed": 18.5, "winddir": 278.7, "pressure": 1014.4, "cloudcover": 38.1, "visibility": 9.9, "solarradiation": 118.9, "solarenergy": 10.3, "uvindex": 5.0, "sunrise": "07:16:22", "sunriseEpoch": 1571663782, "sunset": "18:12:24", "sunsetEpoch": 1571703144, "moonphase": 0.75, "conditions": "Partially cloudy", "description": "Partly cloudy throughout the day.", "icon": "partly-cloudy-day", "stations": ["KBKF", "KDEN", "72469523036", "KAPA", "E7168", "72565003017", "72466693067", "AENC2"], "source": "obs"}], "stations": {"KBKF": {"distance": 22797.0, "latitude": 39.72, "longitude": -104.75, "useCount": 0, "id": "KBKF", "name": "KBKF", "quality": 100, "contribution": 0.0}, "KDEN": {"distance": 32992.0, "latitude": 39.86, "longitude": -104.67, "useCount": 0, "id": "KDEN", "name": "KDEN", "quality": 100, "contribution": 0.0}, "72469523036": {"distance": 22816.0, "latitude": 39.717, "longitude": -104.75, "useCount": 0, "id": "72469523036", "name": "AURORA BUCKLEY FIELD ANGB, CO US", "quality": 100, "contribution": 0.0}, "KAPA": {"distance": 22710.0, "latitude": 39.57, "longitude": -104.85, "useCount": 0, "id": "KAPA", "name": "KAPA", "quality": 100, "contribution": 0.0}, "E7168": {"distance": 6059.0, "latitude": 39.685, "longitude": -105.058, "useCount": 0, "id": "E7168", "name": "EW7168 Golden CO US", "quality": 0, "contribution": 0.0}, "72565003017": {"distance": 32734.0, "latitude": 39.833, "longitude": -104.658, "useCount": 0, "id": "72565003017", "name": "DENVER INTERNATIONAL AIRPORT, CO US", "quality": 100, "contribution": 0.0}, "72466693067": {"distance": 22737.0, "latitude": 39.57, "longitude": -104.849, "useCount": 0, "id": "72466693067", "name": "DENVER CENTENNIAL AIRPORT, CO US", "quality": 100, "contribution": 0.0}, "AENC2": {"distance": 17312.0, "latitude": 39.824, "longitude": -104.856, "useCount": 0, "id": "AENC2", "name": "ARSENAL CO US", "quality": 0, "contribution": 0.0}}}