{"queryCost": 1, "latitude": 31.902, "longitude": -95.761, "resolvedAddress": "31.90200,-95.76100", "address": "31.90200,-95.76100", "timezone": "America/Chicago", "tzoffset": -5.0, "days": [{"datetime": "2019-10-19", "datetimeEpoch": 1571461200, "tempmax": 85.3, "tempmin": 58.4, "temp": 69.8, "feelslikemax": 87.4, "feelslikemin": 58.4, "feelslike": 70.3, "dew": 62.7, "humidity": 80.0, "precip": 0.0, "precipprob": 0.0, "precipcover": 0.0, "preciptype": null, "snow": 0.0, "snowdepth": 0.0, "windgust": null, "windspeed": 10.4, "winddir": 177.0, "pressure": null, "cloudcover": 25.2, "visibility": 8.6, "solarradiation": 138.4, "solarenergy": 12.0, "uvindex": 7.0, "sunrise": "07:29:09", "sunriseEpoch": 1571488149, "sunset": "18:46:25", "sunsetEpoch": 1571528785, "moonphase": 0.65, "conditions": "Partially cloudy", "description": "Partly cloudy throughout the day.", "icon": "partly-cloudy-day", "stations": ["APLT2", "KPSN", "72104399999", "KF44", "72031493983", "99999953968", "F1777", "99999900447"], "source": "obs"}], "stations": {"APLT2": {"distance": 25216.0, "latitude": 31.743, "longitude": -95.572, "useCount": 0, "id": "APLT2", "name": "PALESTINE TX US", "quality": 0, "contribution": 0.0}, "KPSN": {"distance": 15786.0, "latitude": 31.77, "longitude": -95.7, "useCount": 0, "id": "KPSN", "name": "KPSN", "quality": 98, "contribution": 0.0}, "72104399999": {"distance": 29829.0, "latitude": 32.164, "longitude": -95.828, "useCount": 0, "id": "72104399999", "name": "ATHENS MUNICIPAL, TX US", "quality": 100, "contribution": 0.0}, "KF44": {"distance": 28163.0, "latitude": 32.15, "longitude": -95.82, "useCount": 0, "id": "KF44", "name": "KF44", "quality": 100, "contribution": 0.0}, "72031493983": {"distance": 14561.0, "latitude": 31.78, "longitude": -95.706, "useCount": 0, "id": "72031493983", "name": "PALESTINE MUNICIPAL AIRPORT, TX US", "quality": 100, "contribution": 0.0}, "99999953968": {"distance": 14087.0, "latitude": 31.78, "longitude": -95.723, "useCount": 0, "id": "99999953968", "name": "PALESTINE 6 WNW, TX US", "quality": 100, "contribution": 0.0}, "F1777": {"distance": 12231.0, "latitude": 31.839, "longitude": -95.655, "useCount": 0, "id": "F1777", "name": "FW1777 Palestine TX US", "quality": 0, "contribution": 0.0}, "99999900447": {"distance": 29827.0, "latitude": 32.164, "longitude": -95.828, "useCount": 0, "id": "99999900447", "name": "ATHENS MUNICIPAL AIRPORT, TX US", "quality": 100, "contribution": 0.0}}}