{"queryCost": 1, "latitude": 47.286, "longitude": -121.925, "resolvedAddress": "47.28600,-121.92500", "address": "47.28600,-121.92500", "timezone": "America/Los_Angeles", "tzoffset": -8.0, "days": [{"datetime": "2019-11-22", "datetimeEpoch": 1574409600, "tempmax": 44.4, "tempmin": 34.4, "temp": 38.1, "feelslikemax": 42.6, "feelslikemin": 29.9, "feelslike": 36.9, "dew": 35.1, "humidity": 88.8, "precip": 0.0, "precipprob": 0.0, "precipcover": 0.0, "preciptype": null, "snow": 0.0, "snowdepth": 0.0, "windgust": null, "windspeed": 5.6, "winddir": 97.6, "pressure": 1025.3, "cloudcover": 55.0, "visibility": 3.1, "solarradiation": 87.3, "solarenergy": 7.5, "uvindex": 4.0, "sunrise": "07:21:51", "sunriseEpoch": 1574436111, "sunset": "16:25:23", "sunsetEpoch": 1574468723, "moonphase": 0.9, "conditions": "Partially cloudy", "description": "Partly cloudy throughout the day.", "icon": "partly-cloudy-day", "stations": ["ENCW1", "72793024233", "KSEA", "KBFI", "72793524234", "72793494248", "KRNT"], "source": "obs"}], "stations": {"ENCW1": {"distance": 7885.0, "latitude": 47.22, "longitude": -121.964, "useCount": 0, "id": "ENCW1", "name": "ENUMCLAW WA US", "quality": 0, "contribution": 0.0}, "72793024233": {"distance": 34223.0, "latitude": 47.444, "longitude": -122.314, "useCount": 0, "id": "72793024233", "name": "SEATTLE TACOMA AIRPORT, WA US", "quality": 100, "contribution": 0.0}, "KSEA": {"distance": 33655.0, "latitude": 47.45, "longitude": -122.3, "useCount": 0, "id": "KSEA", "name": "KSEA", "quality": 100, "contribution": 0.0}, "KBFI": {"distance": 39191.0, "latitude": 47.53, "longitude": -122.3, "useCount": 0, "id": "KBFI", "name": "KBFI", "quality": 100, "contribution": 0.0}, "72793524234": {"distance": 39268.0, "latitude": 47.53, "longitude": -122.301, "useCount": 0, "id": "72793524234", "name": "SEATTLE BOEING FIELD, WA US", "quality": 100, "contribution": 0.0}, "72793494248": {"distance": 31732.0, "latitude": 47.493, "longitude": -122.214, "useCount": 0, "id": "72793494248", "name": "RENTON MUNICIPAL AIRPORT, WA US", "quality": 100, "contribution": 0.0}, "KRNT": {"distance": 32584.0, "latitude": 47.5, "longitude": -122.22, "useCount": 0, "id": "KRNT", "name": "KRNT", "quality": 100, "contribution": 0.0}}}