{"queryCost": 1, "latitude": 39.722, "longitude": -86.086, "resolvedAddress": "39.72200,-86.08600", "address": "39.72200,-86.08600", "timezone": "America/Indiana/Indianapolis", "tzoffset": -4.0, "days": [{"datetime": "2015-06-08", "datetimeEpoch": 1433736000, "tempmax": 77.2, "tempmin": 61.1, "temp": 70.4, "feelslikemax": 77.2, "feelslikemin": 61.1, "feelslike": 70.4, "dew": 63.9, "humidity": 80.4, "precip": 1.35, "precipprob": 100.0, "precipcover": 50.0, "preciptype": ["rain"], "snow": 0.0, "snowdepth": 0.0, "windgust": 35.6, "windspeed": 15.9, "winddir": 236.2, "pressure": 1008.2, "cloudcover": 80.4, "visibility": 9.4, "solarradiation": 138.6, "solarenergy": 11.9, "uvindex": 4.0, "sunrise": "06:16:27", "sunriseEpoch": 1433758587, "sunset": "21:10:34", "sunsetEpoch": 1433812234, "moonphase": 0.69, "conditions": "Rain, Partially cloudy", "description": "Partly cloudy throughout the day with a chance of rain throughout the day.", "icon": "rain", "stations": ["72435653866", "KGEZ", "KEYE", "KIND", "72438093819", "72438453842"], "source": "obs"}], "stations": {"72435653866": {"distance": 29047.0, "latitude": 39.578, "longitude": -85.803, "useCount": 0, "id": "72435653866", "name": "SHELBYVILLE MUNICIPAL AIRPORT, IN US", "quality": 100, "contribution": 0.0}, "KGEZ": {"distance": 29168.0, "latitude": 39.58, "longitude": -85.8, "useCount": 0, "id": "KGEZ", "name": "KGEZ", "quality": 100, "contribution": 0.0}, "KEYE": {"distance": 21193.0, "latitude": 39.83, "longitude": -86.29, "useCount": 0, "id": "KEYE", "name": "KEYE", "quality": 100, "contribution": 0.0}, "KIND": {"distance": 15756.0, "latitude": 39.72, "longitude": -86.27, "useCount": 0, "id": "KIND", "name": "KIND", "quality": 100, "contribution": 0.0}, "72438093819": {"distance": 16760.0, "latitude": 39.725, "longitude": -86.282, "useCount": 0, "id": "72438093819", "name": "INDIANAPOLIS INTERNATIONAL AIRPORT, IN US", "quality": 100, "contribution": 0.0}, "72438453842": {"distance": 21300.0, "latitude": 39.825, "longitude": -86.296, "useCount": 0, "id": "72438453842", "name": "INDIANAPOLIS EAGLE CREEK AIRPORT, IN US", "quality": 100, "contribution": 0.0}}}