{"queryCost": 1, "latitude": 28.129, "longitude": -81.979, "resolvedAddress": "28.12900,-81.97900", "address": "28.12900,-81.97900", "timezone": "America/New_York", "tzoffset": -5.0, "days": [{"datetime": "2019-11-29", "datetimeEpoch": 1575003600, "tempmax": 80.8, "tempmin": 52.6, "temp": 65.1, "feelslikemax": 80.1, "feelslikemin": 52.6, "feelslike": 65.1, "dew": 54.2, "humidity": 71.23, "precip": 0.0, "precipprob": null, "precipcover": 0.0, "preciptype": null, "snow": 0.0, "snowdepth": 0.0, "windgust": null, "windspeed": 8.7, "winddir": 106.6, "pressure": 1020.8, "cloudcover": 0.0, "visibility": 9.9, "solarradiation": 315.3, "solarenergy": 13.6, "uvindex": 6.0, "sunrise": "07:00:36", "sunriseEpoch": 1575028836, "sunset": "17:31:37", "sunsetEpoch": 1575066697, "moonphase": 0.05, "conditions": "Clear", "description": "Clear conditions throughout the day.", "icon": "clear-day", "stations": ["74793112876", "0527W", "KZPH", "72037392824", "72104200486", "KGIF", "KPCM"], "source": "obs"}], "stations": {"74793112876": {"distance": 23295.0, "latitude": 28.062, "longitude": -81.754, "useCount": 0, "id": "74793112876", "name": "WINTER HAVEN GILBERT AIRPORT, FL US", "quality": 100, "contribution": 0.0}, "0527W": {"distance": 8785.0, "latitude": 28.056, "longitude": -82.014, "useCount": 0, "id": "0527W", "name": "Winston Academy of Engineering FL US WEATHERSTEM", "quality": 0, "contribution": 0.0}, "KZPH": {"distance": 19601.0, "latitude": 28.22, "longitude": -82.15, "useCount": 0, "id": "KZPH", "name": "KZPH", "quality": 100, "contribution": 0.0}, "72037392824": {"distance": 23156.0, "latitude": 28.0, "longitude": -82.164, "useCount": 0, "id": "72037392824", "name": "PLANT CITY MUNICIPAL AIRPORT, FL US", "quality": 99, "contribution": 0.0}, "72104200486": {"distance": 20567.0, "latitude": 28.228, "longitude": -82.156, "useCount": 0, "id": "72104200486", "name": "ZEPHYRHILLS MUNICIPAL AIRPORT, FL US", "quality": 100, "contribution": 0.0}, "KGIF": {"distance": 24148.0, "latitude": 28.05, "longitude": -81.75, "useCount": 0, "id": "KGIF", "name": "KGIF", "quality": 100, "contribution": 0.0}, "KPCM": {"distance": 22855.0, "latitude": 28.0, "longitude": -82.16, "useCount": 0, "id": "KPCM", "name": "KPCM", "quality": 99, "contribution": 0.0}}}