{"queryCost": 1, "latitude": 33.847, "longitude": -117.922, "resolvedAddress": "33.84700,-117.92200", "address": "33.84700,-117.92200", "timezone": "America/Los_Angeles", "tzoffset": -7.0, "days": [{"datetime": "2015-06-08", "datetimeEpoch": 1433746800, "tempmax": 91.5, "tempmin": 61.1, "temp": 72.9, "feelslikemax": 91.4, "feelslikemin": 61.1, "feelslike": 72.7, "dew": 59.1, "humidity": 66.4, "precip": 0.0, "precipprob": 0.0, "precipcover": 0.0, "preciptype": null, "snow": 0.0, "snowdepth": 0.0, "windgust": null, "windspeed": 10.4, "winddir": 223.1, "pressure": 1010.2, "cloudcover": 11.8, "visibility": 8.8, "solarradiation": 355.1, "solarenergy": 30.6, "uvindex": 10.0, "sunrise": "05:40:35", "sunriseEpoch": 1433767235, "sunset": "20:01:07", "sunsetEpoch": 1433818867, "moonphase": 0.69, "conditions": "Clear", "description": "Clear conditions throughout the day.", "icon": "clear-day", "stations": ["KFUL", "72297793184", "KSLI", "KSNA", "72297603166", "72297023129"], "source": "obs"}], "stations": {"KFUL": {"distance": 5554.0, "latitude": 33.86, "longitude": -117.98, "useCount": 0, "id": "KFUL", "name": "KFUL", "quality": 100, "contribution": 0.0}, "72297793184": {"distance": 19299.0, "latitude": 33.68, "longitude": -117.866, "useCount": 0, "id": "72297793184", "name": "SANTA ANA JOHN WAYNE AIRPORT, CA US", "quality": 100, "contribution": 0.0}, "KSLI": {"distance": 13992.0, "latitude": 33.78, "longitude": -118.05, "useCount": 0, "id": "KSLI", "name": "KSLI", "quality": 93, "contribution": 0.0}, "KSNA": {"distance": 19203.0, "latitude": 33.68, "longitude": -117.87, "useCount": 0, "id": "KSNA", "name": "KSNA", "quality": 100, "contribution": 0.0}, "72297603166": {"distance": 5954.0, "latitude": 33.872, "longitude": -117.979, "useCount": 0, "id": "72297603166", "name": "FULLERTON MUNICIPAL AIRPORT, CA US", "quality": 100, "contribution": 0.0}, "72297023129": {"distance": 21085.0, "latitude": 33.812, "longitude": -118.146, "useCount": 0, "id": "72297023129", "name": "LONG BEACH DAUGHERTY AIRPORT, CA US", "quality": 100, "contribution": 0.0}}}