{"queryCost": 1, "latitude": 47.519, "longitude": -111.311, "resolvedAddress": "47.51900,-111.31100", "address": "47.51900,-111.31100", "timezone": "America/Denver", "tzoffset": -7.0, "days": [{"datetime": "2019-11-25", "datetimeEpoch": 1574665200, "tempmax": 34.2, "tempmin": 23.2, "temp": 28.8, "feelslikemax": 30.6, "feelslikemin": 15.1, "feelslike": 23.0, "dew": 19.8, "humidity": 69.76, "precip": 0.01, "precipprob": null, "precipcover": 4.17, "preciptype": null, "snow": 1.23, "snowdepth": 1.23, "windgust": null, "windspeed": 8.7, "winddir": 226.5, "pressure": 1013.4, "cloudcover": 58.0, "visibility": 9.8, "solarradiation": 101.2, "solarenergy": 4.0, "uvindex": 2.0, "sunrise": "07:44:17", "sunriseEpoch": 1574693057, "sunset": "16:39:47", "sunsetEpoch": 1574725187, "moonphase": 1.0, "conditions": "Snow, Partially cloudy", "description": "Partly cloudy throughout the day with late afternoon snow.", "icon": "snow", "stations": ["72100399999", "MTM21", "DBOM8", "72775024143", "KGFA", "72775524112", "K1IM", "KGTF"], "source": "obs"}], "stations": {"72100399999": {"distance": 25401.0, "latitude": 47.317, "longitude": -111.467, "useCount": 0, "id": "72100399999", "name": "INDIA ULM, MT US", "quality": 94, "contribution": 0.0}, "MTM21": {"distance": 22467.0, "latitude": 47.69, "longitude": -111.47, "useCount": 0, "id": "MTM21", "name": "Benton Lake W MT US MT-MESO", "quality": 0, "contribution": 0.0}, "DBOM8": {"distance": 61888.0, "latitude": 47.133, "longitude": -111.901, "useCount": 0, "id": "DBOM8", "name": "DEARBORN MT US", "quality": 0, "contribution": 0.0}, "72775024143": {"distance": 7375.0, "latitude": 47.473, "longitude": -111.382, "useCount": 0, "id": "72775024143", "name": "GREAT FALLS AIRPORT, MT US", "quality": 100, "contribution": 0.0}, "KGFA": {"distance": 10075.0, "latitude": 47.5, "longitude": -111.18, "useCount": 0, "id": "KGFA", "name": "KGFA", "quality": 100, "contribution": 0.0}, "72775524112": {"distance": 9627.0, "latitude": 47.517, "longitude": -111.183, "useCount": 0, "id": "72775524112", "name": "MALMSTROM AFB, MT US", "quality": 96, "contribution": 0.0}, "K1IM": {"distance": 25183.0, "latitude": 47.32, "longitude": -111.47, "useCount": 0, "id": "K1IM", "name": "K1IM", "quality": 97, "contribution": 0.0}, "KGTF": {"distance": 6208.0, "latitude": 47.48, "longitude": -111.37, "useCount": 0, "id": "KGTF", "name": "KGTF", "quality": 100, "contribution": 0.0}}}