{"queryCost": 1, "latitude": 36.166, "longitude": -82.855, "resolvedAddress": "36.16600,-82.85500", "address": "36.16600,-82.85500", "timezone": "America/New_York", "tzoffset": -5.0, "days": [{"datetime": "2019-11-26", "datetimeEpoch": 1574744400, "tempmax": 55.6, "tempmin": 30.8, "temp": 42.9, "feelslikemax": 55.6, "feelslikemin": 30.8, "feelslike": 42.8, "dew": 36.6, "humidity": 80.4, "precip": 0.0, "precipprob": 0.0, "precipcover": 0.0, "preciptype": null, "snow": 0.0, "snowdepth": 0.0, "windgust": null, "windspeed": 3.3, "winddir": 55.6, "pressure": 1015.1, "cloudcover": 37.1, "visibility": 9.4, "solarradiation": 80.0, "solarenergy": 6.8, "uvindex": 4.0, "sunrise": "07:19:03", "sunriseEpoch": 1574770743, "sunset": "17:18:04", "sunsetEpoch": 1574806684, "moonphase": 1.0, "conditions": "Partially cloudy", "description": "Partly cloudy throughout the day.", "icon": "partly-cloudy-day", "stations": ["KTRI", "PGVT1", "72335013877", "KMOR", "99999953877", "K0A9"], "source": "obs"}], "stations": {"KTRI": {"distance": 53017.0, "latitude": 36.47, "longitude": -82.4, "useCount": 0, "id": "KTRI", "name": "KTRI", "quality": 100, "contribution": 0.0}, "PGVT1": {"distance": 20521.0, "latitude": 35.982, "longitude": -82.843, "useCount": 0, "id": "PGVT1", "name": "NOLICHUCKY TN US", "quality": 0, "contribution": 0.0}, "72335013877": {"distance": 53779.0, "latitude": 36.48, "longitude": -82.399, "useCount": 0, "id": "72335013877", "name": "BRISTOL AIRPORT, TN US", "quality": 100, "contribution": 0.0}, "KMOR": {"distance": 45407.0, "latitude": 36.18, "longitude": -83.36, "useCount": 0, "id": "KMOR", "name": "KMOR", "quality": 99, "contribution": 0.0}, "99999953877": {"distance": 77846.0, "latitude": 35.495, "longitude": -82.614, "useCount": 0, "id": "99999953877", "name": "ASHEVILLE 8 SSW, NC US", "quality": 100, "contribution": 0.0}, "K0A9": {"distance": 65167.0, "latitude": 36.36, "longitude": -82.17, "useCount": 0, "id": "K0A9", "name": "K0A9", "quality": 98, "contribution": 0.0}}}