{"queryCost": 1, "latitude": 45.519, "longitude": -122.558, "resolvedAddress": "45.51900,-122.55800", "address": "45.51900,-122.55800", "timezone": "America/Los_Angeles", "tzoffset": -8.0, "days": [{"datetime": "2019-12-08", "datetimeEpoch": 1575792000, "tempmax": 52.1, "tempmin": 45.0, "temp": 48.0, "feelslikemax": 52.1, "feelslikemin": 45.0, "feelslike": 47.8, "dew": 44.9, "humidity": 88.88, "precip": 0.0, "precipprob": null, "precipcover": 0.0, "preciptype": null, "snow": 0.0, "snowdepth": 0.0, "windgust": null, "windspeed": 6.6, "winddir": 26.0, "pressure": 1018.4, "cloudcover": 84.2, "visibility": 6.2, "solarradiation": 46.5, "solarenergy": 2.2, "uvindex": 1.0, "sunrise": "07:37:29", "sunriseEpoch": 1575819449, "sunset": "16:26:39", "sunsetEpoch": 1575851199, "moonphase": 0.43, "conditions": "Partially cloudy", "description": "Partly cloudy throughout the day.", "icon": "partly-cloudy-day", "stations": ["72698524242", "C7021", "D6016", "KVUO", "KTTD", "72698024229", "KPDX", "E8319", "72791894298"], "source": "obs"}], "stations": {"72698524242": {"distance": 12156.0, "latitude": 45.551, "longitude": -122.409, "useCount": 0, "id": "72698524242", "name": "PORTLAND TROUTDALE AIRPORT, OR US", "quality": 100, "contribution": 0.0}, "C7021": {"distance": 6685.0, "latitude": 45.475, "longitude": -122.616, "useCount": 0, "id": "C7021", "name": "CW7021 Portland OR US", "quality": 0, "contribution": 0.0}, "D6016": {"distance": 8432.0, "latitude": 45.451, "longitude": -122.605, "useCount": 0, "id": "D6016", "name": "DW6016 Milwaukie OR US", "quality": 0, "contribution": 0.0}, "KVUO": {"distance": 13769.0, "latitude": 45.62, "longitude": -122.66, "useCount": 0, "id": "KVUO", "name": "KVUO", "quality": 100, "contribution": 0.0}, "KTTD": {"distance": 11301.0, "latitude": 45.55, "longitude": -122.42, "useCount": 0, "id": "KTTD", "name": "KTTD", "quality": 100, "contribution": 0.0}, "72698024229": {"distance": 9428.0, "latitude": 45.596, "longitude": -122.609, "useCount": 0, "id": "72698024229", "name": "PORTLAND INTERNATIONAL AIRPORT, OR US", "quality": 100, "contribution": 0.0}, "KPDX": {"distance": 9593.0, "latitude": 45.6, "longitude": -122.6, "useCount": 0, "id": "KPDX", "name": "KPDX", "quality": 100, "contribution": 0.0}, "E8319": {"distance": 7865.0, "latitude": 45.457, "longitude": -122.605, "useCount": 0, "id": "E8319", "name": "EW8319 Milwaukie OR US", "quality": 0, "contribution": 0.0}, "72791894298": {"distance": 13709.0, "latitude": 45.621, "longitude": -122.657, "useCount": 0, "id": "72791894298", "name": "VANCOUVER PEARSON AIRPORT, WA US", "quality": 100, "contribution": 0.0}}}