{"queryCost": 1, "latitude": 43.42, "longitude": -74.55, "resolvedAddress": "43.42000,-74.55000", "address": "43.42000,-74.55000", "timezone": "America/New_York", "tzoffset": -5.0, "days": [{"datetime": "2019-12-10", "datetimeEpoch": 1575954000, "tempmax": 46.7, "tempmin": 30.9, "temp": 40.9, "feelslikemax": 43.4, "feelslikemin": 20.6, "feelslike": 35.7, "dew": 37.3, "humidity": 87.3, "precip": 0.19, "precipprob": 100.0, "precipcover": 33.33, "preciptype": ["rain"], "snow": 0.1, "snowdepth": 6.8, "windgust": 20.8, "windspeed": 13.9, "winddir": 245.1, "pressure": 1008.6, "cloudcover": 90.7, "visibility": 7.7, "solarradiation": 11.7, "solarenergy": 1.1, "uvindex": 1.0, "sunrise": "07:19:50", "sunriseEpoch": 1575980390, "sunset": "16:21:56", "sunsetEpoch": 1576012916, "moonphase": 0.48, "conditions": "Rain, Overcast", "description": "Cloudy skies throughout the day with a chance of rain or snow throughout the day.", "icon": "snow", "stations": ["KGFL", "74499404741", "72522014750", "LPSN6", "72519664775", "KRME"], "source": "obs"}], "stations": {"KGFL": {"distance": 75915.0, "latitude": 43.33, "longitude": -73.62, "useCount": 0, "id": "KGFL", "name": "KGFL", "quality": 100, "contribution": 0.0}, "74499404741": {"distance": 80011.0, "latitude": 42.85, "longitude": -73.95, "useCount": 0, "id": "74499404741", "name": "SCHENECTADY, NY US", "quality": 4, "contribution": 0.0}, "72522014750": {"distance": 76570.0, "latitude": 43.339, "longitude": -73.61, "useCount": 0, "id": "72522014750", "name": "GLENS FALLS AIRPORT, NY US", "quality": 100, "contribution": 0.0}, "LPSN6": {"distance": 12396.0, "latitude": 43.47, "longitude": -74.413, "useCount": 0, "id": "LPSN6", "name": "LAKE PLEASANT NY US", "quality": 0, "contribution": 0.0}, "72519664775": {"distance": 72790.0, "latitude": 43.234, "longitude": -75.412, "useCount": 0, "id": "72519664775", "name": "ROME GRIFFISS AIRFIELD, NY US", "quality": 100, "contribution": 0.0}, "KRME": {"distance": 72010.0, "latitude": 43.23, "longitude": -75.4, "useCount": 0, "id": "KRME", "name": "KRME", "quality": 100, "contribution": 0.0}}}