{"queryCost": 1, "latitude": 43.105, "longitude": -87.971, "resolvedAddress": "43.10500,-87.97100", "address": "43.10500,-87.97100", "timezone": "America/Chicago", "tzoffset": -6.0, "days": [{"datetime": "2019-12-15", "datetimeEpoch": 1576389600, "tempmax": 26.2, "tempmin": 12.6, "temp": 20.5, "feelslikemax": 24.4, "feelslikemin": -0.5, "feelslike": 12.6, "dew": 10.1, "humidity": 64.3, "precip": 0.0, "precipprob": null, "precipcover": 0.0, "preciptype": null, "snow": 0.25, "snowdepth": 0.25, "windgust": 24.2, "windspeed": 13.0, "winddir": 267.5, "pressure": 1018.8, "cloudcover": 47.7, "visibility": 9.9, "solarradiation": 152.5, "solarenergy": 6.0, "uvindex": 3.0, "sunrise": "07:16:32", "sunriseEpoch": 1576415792, "sunset": "16:17:25", "sunsetEpoch": 1576448245, "moonphase": 0.56, "conditions": "Partially cloudy", "description": "Partly cloudy throughout the day.", "icon": "snow", "stations": ["AN659", "72640014839", "F6268", "D0835", "KETB", "72641304875", "KMWC", "KMKE", "72642494818"], "source": "obs"}], "stations": {"AN659": {"distance": 6819.0, "latitude": 43.061, "longitude": -87.912, "useCount": 0, "id": "AN659", "name": "MILWAUKEE SER DNR WI WIDNR", "quality": 0, "contribution": 0.0}, "72640014839": {"distance": 17555.0, "latitude": 42.955, "longitude": -87.904, "useCount": 0, "id": "72640014839", "name": "MILWAUKEE MITCHELL INTERNATIONAL AIRPORT, WI US", "quality": 100, "contribution": 0.0}, "F6268": {"distance": 18828.0, "latitude": 43.2, "longitude": -88.163, "useCount": 0, "id": "F6268", "name": "FW6268 Colgate WI US", "quality": 0, "contribution": 0.0}, "D0835": {"distance": 15214.0, "latitude": 42.986, "longitude": -87.878, "useCount": 0, "id": "D0835", "name": "DW0835 Milwaukee WI US", "quality": 0, "contribution": 0.0}, "KETB": {"distance": 37360.0, "latitude": 43.42, "longitude": -88.13, "useCount": 0, "id": "KETB", "name": "KETB", "quality": 98, "contribution": 0.0}, "72641304875": {"distance": 37109.0, "latitude": 43.417, "longitude": -88.133, "useCount": 0, "id": "72641304875", "name": "WEST BEND MUNICIPAL AIRPORT, WI US", "quality": 100, "contribution": 0.0}, "KMWC": {"distance": 5077.0, "latitude": 43.12, "longitude": -88.03, "useCount": 0, "id": "KMWC", "name": "KMWC", "quality": 73, "contribution": 0.0}, "KMKE": {"distance": 18196.0, "latitude": 42.95, "longitude": -87.9, "useCount": 0, "id": "KMKE", "name": "KMKE", "quality": 100, "contribution": 0.0}, "72642494818": {"distance": 40375.0, "latitude": 42.761, "longitude": -87.814, "useCount": 0, "id": "72642494818", "name": "RACINE BATTEN AIRPORT, WI US", "quality": 100, "contribution": 0.0}}}