{"queryCost": 1, "latitude": 32.269, "longitude": -110.969, "resolvedAddress": "32.26900,-110.96900", "address": "32.26900,-110.96900", "timezone": "America/Phoenix", "tzoffset": -7.0, "days": [{"datetime": "2019-12-14", "datetimeEpoch": 1576306800, "tempmax": 73.0, "tempmin": 46.1, "temp": 57.5, "feelslikemax": 73.0, "feelslikemin": 42.5, "feelslike": 56.3, "dew": 39.8, "humidity": 54.5, "precip": 0.0, "precipprob": 0.0, "precipcover": 0.0, "preciptype": null, "snow": 0.0, "snowdepth": 0.0, "windgust": 18.3, "windspeed": 10.9, "winddir": 156.5, "pressure": 1011.2, "cloudcover": 0.0, "visibility": 9.9, "solarradiation": 155.1, "solarenergy": 13.4, "uvindex": 6.0, "sunrise": "07:16:57", "sunriseEpoch": 1576333017, "sunset": "17:20:05", "sunsetEpoch": 1576369205, "moonphase": 0.53, "conditions": "Clear", "description": "Clear conditions throughout the day.", "icon": "clear-day", "stations": ["KAVQ", "72274023160", "KTUS", "AZM01", "KDMA", "72274523109", "99999953131"], "source": "obs"}], "stations": {"KAVQ": {"distance": 26954.0, "latitude": 32.4, "longitude": -111.21, "useCount": 0, "id": "KAVQ", "name": "KAVQ", "quality": 99, "contribution": 0.0}, "72274023160": {"distance": 15385.0, "latitude": 32.131, "longitude": -110.955, "useCount": 0, "id": "72274023160", "name": "TUCSON INTERNATIONAL AIRPORT, AZ US", "quality": 100, "contribution": 0.0}, "KTUS": {"distance": 15497.0, "latitude": 32.13, "longitude": -110.96, "useCount": 0, "id": "KTUS", "name": "KTUS", "quality": 100, "contribution": 0.0}, "AZM01": {"distance": 2167.0, "latitude": 32.28, "longitude": -110.95, "useCount": 0, "id": "AZM01", "name": "Tucson AZ US AZMET", "quality": 0, "contribution": 0.0}, "KDMA": {"distance": 13846.0, "latitude": 32.17, "longitude": -110.88, "useCount": 0, "id": "KDMA", "name": "KDMA", "quality": 100, "contribution": 0.0}, "72274523109": {"distance": 13975.0, "latitude": 32.167, "longitude": -110.883, "useCount": 0, "id": "72274523109", "name": "DAVIS MONTHAN AFB, AZ US", "quality": 97, "contribution": 0.0}, "99999953131": {"distance": 19205.0, "latitude": 32.24, "longitude": -111.17, "useCount": 0, "id": "99999953131", "name": "TUCSON 11 W, AZ US", "quality": 100, "contribution": 0.0}}}