{"queryCost": 1, "latitude": 21.302, "longitude": -158.11, "resolvedAddress": "21.30200,-158.11000", "address": "21.30200,-158.11000", "timezone": "Pacific/Honolulu", "tzoffset": -10.0, "days": [{"datetime": "2019-12-17", "datetimeEpoch": 1576576800, "tempmax": 84.5, "tempmin": 75.8, "temp": 79.3, "feelslikemax": 87.6, "feelslikemin": 75.8, "feelslike": 80.2, "dew": 66.5, "humidity": 65.3, "precip": 0.0, "precipprob": 0.0, "precipcover": 0.0, "preciptype": null, "snow": 0.0, "snowdepth": 0.0, "windgust": 30.7, "windspeed": 15.4, "winddir": 67.5, "pressure": 1018.2, "cloudcover": 36.8, "visibility": 9.9, "solarradiation": 163.0, "solarenergy": 13.9, "uvindex": 6.0, "sunrise": "07:03:28", "sunriseEpoch": 1576602208, "sunset": "17:53:47", "sunsetEpoch": 1576641227, "moonphase": 0.66, "conditions": "Partially cloudy", "description": "Partly cloudy throughout the day.", "icon": "partly-cloudy-day", "stations": ["PHNL", "PHNG", "PHJR", "91178022551", "91182022521", "91170022508", "PLHH1"], "source": "obs"}], "stations": {"PHNL": {"distance": 19415.0, "latitude": 21.35, "longitude": -157.93, "useCount": 0, "id": "PHNL", "name": "HONOLULU INTL,HI", "quality": 100, "contribution": 0.0}, "PHNG": {"distance": 38906.0, "latitude": 21.45, "longitude": -157.77, "useCount": 0, "id": "PHNG", "name": "PHNG", "quality": 97, "contribution": 0.0}, "PHJR": {"distance": 4607.0, "latitude": 21.32, "longitude": -158.07, "useCount": 0, "id": "PHJR", "name": "KALAELOA AIRPORT, HI", "quality": 84, "contribution": 0.0}, "91178022551": {"distance": 4750.0, "latitude": 21.317, "longitude": -158.067, "useCount": 0, "id": "91178022551", "name": "EWA KALAELOA AIRPORT, HI US", "quality": 98, "contribution": 0.0}, "91182022521": {"distance": 18930.0, "latitude": 21.324, "longitude": -157.929, "useCount": 0, "id": "91182022521", "name": "HONOLULU INTERNATIONAL AIRPORT, HI US", "quality": 100, "contribution": 0.0}, "91170022508": {"distance": 22300.0, "latitude": 21.487, "longitude": -158.028, "useCount": 0, "id": "91170022508", "name": "WHEELER ARMY AIR FIELD 810.1, HI US", "quality": 99, "contribution": 0.0}, "PLHH1": {"distance": 9249.0, "latitude": 21.385, "longitude": -158.104, "useCount": 0, "id": "PLHH1", "name": "PALEHUA HI US", "quality": 0, "contribution": 0.0}}}