{"queryCost": 1, "latitude": 34.032, "longitude": -118.192, "resolvedAddress": "34.03200,-118.19200", "address": "34.03200,-118.19200", "timezone": "America/Los_Angeles", "tzoffset": -8.0, "days": [{"datetime": "2019-12-16", "datetimeEpoch": 1576483200, "tempmax": 69.3, "tempmin": 49.5, "temp": 58.0, "feelslikemax": 69.3, "feelslikemin": 48.4, "feelslike": 58.0, "dew": 24.9, "humidity": 29.53, "precip": 0.0, "precipprob": null, "precipcover": 0.0, "preciptype": null, "snow": 0.0, "snowdepth": 0.0, "windgust": null, "windspeed": 5.0, "winddir": 103.8, "pressure": 1022.6, "cloudcover": 3.6, "visibility": 9.9, "solarradiation": 288.5, "solarenergy": 11.4, "uvindex": 6.0, "sunrise": "06:51:33", "sunriseEpoch": 1576507893, "sunset": "16:45:15", "sunsetEpoch": 1576543515, "moonphase": 0.61, "conditions": "Clear", "description": "Clear conditions throughout the day.", "icon": "clear-day", "stations": ["A2968", "KHHR", "72295023174", "KCQT", "72295603167", "KLAX", "72287493134", "CQ070"], "source": "obs"}], "stations": {"A2968": {"distance": 5009.0, "latitude": 34.066, "longitude": -118.227, "useCount": 0, "id": "A2968", "name": "Los Angeles - N. Main Street CA SCQ", "quality": 0, "contribution": 0.0}, "KHHR": {"distance": 17825.0, "latitude": 33.92, "longitude": -118.33, "useCount": 0, "id": "KHHR", "name": "KHHR", "quality": 100, "contribution": 0.0}, "72295023174": {"distance": 20980.0, "latitude": 33.938, "longitude": -118.389, "useCount": 0, "id": "72295023174", "name": "LOS ANGELES INTERNATIONAL AIRPORT, CA US", "quality": 100, "contribution": 0.0}, "KCQT": {"distance": 8228.0, "latitude": 34.02, "longitude": -118.28, "useCount": 0, "id": "KCQT", "name": "KCQT", "quality": 100, "contribution": 0.0}, "72295603167": {"distance": 17877.0, "latitude": 33.923, "longitude": -118.334, "useCount": 0, "id": "72295603167", "name": "HAWTHORNE MUNICIPAL AIRPORT, CA US", "quality": 100, "contribution": 0.0}, "KLAX": {"distance": 22306.0, "latitude": 33.93, "longitude": -118.4, "useCount": 0, "id": "KLAX", "name": "KLAX", "quality": 100, "contribution": 0.0}, "72287493134": {"distance": 9181.0, "latitude": 34.024, "longitude": -118.291, "useCount": 0, "id": "72287493134", "name": "LOS ANGELES DOWNTOWN USC, CA US", "quality": 100, "contribution": 0.0}, "CQ070": {"distance": 5051.0, "latitude": 34.067, "longitude": -118.227, "useCount": 0, "id": "CQ070", "name": "Los Angeles-North Main Street CA US CARB", "quality": 0, "contribution": 0.0}}}