{"queryCost": 1, "latitude": 25.935, "longitude": -97.538, "resolvedAddress": "25.93500,-97.53800", "address": "25.93500,-97.53800", "timezone": "America/Chicago", "tzoffset": -6.0, "days": [{"datetime": "2019-12-15", "datetimeEpoch": 1576389600, "tempmax": 84.2, "tempmin": 69.3, "temp": 75.4, "feelslikemax": 86.8, "feelslikemin": 69.3, "feelslike": 76.1, "dew": 67.9, "humidity": 78.82, "precip": 0.0, "precipprob": null, "precipcover": 0.0, "preciptype": null, "snow": 0.0, "snowdepth": 0.0, "windgust": 49.0, "windspeed": 31.6, "winddir": 176.1, "pressure": 1008.3, "cloudcover": 37.4, "visibility": 9.5, "solarradiation": 293.5, "solarenergy": 13.7, "uvindex": 6.0, "sunrise": "07:09:27", "sunriseEpoch": 1576415367, "sunset": "17:41:05", "sunsetEpoch": 1576453265, "moonphase": 0.56, "conditions": "Partially cloudy", "description": "Partly cloudy throughout the day.", "icon": "wind", "stations": ["E9626", "KHRL", "72250512904", "72250012919", "ATRT2", "KBRO", "KPIL", "AN473", "72250812957"], "source": "obs"}], "stations": {"E9626": {"distance": 2357.0, "latitude": 25.923, "longitude": -97.519, "useCount": 0, "id": "E9626", "name": "EW9626 Brownsville TX US", "quality": 0, "contribution": 0.0}, "KHRL": {"distance": 34696.0, "latitude": 26.23, "longitude": -97.65, "useCount": 0, "id": "KHRL", "name": "KHRL", "quality": 100, "contribution": 0.0}, "72250512904": {"distance": 34635.0, "latitude": 26.228, "longitude": -97.654, "useCount": 0, "id": "72250512904", "name": "HARLINGEN RIO GRANDE VALLEY INTERNATIONAL AIRPORT, TX US", "quality": 99, "contribution": 0.0}, "72250012919": {"distance": 11746.0, "latitude": 25.914, "longitude": -97.423, "useCount": 0, "id": "72250012919", "name": "BROWNSVILLE S PADRE ISLAND INTERNATIONAL AIRPORT, TX US", "quality": 100, "contribution": 0.0}, "ATRT2": {"distance": 37714.0, "latitude": 26.228, "longitude": -97.349, "useCount": 0, "id": "ATRT2", "name": "LAGUNA ATASCOSA TX US", "quality": 0, "contribution": 0.0}, "KBRO": {"distance": 11494.0, "latitude": 25.9, "longitude": -97.43, "useCount": 0, "id": "KBRO", "name": "KBRO", "quality": 100, "contribution": 0.0}, "KPIL": {"distance": 32216.0, "latitude": 26.17, "longitude": -97.35, "useCount": 0, "id": "KPIL", "name": "KPIL", "quality": 91, "contribution": 0.0}, "AN473": {"distance": 6492.0, "latitude": 25.893, "longitude": -97.494, "useCount": 0, "id": "AN473", "name": "Brownsville C80 TX TCEQ", "quality": 0, "contribution": 0.0}, "72250812957": {"distance": 32087.0, "latitude": 26.166, "longitude": -97.346, "useCount": 0, "id": "72250812957", "name": "PORT ISABEL CAMERON CO AIRPORT, TX US", "quality": 90, "contribution": 0.0}}}