{"queryCost": 1, "latitude": 34.162, "longitude": -117.334, "resolvedAddress": "34.16200,-117.33400", "address": "34.16200,-117.33400", "timezone": "America/Los_Angeles", "tzoffset": -8.0, "days": [{"datetime": "2019-12-16", "datetimeEpoch": 1576483200, "tempmax": 63.1, "tempmin": 37.6, "temp": 52.0, "feelslikemax": 63.1, "feelslikemin": 33.6, "feelslike": 51.3, "dew": 19.2, "humidity": 34.0, "precip": 0.0, "precipprob": 0.0, "precipcover": 0.0, "preciptype": null, "snow": 0.0, "snowdepth": 0.0, "windgust": 32.5, "windspeed": 18.2, "winddir": 59.0, "pressure": 1022.9, "cloudcover": 16.4, "visibility": 9.9, "solarradiation": 142.8, "solarenergy": 12.3, "uvindex": 6.0, "sunrise": "06:48:26", "sunriseEpoch": 1576507706, "sunset": "16:41:29", "sunsetEpoch": 1576543289, "moonphase": 0.61, "conditions": "Clear", "description": "Clear conditions throughout the day.", "icon": "clear-day", "stations": ["KRAL", "72286023119", "KRIV", "SE190", "KONT", "74704003102", "72286903171"], "source": "obs"}], "stations": {"KRAL": {"distance": 25911.0, "latitude": 33.95, "longitude": -117.45, "useCount": 0, "id": "KRAL", "name": "KRAL", "quality": 100, "contribution": 0.0}, "72286023119": {"distance": 30178.0, "latitude": 33.9, "longitude": -117.25, "useCount": 0, "id": "72286023119", "name": "MARCH AFB, CA US", "quality": 97, "contribution": 0.0}, "KRIV": {"distance": 31943.0, "latitude": 33.88, "longitude": -117.27, "useCount": 0, "id": "KRIV", "name": "KRIV", "quality": 100, "contribution": 0.0}, "SE190": {"distance": 658.0, "latitude": 34.163, "longitude": -117.341, "useCount": 0, "id": "SE190", "name": "SCE Cajon Blvd CA US SC-EDISON", "quality": 0, "contribution": 0.0}, "KONT": {"distance": 28029.0, "latitude": 34.04, "longitude": -117.6, "useCount": 0, "id": "KONT", "name": "KONT", "quality": 100, "contribution": 0.0}, "74704003102": {"distance": 27204.0, "latitude": 34.056, "longitude": -117.6, "useCount": 0, "id": "74704003102", "name": "ONTARIO INTERNATIONAL AIRPORT, CA US", "quality": 100, "contribution": 0.0}, "72286903171": {"distance": 25314.0, "latitude": 33.952, "longitude": -117.439, "useCount": 0, "id": "72286903171", "name": "RIVERSIDE MUNICIPAL AIRPORT, CA US", "quality": 100, "contribution": 0.0}}}