{"queryCost": 1, "latitude": 28.021, "longitude": -82.402, "resolvedAddress": "28.02100,-82.40200", "address": "28.02100,-82.40200", "timezone": "America/New_York", "tzoffset": -5.0, "days": [{"datetime": "2019-12-12", "datetimeEpoch": 1576126800, "tempmax": 77.2, "tempmin": 62.8, "temp": 69.1, "feelslikemax": 77.2, "feelslikemin": 62.8, "feelslike": 69.1, "dew": 64.7, "humidity": 86.55, "precip": 0.0, "precipprob": null, "precipcover": 0.0, "preciptype": null, "snow": 0.0, "snowdepth": 0.0, "windgust": 20.8, "windspeed": 11.6, "winddir": 57.5, "pressure": 1022.9, "cloudcover": 50.6, "visibility": 9.9, "solarradiation": 100.1, "solarenergy": 8.7, "uvindex": 4.0, "sunrise": "07:11:31", "sunriseEpoch": 1576152691, "sunset": "17:35:01", "sunsetEpoch": 1576190101, "moonphase": 0.5, "conditions": "Partially cloudy", "description": "Partly cloudy throughout the day.", "icon": "partly-cloudy-day", "stations": ["0417W", "74788012810", "KMCF", "D8345", "KTPA", "72211012842", "72202192816", "1037W", "KVDF"], "source": "obs"}], "stations": {"0417W": {"distance": 5423.0, "latitude": 27.988, "longitude": -82.361, "useCount": 0, "id": "0417W", "name": "Florida Learning Garden FL US WEATHERSTEM", "quality": 0, "contribution": 0.0}, "74788012810": {"distance": 22127.0, "latitude": 27.85, "longitude": -82.517, "useCount": 0, "id": "74788012810", "name": "MACDILL AFB, FL US", "quality": 99, "contribution": 0.0}, "KMCF": {"distance": 22294.0, "latitude": 27.85, "longitude": -82.52, "useCount": 0, "id": "KMCF", "name": "KMCF", "quality": 100, "contribution": 0.0}, "D8345": {"distance": 12306.0, "latitude": 27.92, "longitude": -82.453, "useCount": 0, "id": "D8345", "name": "DW8345 Tampa FL US", "quality": 0, "contribution": 0.0}, "KTPA": {"distance": 13803.0, "latitude": 27.97, "longitude": -82.53, "useCount": 0, "id": "KTPA", "name": "KTPA", "quality": 100, "contribution": 0.0}, "72211012842": {"distance": 15103.0, "latitude": 27.962, "longitude": -82.54, "useCount": 0, "id": "72211012842", "name": "TAMPA INTERNATIONAL AIRPORT, FL US", "quality": 100, "contribution": 0.0}, "72202192816": {"distance": 5628.0, "latitude": 28.014, "longitude": -82.345, "useCount": 0, "id": "72202192816", "name": "TAMPA VANDENBERG AIRPORT, FL US", "quality": 100, "contribution": 0.0}, "1037W": {"distance": 4723.0, "latitude": 28.062, "longitude": -82.415, "useCount": 0, "id": "1037W", "name": "University of South Florida FL US WEATHERSTEM", "quality": 0, "contribution": 0.0}, "KVDF": {"distance": 5255.0, "latitude": 28.01, "longitude": -82.35, "useCount": 0, "id": "KVDF", "name": "KVDF", "quality": 99, "contribution": 0.0}}}