{"queryCost": 1, "latitude": 40.442, "longitude": -79.882, "resolvedAddress": "40.44200,-79.88200", "address": "40.44200,-79.88200", "timezone": "America/New_York", "tzoffset": -5.0, "days": [{"datetime": "2019-12-22", "datetimeEpoch": 1576990800, "tempmax": 49.0, "tempmin": 28.6, "temp": 38.3, "feelslikemax": 46.9, "feelslikemin": 21.5, "feelslike": 33.6, "dew": 26.7, "humidity": 64.2, "precip": 0.0, "precipprob": 0.0, "precipcover": 0.0, "preciptype": null, "snow": 0.0, "snowdepth": 0.0, "windgust": null, "windspeed": 9.0, "winddir": 195.8, "pressure": 1027.7, "cloudcover": 2.2, "visibility": 9.9, "solarradiation": 75.7, "solarenergy": 6.5, "uvindex": 4.0, "sunrise": "07:39:42", "sunriseEpoch": 1577018382, "sunset": "16:56:28", "sunsetEpoch": 1577051788, "moonphase": 0.93, "conditions": "Clear", "description": "Clear conditions throughout the day.", "icon": "clear-day", "stations": ["KBTP", "KAGC", "72512464705", "KPIT", "72520514762", "72520094823", "0495W"], "source": "obs"}], "stations": {"KBTP": {"distance": 38062.0, "latitude": 40.78, "longitude": -79.95, "useCount": 0, "id": "KBTP", "name": "BUTLER CO., PA", "quality": 100, "contribution": 0.0}, "KAGC": {"distance": 11020.0, "latitude": 40.35, "longitude": -79.93, "useCount": 0, "id": "KAGC", "name": "KAGC", "quality": 100, "contribution": 0.0}, "72512464705": {"distance": 37717.0, "latitude": 40.777, "longitude": -79.95, "useCount": 0, "id": "72512464705", "name": "BUTLER CO AIRPORT, PA US", "quality": 99, "contribution": 0.0}, "KPIT": {"distance": 29343.0, "latitude": 40.5, "longitude": -80.22, "useCount": 0, "id": "KPIT", "name": "KPIT", "quality": 100, "contribution": 0.0}, "72520514762": {"distance": 10284.0, "latitude": 40.355, "longitude": -79.922, "useCount": 0, "id": "72520514762", "name": "PITTSBURGH ALLEGHENY CO AIRPORT, PA US", "quality": 100, "contribution": 0.0}, "72520094823": {"distance": 28549.0, "latitude": 40.485, "longitude": -80.214, "useCount": 0, "id": "72520094823", "name": "PITTSBURGH ASOS, PA US", "quality": 100, "contribution": 0.0}, "0495W": {"distance": 1433.0, "latitude": 40.436, "longitude": -79.897, "useCount": 0, "id": "0495W", "name": "Environmental Charter School PA US WEATHERSTEM", "quality": 0, "contribution": 0.0}}}