{"queryCost": 1, "latitude": 40.783, "longitude": -73.238, "resolvedAddress": "40.78300,-73.23800", "address": "40.78300,-73.23800", "timezone": "America/New_York", "tzoffset": -5.0, "days": [{"datetime": "2019-12-19", "datetimeEpoch": 1576731600, "tempmax": 25.4, "tempmin": 17.1, "temp": 21.1, "feelslikemax": 12.6, "feelslikemin": 0.6, "feelslike": 7.2, "dew": 5.4, "humidity": 50.26, "precip": 0.0, "precipprob": null, "precipcover": 0.0, "preciptype": null, "snow": 0.0, "snowdepth": 0.0, "windgust": 39.7, "windspeed": 24.9, "winddir": 305.3, "pressure": 1024.9, "cloudcover": 21.3, "visibility": 9.9, "solarradiation": 151.8, "solarenergy": 6.0, "uvindex": 4.0, "sunrise": "07:12:35", "sunriseEpoch": 1576757555, "sunset": "16:27:25", "sunsetEpoch": 1576790845, "moonphase": 0.77, "conditions": "Partially cloudy", "description": "Partly cloudy throughout the day.", "icon": "partly-cloudy-day", "stations": ["E8502", "KFRG", "E3379", "72505004781", "KISP", "72501654790", "74486454787", "KHWV"], "source": "obs"}], "stations": {"E8502": {"distance": 6789.0, "latitude": 40.844, "longitude": -73.244, "useCount": 0, "id": "E8502", "name": "EW8502 Smithtown NY US", "quality": 0, "contribution": 0.0}, "KFRG": {"distance": 16874.0, "latitude": 40.72, "longitude": -73.42, "useCount": 0, "id": "KFRG", "name": "KFRG", "quality": 100, "contribution": 0.0}, "E3379": {"distance": 16988.0, "latitude": 40.844, "longitude": -73.053, "useCount": 0, "id": "E3379", "name": "EW3379 Farmingville NY US", "quality": 0, "contribution": 0.0}, "72505004781": {"distance": 11535.0, "latitude": 40.794, "longitude": -73.102, "useCount": 0, "id": "72505004781", "name": "ISLIP LI MACARTHUR AIRPORT, NY US", "quality": 100, "contribution": 0.0}, "KISP": {"distance": 12499.0, "latitude": 40.79, "longitude": -73.09, "useCount": 0, "id": "KISP", "name": "KISP", "quality": 100, "contribution": 0.0}, "72501654790": {"distance": 31399.0, "latitude": 40.822, "longitude": -72.869, "useCount": 0, "id": "72501654790", "name": "SHIRLEY BROOKHAVEN AIRPORT, NY US", "quality": 100, "contribution": 0.0}, "74486454787": {"distance": 16033.0, "latitude": 40.734, "longitude": -73.417, "useCount": 0, "id": "74486454787", "name": "FARMINGDALE REPUBLIC AIRPORT, NY US", "quality": 100, "contribution": 0.0}, "KHWV": {"distance": 32118.0, "latitude": 40.82, "longitude": -72.86, "useCount": 0, "id": "KHWV", "name": "KHWV", "quality": 100, "contribution": 0.0}}}