{"queryCost": 1, "latitude": 40.049, "longitude": -84.949, "resolvedAddress": "40.04900,-84.94900", "address": "40.04900,-84.94900", "timezone": "America/Indiana/Indianapolis", "tzoffset": -5.0, "days": [{"datetime": "2019-12-20", "datetimeEpoch": 1576818000, "tempmax": 39.0, "tempmin": 17.4, "temp": 28.2, "feelslikemax": 35.3, "feelslikemin": 17.4, "feelslike": 25.9, "dew": 20.5, "humidity": 73.27, "precip": 0.0, "precipprob": null, "precipcover": 0.0, "preciptype": null, "snow": 0.0, "snowdepth": 4.51, "windgust": null, "windspeed": 7.2, "winddir": 154.3, "pressure": 1032.2, "cloudcover": 11.5, "visibility": 8.6, "solarradiation": 210.4, "solarenergy": 8.3, "uvindex": 4.0, "sunrise": "07:57:43", "sunriseEpoch": 1576846663, "sunset": "17:16:59", "sunsetEpoch": 1576880219, "moonphase": 0.83, "conditions": "Clear", "description": "Clear conditions throughout the day.", "icon": "clear-day", "stations": ["72429093815", "KDAY", "KAID", "E2821", "KVES", "72533694895", "KMIE"], "source": "obs"}], "stations": {"72429093815": {"distance": 64304.0, "latitude": 39.906, "longitude": -84.218, "useCount": 0, "id": "72429093815", "name": "DAYTON INTERNATIONAL AIRPORT, OH US", "quality": 100, "contribution": 0.0}, "KDAY": {"distance": 66013.0, "latitude": 39.9, "longitude": -84.2, "useCount": 0, "id": "KDAY", "name": "KDAY", "quality": 100, "contribution": 0.0}, "KAID": {"distance": 57555.0, "latitude": 40.11, "longitude": -85.62, "useCount": 0, "id": "KAID", "name": "KAID", "quality": 87, "contribution": 0.0}, "E2821": {"distance": 12694.0, "latitude": 39.991, "longitude": -85.077, "useCount": 0, "id": "E2821", "name": "EW2821 Economy IN US", "quality": 0, "contribution": 0.0}, "KVES": {"distance": 39428.0, "latitude": 40.2, "longitude": -84.53, "useCount": 0, "id": "KVES", "name": "KVES", "quality": 100, "contribution": 0.0}, "72533694895": {"distance": 43087.0, "latitude": 40.234, "longitude": -85.394, "useCount": 0, "id": "72533694895", "name": "MUNCIE DELAWARE CO AIRPORT, IN US", "quality": 100, "contribution": 0.0}, "KMIE": {"distance": 44422.0, "latitude": 40.25, "longitude": -85.4, "useCount": 0, "id": "KMIE", "name": "KMIE", "quality": 100, "contribution": 0.0}}}