{"queryCost": 1, "latitude": 36.093, "longitude": -80.214, "resolvedAddress": "36.09300,-80.21400", "address": "36.09300,-80.21400", "timezone": "America/New_York", "tzoffset": -5.0, "days": [{"datetime": "2019-12-20", "datetimeEpoch": 1576818000, "tempmax": 56.9, "tempmin": 26.1, "temp": 40.1, "feelslikemax": 56.9, "feelslikemin": 23.1, "feelslike": 39.2, "dew": 20.8, "humidity": 49.0, "precip": 0.0, "precipprob": 0.0, "precipcover": 0.0, "preciptype": null, "snow": 0.0, "snowdepth": 0.0, "windgust": null, "windspeed": 6.9, "winddir": 180.5, "pressure": 1033.4, "cloudcover": 1.4, "visibility": 9.9, "solarradiation": 100.3, "solarenergy": 8.8, "uvindex": 4.0, "sunrise": "07:27:21", "sunriseEpoch": 1576844841, "sunset": "17:09:28", "sunsetEpoch": 1576879768, "moonphase": 0.83, "conditions": "Clear", "description": "Clear conditions throughout the day.", "icon": "clear-day", "stations": ["72317013723", "KINT", "0585W", "72319393807", "KEXX", "KGSO", "LXFN7"], "source": "obs"}], "stations": {"72317013723": {"distance": 24363.0, "latitude": 36.097, "longitude": -79.943, "useCount": 0, "id": "72317013723", "name": "GREENSBORO AIRPORT, NC US", "quality": 100, "contribution": 0.0}, "KINT": {"distance": 4154.0, "latitude": 36.13, "longitude": -80.22, "useCount": 0, "id": "KINT", "name": "KINT", "quality": 100, "contribution": 0.0}, "0585W": {"distance": 1347.0, "latitude": 36.085, "longitude": -80.225, "useCount": 0, "id": "0585W", "name": "Winston-Salem State University NC US WEATHERSTEM", "quality": 0, "contribution": 0.0}, "72319393807": {"distance": 4579.0, "latitude": 36.134, "longitude": -80.222, "useCount": 0, "id": "72319393807", "name": "WINSTON SALEM REYNOLDS AIRPORT, NC US", "quality": 100, "contribution": 0.0}, "KEXX": {"distance": 35695.0, "latitude": 35.78, "longitude": -80.3, "useCount": 0, "id": "KEXX", "name": "KEXX", "quality": 97, "contribution": 0.0}, "KGSO": {"distance": 23794.0, "latitude": 36.08, "longitude": -79.95, "useCount": 0, "id": "KGSO", "name": "KGSO", "quality": 100, "contribution": 0.0}, "LXFN7": {"distance": 34632.0, "latitude": 35.792, "longitude": -80.312, "useCount": 0, "id": "LXFN7", "name": "LEXINGTON NC US", "quality": 0, "contribution": 0.0}}}