{"queryCost": 1, "latitude": 35.86, "longitude": -81.505, "resolvedAddress": "35.86000,-81.50500", "address": "35.86000,-81.50500", "timezone": "America/New_York", "tzoffset": -5.0, "days": [{"datetime": "2019-12-19", "datetimeEpoch": 1576731600, "tempmax": 44.0, "tempmin": 23.0, "temp": 33.0, "feelslikemax": 44.0, "feelslikemin": 12.7, "feelslike": 29.6, "dew": 15.3, "humidity": 50.5, "precip": 0.0, "precipprob": 0.0, "precipcover": 0.0, "preciptype": null, "snow": 0.0, "snowdepth": 0.0, "windgust": 33.3, "windspeed": 15.5, "winddir": 197.1, "pressure": 1028.1, "cloudcover": 0.9, "visibility": 9.9, "solarradiation": 147.3, "solarenergy": 12.6, "uvindex": 6.0, "sunrise": "07:31:20", "sunriseEpoch": 1576758680, "sunset": "17:14:50", "sunsetEpoch": 1576793690, "moonphase": 0.77, "conditions": "Clear", "description": "Clear conditions throughout the day.", "icon": "clear-day", "stations": ["NCVN7", "72301003810", "KHKY", "KMRN", "KTNB", "72219863819", "TS338"], "source": "obs"}], "stations": {"NCVN7": {"distance": 39301.0, "latitude": 35.817, "longitude": -81.937, "useCount": 0, "id": "NCVN7", "name": "NORTH COVE PINNACLE (FR1) NC US", "quality": 0, "contribution": 0.0}, "72301003810": {"distance": 17175.0, "latitude": 35.742, "longitude": -81.382, "useCount": 0, "id": "72301003810", "name": "HICKORY FAA AIRPORT, NC US", "quality": 100, "contribution": 0.0}, "KHKY": {"distance": 19243.0, "latitude": 35.72, "longitude": -81.38, "useCount": 0, "id": "KHKY", "name": "KHKY", "quality": 100, "contribution": 0.0}, "KMRN": {"distance": 10469.0, "latitude": 35.82, "longitude": -81.61, "useCount": 0, "id": "KMRN", "name": "KMRN", "quality": 95, "contribution": 0.0}, "KTNB": {"distance": 40036.0, "latitude": 36.2, "longitude": -81.65, "useCount": 0, "id": "KTNB", "name": "KTNB", "quality": 100, "contribution": 0.0}, "72219863819": {"distance": 40036.0, "latitude": 36.2, "longitude": -81.65, "useCount": 0, "id": "72219863819", "name": "BOONE WATAUGA CO HOSPITAL HELIPORT, NC US", "quality": 100, "contribution": 0.0}, "TS338": {"distance": 30588.0, "latitude": 35.596, "longitude": -81.6, "useCount": 0, "id": "TS338", "name": "NC FIRE RAWS #4 NC US", "quality": 0, "contribution": 0.0}}}