{"queryCost": 1, "latitude": 43.694, "longitude": -70.791, "resolvedAddress": "43.69400,-70.79100", "address": "43.69400,-70.79100", "timezone": "America/New_York", "tzoffset": -5.0, "days": [{"datetime": "2019-12-27", "datetimeEpoch": 1577422800, "tempmax": 40.7, "tempmin": 26.6, "temp": 34.1, "feelslikemax": 37.8, "feelslikemin": 24.6, "feelslike": 30.8, "dew": 29.7, "humidity": 83.88, "precip": 0.02, "precipprob": null, "precipcover": 12.5, "preciptype": null, "snow": 0.0, "snowdepth": 1.31, "windgust": 18.3, "windspeed": 7.7, "winddir": 220.3, "pressure": 1021.1, "cloudcover": 53.4, "visibility": 8.3, "solarradiation": 12.6, "solarenergy": 0.5, "uvindex": 0.0, "sunrise": "07:16:01", "sunriseEpoch": 1577448961, "sunset": "16:12:26", "sunsetEpoch": 1577481146, "moonphase": 0.01, "conditions": "Rain, Partially cloudy", "description": "Partly cloudy throughout the day with rain clearing later.", "icon": "rain", "stations": ["72606014764", "72618354772", "KIZG", "KPWM", "RCWM1", "AN253", "KSFM", "C4797", "E5847", "72606464709"], "source": "obs"}], "stations": {"72606014764": {"distance": 39605.0, "latitude": 43.642, "longitude": -70.304, "useCount": 0, "id": "72606014764", "name": "PORTLAND JETPORT, ME US", "quality": 100, "contribution": 0.0}, "72618354772": {"distance": 35327.0, "latitude": 43.991, "longitude": -70.947, "useCount": 0, "id": "72618354772", "name": "FRYEBURG EASTERN SLOPES REGL AIRPORT, ME US", "quality": 100, "contribution": 0.0}, "KIZG": {"distance": 35337.0, "latitude": 43.99, "longitude": -70.95, "useCount": 0, "id": "KIZG", "name": "KIZG", "quality": 100, "contribution": 0.0}, "KPWM": {"distance": 39038.0, "latitude": 43.65, "longitude": -70.31, "useCount": 0, "id": "KPWM", "name": "KPWM", "quality": 100, "contribution": 0.0}, "RCWM1": {"distance": 48967.0, "latitude": 43.279, "longitude": -70.59, "useCount": 0, "id": "RCWM1", "name": "RACHEL CARSON - FTS ME US", "quality": 0, "contribution": 0.0}, "AN253": {"distance": 49308.0, "latitude": 43.561, "longitude": -70.207, "useCount": 0, "id": "AN253", "name": "Cape Elizabeth ME MEDEP", "quality": 0, "contribution": 0.0}, "KSFM": {"distance": 33226.0, "latitude": 43.4, "longitude": -70.72, "useCount": 0, "id": "KSFM", "name": "SANFORD, ME", "quality": 100, "contribution": 0.0}, "C4797": {"distance": 9068.0, "latitude": 43.635, "longitude": -70.714, "useCount": 0, "id": "C4797", "name": "CW4797 N. Waterboro ME US", "quality": 0, "contribution": 0.0}, "E5847": {"distance": 27869.0, "latitude": 43.622, "longitude": -70.459, "useCount": 0, "id": "E5847", "name": "EW5847 Buxton ME US", "quality": 0, "contribution": 0.0}, "72606464709": {"distance": 34108.0, "latitude": 43.394, "longitude": -70.708, "useCount": 0, "id": "72606464709", "name": "SANFORD REGIONAL AIRPORT, ME US", "quality": 100, "contribution": 0.0}}}