{"queryCost": 1, "latitude": 28.066, "longitude": -81.78, "resolvedAddress": "28.06600,-81.78000", "address": "28.06600,-81.78000", "timezone": "America/New_York", "tzoffset": -5.0, "days": [{"datetime": "2019-12-26", "datetimeEpoch": 1577336400, "tempmax": 80.9, "tempmin": 62.0, "temp": 69.7, "feelslikemax": 82.7, "feelslikemin": 62.0, "feelslike": 69.9, "dew": 62.8, "humidity": 80.0, "precip": 0.0, "precipprob": 0.0, "precipcover": 0.0, "preciptype": null, "snow": 0.0, "snowdepth": 0.0, "windgust": null, "windspeed": 12.7, "winddir": 70.0, "pressure": 1018.3, "cloudcover": 75.8, "visibility": 8.7, "solarradiation": 74.9, "solarenergy": 6.5, "uvindex": 3.0, "sunrise": "07:16:42", "sunriseEpoch": 1577362602, "sunset": "17:38:39", "sunsetEpoch": 1577399919, "moonphase": 0.0, "conditions": "Partially cloudy", "description": "Partly cloudy throughout the day.", "icon": "partly-cloudy-day", "stations": ["74793112876", "72037392824", "KZPH", "72104200486", "KGIF", "KPCM", "KALF1"], "source": "obs"}], "stations": {"74793112876": {"distance": 2569.0, "latitude": 28.062, "longitude": -81.754, "useCount": 0, "id": "74793112876", "name": "WINTER HAVEN GILBERT AIRPORT, FL US", "quality": 100, "contribution": 0.0}, "72037392824": {"distance": 38453.0, "latitude": 28.0, "longitude": -82.164, "useCount": 0, "id": "72037392824", "name": "PLANT CITY MUNICIPAL AIRPORT, FL US", "quality": 99, "contribution": 0.0}, "KZPH": {"distance": 40161.0, "latitude": 28.22, "longitude": -82.15, "useCount": 0, "id": "KZPH", "name": "KZPH", "quality": 100, "contribution": 0.0}, "72104200486": {"distance": 41073.0, "latitude": 28.228, "longitude": -82.156, "useCount": 0, "id": "72104200486", "name": "ZEPHYRHILLS MUNICIPAL AIRPORT, FL US", "quality": 100, "contribution": 0.0}, "KGIF": {"distance": 3444.0, "latitude": 28.05, "longitude": -81.75, "useCount": 0, "id": "KGIF", "name": "KGIF", "quality": 100, "contribution": 0.0}, "KPCM": {"distance": 38054.0, "latitude": 28.0, "longitude": -82.16, "useCount": 0, "id": "KPCM", "name": "KPCM", "quality": 99, "contribution": 0.0}, "KALF1": {"distance": 7789.0, "latitude": 28.102, "longitude": -81.712, "useCount": 0, "id": "KALF1", "name": "Lake Alfred FAWN", "quality": 0, "contribution": 0.0}}}