{"queryCost": 1, "latitude": 34.882, "longitude": -87.1, "resolvedAddress": "34.88200,-87.10000", "address": "34.88200,-87.10000", "timezone": "America/Chicago", "tzoffset": -6.0, "days": [{"datetime": "2020-01-05", "datetimeEpoch": 1578204000, "tempmax": 55.8, "tempmin": 29.3, "temp": 40.6, "feelslikemax": 55.8, "feelslikemin": 29.3, "feelslike": 39.8, "dew": 31.0, "humidity": 71.2, "precip": 0.0, "precipprob": 0.0, "precipcover": 0.0, "preciptype": null, "snow": 0.0, "snowdepth": 0.0, "windgust": null, "windspeed": 10.9, "winddir": 204.0, "pressure": 1026.2, "cloudcover": 0.0, "visibility": 9.9, "solarradiation": 140.2, "solarenergy": 12.2, "uvindex": 6.0, "sunrise": "06:56:41", "sunriseEpoch": 1578229001, "sunset": "16:50:50", "sunsetEpoch": 1578264650, "moonphase": 0.36, "conditions": "Clear", "description": "Clear conditions throughout the day.", "icon": "clear-day", "stations": ["99999963868", "KHSV", "72323003856", "KDCU", "72227953852", "D9505"], "source": "obs"}], "stations": {"99999963868": {"distance": 33414.0, "latitude": 34.66, "longitude": -87.346, "useCount": 0, "id": "99999963868", "name": "COURTLAND 2 WSW, AL US", "quality": 100, "contribution": 0.0}, "KHSV": {"distance": 39720.0, "latitude": 34.65, "longitude": -86.77, "useCount": 0, "id": "KHSV", "name": "KHSV", "quality": 100, "contribution": 0.0}, "72323003856": {"distance": 39071.0, "latitude": 34.644, "longitude": -86.786, "useCount": 0, "id": "72323003856", "name": "HUNTSVILLE INTERNATIONAL AIRPORT JONES FIELD, AL US", "quality": 100, "contribution": 0.0}, "KDCU": {"distance": 29243.0, "latitude": 34.65, "longitude": -86.95, "useCount": 0, "id": "KDCU", "name": "KDCU", "quality": 100, "contribution": 0.0}, "72227953852": {"distance": 29203.0, "latitude": 34.653, "longitude": -86.945, "useCount": 0, "id": "72227953852", "name": "DECATUR PRYOR FIELD, AL US", "quality": 100, "contribution": 0.0}, "D9505": {"distance": 16567.0, "latitude": 34.844, "longitude": -87.275, "useCount": 0, "id": "D9505", "name": "DW9505 Rogersville AL US", "quality": 0, "contribution": 0.0}}}