{"queryCost": 1, "latitude": 30.372, "longitude": -81.687, "resolvedAddress": "30.37200,-81.68700", "address": "30.37200,-81.68700", "timezone": "America/New_York", "tzoffset": -5.0, "days": [{"datetime": "2020-01-05", "datetimeEpoch": 1578200400, "tempmax": 61.4, "tempmin": 43.3, "temp": 50.9, "feelslikemax": 61.4, "feelslikemin": 36.7, "feelslike": 49.0, "dew": 31.1, "humidity": 47.7, "precip": 0.0, "precipprob": 0.0, "precipcover": 0.0, "preciptype": null, "snow": 0.0, "snowdepth": 0.0, "windgust": 28.9, "windspeed": 16.3, "winddir": 309.0, "pressure": 1025.2, "cloudcover": 1.3, "visibility": 9.9, "solarradiation": 187.7, "solarenergy": 16.1, "uvindex": 7.0, "sunrise": "07:24:18", "sunriseEpoch": 1578227058, "sunset": "17:39:53", "sunsetEpoch": 1578263993, "moonphase": 0.36, "conditions": "Clear", "description": "Clear conditions throughout the day.", "icon": "clear-day", "stations": ["72206013889", "KJAX", "72206593837", "1325W", "KNIP", "KCRG", "74782053860", "0069W"], "source": "obs"}], "stations": {"72206013889": {"distance": 13707.0, "latitude": 30.495, "longitude": -81.694, "useCount": 0, "id": "72206013889", "name": "JACKSONVILLE INTERNATIONAL AIRPORT, FL US", "quality": 100, "contribution": 0.0}, "KJAX": {"distance": 14303.0, "latitude": 30.5, "longitude": -81.7, "useCount": 0, "id": "KJAX", "name": "KJAX", "quality": 100, "contribution": 0.0}, "72206593837": {"distance": 15563.0, "latitude": 30.233, "longitude": -81.667, "useCount": 0, "id": "72206593837", "name": "JACKSONVILLE NAS, FL US", "quality": 100, "contribution": 0.0}, "1325W": {"distance": 6701.0, "latitude": 30.325, "longitude": -81.644, "useCount": 0, "id": "1325W", "name": "Baseball Grounds of Jacksonville FL US WEATHERSTEM", "quality": 0, "contribution": 0.0}, "KNIP": {"distance": 15822.0, "latitude": 30.23, "longitude": -81.68, "useCount": 0, "id": "KNIP", "name": "KNIP", "quality": 100, "contribution": 0.0}, "KCRG": {"distance": 16710.0, "latitude": 30.33, "longitude": -81.52, "useCount": 0, "id": "KCRG", "name": "KCRG", "quality": 100, "contribution": 0.0}, "74782053860": {"distance": 17027.0, "latitude": 30.336, "longitude": -81.515, "useCount": 0, "id": "74782053860", "name": "JACKSONVILLE CRAIG MUNICIPAL AIRPORT, FL US", "quality": 100, "contribution": 0.0}, "0069W": {"distance": 38157.0, "latitude": 30.044, "longitude": -81.804, "useCount": 0, "id": "0069W", "name": "Lake Asbury Junior High FL US WEATHERSTEM", "quality": 0, "contribution": 0.0}}}