{"queryCost": 1, "latitude": 35.954, "longitude": -96.277, "resolvedAddress": "35.95400,-96.27700", "address": "35.95400,-96.27700", "timezone": "America/Chicago", "tzoffset": -5.0, "days": [{"datetime": "2015-04-09", "datetimeEpoch": 1428555600, "tempmax": 78.0, "tempmin": 54.6, "temp": 71.1, "feelslikemax": 78.0, "feelslikemin": 54.6, "feelslike": 71.1, "dew": 54.6, "humidity": 58.6, "precip": 0.01, "precipprob": 100.0, "precipcover": 4.17, "preciptype": ["rain"], "snow": 0.0, "snowdepth": 0.0, "windgust": 32.0, "windspeed": 19.2, "winddir": 245.7, "pressure": 1009.3, "cloudcover": 46.6, "visibility": 9.8, "solarradiation": 289.1, "solarenergy": 25.1, "uvindex": 9.0, "sunrise": "07:00:24", "sunriseEpoch": 1428580824, "sunset": "19:53:34", "sunsetEpoch": 1428627214, "moonphase": 0.62, "conditions": "Rain, Partially cloudy", "description": "Partly cloudy throughout the day with early morning rain.", "icon": "rain", "stations": ["72356453908", "KTUL", "KOKM", "KRVS", "72216453949", "72056100467"], "source": "obs"}], "stations": {"72356453908": {"distance": 28015.0, "latitude": 36.039, "longitude": -95.984, "useCount": 0, "id": "72356453908", "name": "TULSA RICHARD L JONES JR AIRPORT, OK US", "quality": 100, "contribution": 0.0}, "KTUL": {"distance": 43594.0, "latitude": 36.2, "longitude": -95.9, "useCount": 0, "id": "KTUL", "name": "KTUL", "quality": 100, "contribution": 0.0}, "KOKM": {"distance": 43254.0, "latitude": 35.67, "longitude": -95.95, "useCount": 0, "id": "KOKM", "name": "KOKM", "quality": 96, "contribution": 0.0}, "KRVS": {"distance": 28410.0, "latitude": 36.04, "longitude": -95.98, "useCount": 0, "id": "KRVS", "name": "KRVS", "quality": 100, "contribution": 0.0}, "72216453949": {"distance": 43495.0, "latitude": 35.668, "longitude": -95.949, "useCount": 0, "id": "72216453949", "name": "OKMULGEE MUNICIPAL AIRPORT, OK US", "quality": 100, "contribution": 0.0}, "72056100467": {"distance": 27089.0, "latitude": 36.175, "longitude": -96.152, "useCount": 0, "id": "72056100467", "name": "WILLIAM R POGUE MUNICIPAL AIRPORT, OK US", "quality": 100, "contribution": 0.0}}}