{"queryCost": 1, "latitude": 42.418, "longitude": -122.993, "resolvedAddress": "42.41800,-122.99300", "address": "42.41800,-122.99300", "timezone": "America/Los_Angeles", "tzoffset": -8.0, "days": [{"datetime": "2020-01-01", "datetimeEpoch": 1577865600, "tempmax": 54.0, "tempmin": 40.9, "temp": 45.2, "feelslikemax": 54.0, "feelslikemin": 38.5, "feelslike": 44.2, "dew": 40.2, "humidity": 83.5, "precip": 0.08, "precipprob": 100.0, "precipcover": 12.5, "preciptype": ["rain"], "snow": 0.0, "snowdepth": 0.0, "windgust": 31.1, "windspeed": 9.0, "winddir": 217.9, "pressure": 1020.0, "cloudcover": 68.3, "visibility": 6.3, "solarradiation": 44.4, "solarenergy": 3.8, "uvindex": 3.0, "sunrise": "07:41:29", "sunriseEpoch": 1577893289, "sunset": "16:49:36", "sunsetEpoch": 1577926176, "moonphase": 0.17, "conditions": "Rain, Partially cloudy", "description": "Partly cloudy throughout the day with early morning rain.", "icon": "rain", "stations": ["MDFO", "KSXT", "72597024225", "SQFO3", "72597524235", "KMFR"], "source": "obs"}], "stations": {"MDFO": {"distance": 10679.0, "latitude": 42.331, "longitude": -122.938, "useCount": 0, "id": "MDFO", "name": "MEDFORD OR US AGRIMET", "quality": 0, "contribution": 0.0}, "KSXT": {"distance": 38242.0, "latitude": 42.62, "longitude": -123.37, "useCount": 0, "id": "KSXT", "name": "KSXT", "quality": 98, "contribution": 0.0}, "72597024225": {"distance": 10670.0, "latitude": 42.375, "longitude": -122.877, "useCount": 0, "id": "72597024225", "name": "MEDFORD INTERNATIONAL AIRPORT, OR US", "quality": 100, "contribution": 0.0}, "SQFO3": {"distance": 38804.0, "latitude": 42.07, "longitude": -123.012, "useCount": 0, "id": "SQFO3", "name": "SQUAW PEAK OR US", "quality": 0, "contribution": 0.0}, "72597524235": {"distance": 36588.0, "latitude": 42.6, "longitude": -123.364, "useCount": 0, "id": "72597524235", "name": "SEXTON SUMMIT, OR US", "quality": 100, "contribution": 0.0}, "KMFR": {"distance": 11437.0, "latitude": 42.37, "longitude": -122.87, "useCount": 0, "id": "KMFR", "name": "KMFR", "quality": 100, "contribution": 0.0}}}