{"queryCost": 1, "latitude": 35.628, "longitude": -79.757, "resolvedAddress": "35.62800,-79.75700", "address": "35.62800,-79.75700", "timezone": "America/New_York", "tzoffset": -5.0, "days": [{"datetime": "2020-01-06", "datetimeEpoch": 1578286800, "tempmax": 57.9, "tempmin": 28.8, "temp": 42.1, "feelslikemax": 57.9, "feelslikemin": 28.8, "feelslike": 41.7, "dew": 27.5, "humidity": 62.7, "precip": 0.0, "precipprob": 0.0, "precipcover": 0.0, "preciptype": null, "snow": 0.0, "snowdepth": 0.0, "windgust": null, "windspeed": 7.3, "winddir": 162.6, "pressure": null, "cloudcover": 0.0, "visibility": 9.9, "solarradiation": 63.3, "solarenergy": 5.5, "uvindex": 4.0, "sunrise": "07:29:15", "sunriseEpoch": 1578313755, "sunset": "17:20:24", "sunsetEpoch": 1578349224, "moonphase": 0.4, "conditions": "Clear", "description": "Clear conditions throughout the day.", "icon": "clear-day", "stations": ["74693503709", "KVUJ", "72096800340", "KSCR", "UNFN7", "KHBI", "MKLN7", "72214863824"], "source": "obs"}], "stations": {"74693503709": {"distance": 12806.0, "latitude": 35.654, "longitude": -79.895, "useCount": 0, "id": "74693503709", "name": "ASHEBORO MUNICIPAL AIRPORT, NC US", "quality": 100, "contribution": 0.0}, "KVUJ": {"distance": 42472.0, "latitude": 35.42, "longitude": -80.15, "useCount": 0, "id": "KVUJ", "name": "KVUJ", "quality": 99, "contribution": 0.0}, "72096800340": {"distance": 24395.0, "latitude": 35.704, "longitude": -79.504, "useCount": 0, "id": "72096800340", "name": "SILER CITY MUNICIPAL AIRPORT, NC US", "quality": 100, "contribution": 0.0}, "KSCR": {"distance": 24587.0, "latitude": 35.7, "longitude": -79.5, "useCount": 0, "id": "KSCR", "name": "KSCR", "quality": 97, "contribution": 0.0}, "UNFN7": {"distance": 30740.0, "latitude": 35.367, "longitude": -79.867, "useCount": 0, "id": "UNFN7", "name": "UWHARRIE (TROY) NC US", "quality": 0, "contribution": 0.0}, "KHBI": {"distance": 13167.0, "latitude": 35.65, "longitude": -79.9, "useCount": 0, "id": "KHBI", "name": "KHBI", "quality": 97, "contribution": 0.0}, "MKLN7": {"distance": 38360.0, "latitude": 35.469, "longitude": -79.381, "useCount": 0, "id": "MKLN7", "name": "HORSESHOE HOUSE NC US", "quality": 0, "contribution": 0.0}, "72214863824": {"distance": 42720.0, "latitude": 35.417, "longitude": -80.151, "useCount": 0, "id": "72214863824", "name": "STANLY CO AIRPORT, NC US", "quality": 100, "contribution": 0.0}}}