{"queryCost": 1, "latitude": 47.322, "longitude": -122.316, "resolvedAddress": "47.32200,-122.31600", "address": "47.32200,-122.31600", "timezone": "America/Los_Angeles", "tzoffset": -8.0, "days": [{"datetime": "2019-12-31", "datetimeEpoch": 1577779200, "tempmax": 52.6, "tempmin": 45.6, "temp": 48.2, "feelslikemax": 52.6, "feelslikemin": 39.5, "feelslike": 43.4, "dew": 43.7, "humidity": 84.51, "precip": 0.37, "precipprob": null, "precipcover": 66.67, "preciptype": null, "snow": 0.0, "snowdepth": 0.0, "windgust": 35.0, "windspeed": 21.9, "winddir": 194.3, "pressure": 1013.4, "cloudcover": 92.0, "visibility": 8.6, "solarradiation": 25.1, "solarenergy": 0.8, "uvindex": 0.0, "sunrise": "07:56:25", "sunriseEpoch": 1577807785, "sunset": "16:28:18", "sunsetEpoch": 1577838498, "moonphase": 0.13, "conditions": "Rain, Overcast", "description": "Cloudy skies throughout the day with a chance of rain throughout the day.", "icon": "rain", "stations": ["KTIW", "E6584", "72793024233", "KSEA", "72793894274", "72793494248", "F2316", "KRNT"], "source": "obs"}], "stations": {"KTIW": {"distance": 20755.0, "latitude": 47.27, "longitude": -122.58, "useCount": 0, "id": "KTIW", "name": "KTIW", "quality": 100, "contribution": 0.0}, "E6584": {"distance": 5859.0, "latitude": 47.288, "longitude": -122.375, "useCount": 0, "id": "E6584", "name": "EW6584 Tacoma WA US", "quality": 0, "contribution": 0.0}, "72793024233": {"distance": 13626.0, "latitude": 47.444, "longitude": -122.314, "useCount": 0, "id": "72793024233", "name": "SEATTLE TACOMA AIRPORT, WA US", "quality": 100, "contribution": 0.0}, "KSEA": {"distance": 14300.0, "latitude": 47.45, "longitude": -122.3, "useCount": 0, "id": "KSEA", "name": "KSEA", "quality": 100, "contribution": 0.0}, "72793894274": {"distance": 20546.0, "latitude": 47.268, "longitude": -122.576, "useCount": 0, "id": "72793894274", "name": "TACOMA NARROWS AIRPORT, WA US", "quality": 100, "contribution": 0.0}, "72793494248": {"distance": 20559.0, "latitude": 47.493, "longitude": -122.214, "useCount": 0, "id": "72793494248", "name": "RENTON MUNICIPAL AIRPORT, WA US", "quality": 100, "contribution": 0.0}, "F2316": {"distance": 5297.0, "latitude": 47.3, "longitude": -122.378, "useCount": 0, "id": "F2316", "name": "FW2316 Federal Way WA US", "quality": 0, "contribution": 0.0}, "KRNT": {"distance": 21093.0, "latitude": 47.5, "longitude": -122.22, "useCount": 0, "id": "KRNT", "name": "KRNT", "quality": 100, "contribution": 0.0}}}