{"queryCost": 1, "latitude": 30.762, "longitude": -88.229, "resolvedAddress": "30.76200,-88.22900", "address": "30.76200,-88.22900", "timezone": "America/Chicago", "tzoffset": -6.0, "days": [{"datetime": "2020-01-09", "datetimeEpoch": 1578549600, "tempmax": 66.1, "tempmin": 42.5, "temp": 56.0, "feelslikemax": 66.1, "feelslikemin": 38.4, "feelslike": 54.9, "dew": 49.2, "humidity": 78.2, "precip": 0.0, "precipprob": 0.0, "precipcover": 0.0, "preciptype": null, "snow": 0.0, "snowdepth": 0.0, "windgust": null, "windspeed": 14.9, "winddir": 98.7, "pressure": 1026.8, "cloudcover": 49.7, "visibility": 9.9, "solarradiation": 64.3, "solarenergy": 5.7, "uvindex": 3.0, "sunrise": "06:51:39", "sunriseEpoch": 1578574299, "sunset": "17:08:22", "sunsetEpoch": 1578611302, "moonphase": 0.49, "conditions": "Partially cloudy", "description": "Partly cloudy throughout the day.", "icon": "partly-cloudy-day", "stations": ["99999963869", "72223513838", "KMOB", "72223013894", "KBFM", "E7714", "GRBM6"], "source": "obs"}], "stations": {"99999963869": {"distance": 41346.0, "latitude": 30.549, "longitude": -87.876, "useCount": 0, "id": "99999963869", "name": "FAIRHOPE 3 NE, AL US", "quality": 99, "contribution": 0.0}, "72223513838": {"distance": 21566.0, "latitude": 30.626, "longitude": -88.068, "useCount": 0, "id": "72223513838", "name": "MOBILE DOWNTOWN AIRPORT, AL US", "quality": 100, "contribution": 0.0}, "KMOB": {"distance": 9347.0, "latitude": 30.68, "longitude": -88.25, "useCount": 0, "id": "KMOB", "name": "KMOB", "quality": 100, "contribution": 0.0}, "72223013894": {"distance": 8357.0, "latitude": 30.688, "longitude": -88.246, "useCount": 0, "id": "72223013894", "name": "MOBILE REGIONAL AIRPORT, AL US", "quality": 100, "contribution": 0.0}, "KBFM": {"distance": 21156.0, "latitude": 30.63, "longitude": -88.07, "useCount": 0, "id": "KBFM", "name": "KBFM", "quality": 100, "contribution": 0.0}, "E7714": {"distance": 9801.0, "latitude": 30.686, "longitude": -88.28, "useCount": 0, "id": "E7714", "name": "EW7714 Mobile AL US", "quality": 0, "contribution": 0.0}, "GRBM6": {"distance": 40661.0, "latitude": 30.438, "longitude": -88.426, "useCount": 0, "id": "GRBM6", "name": "GRAND BAY MS US", "quality": 0, "contribution": 0.0}}}