{"queryCost": 1, "latitude": 47.72, "longitude": -117.422, "resolvedAddress": "47.72000,-117.42200", "address": "47.72000,-117.42200", "timezone": "America/Los_Angeles", "tzoffset": -8.0, "days": [{"datetime": "2020-01-10", "datetimeEpoch": 1578643200, "tempmax": 34.4, "tempmin": 21.8, "temp": 28.5, "feelslikemax": 31.1, "feelslikemin": 15.5, "feelslike": 22.2, "dew": 24.8, "humidity": 85.95, "precip": 0.38, "precipprob": null, "precipcover": 54.17, "preciptype": null, "snow": 4.32, "snowdepth": 5.91, "windgust": 23.0, "windspeed": 9.5, "winddir": 135.3, "pressure": 1015.9, "cloudcover": 75.6, "visibility": 5.5, "solarradiation": 18.8, "solarenergy": 0.7, "uvindex": 1.0, "sunrise": "07:36:34", "sunriseEpoch": 1578670594, "sunset": "16:18:01", "sunsetEpoch": 1578701881, "moonphase": 0.5, "conditions": "Snow, Partially cloudy", "description": "Partly cloudy throughout the day with snow.", "icon": "snow", "stations": ["F4353", "TWRW1", "72785524114", "72785694176", "72785024157", "KSFF", "A1524", "TT604", "KGEG", "KSKA"], "source": "obs"}], "stations": {"F4353": {"distance": 6139.0, "latitude": 47.668, "longitude": -117.448, "useCount": 0, "id": "F4353", "name": "FW4353 Spokane WA US", "quality": 0, "contribution": 0.0}, "TWRW1": {"distance": 34602.0, "latitude": 47.418, "longitude": -117.528, "useCount": 0, "id": "TWRW1", "name": "CHENEY WA US", "quality": 0, "contribution": 0.0}, "72785524114": {"distance": 19626.0, "latitude": 47.633, "longitude": -117.65, "useCount": 0, "id": "72785524114", "name": "FAIRCHILD AFB, WA US", "quality": 96, "contribution": 0.0}, "72785694176": {"distance": 8610.0, "latitude": 47.683, "longitude": -117.321, "useCount": 0, "id": "72785694176", "name": "SPOKANE FELTS FIELD, WA US", "quality": 100, "contribution": 0.0}, "72785024157": {"distance": 13532.0, "latitude": 47.622, "longitude": -117.528, "useCount": 0, "id": "72785024157", "name": "SPOKANE INTERNATIONAL AIRPORT, WA US", "quality": 100, "contribution": 0.0}, "KSFF": {"distance": 8844.0, "latitude": 47.68, "longitude": -117.32, "useCount": 0, "id": "KSFF", "name": "KSFF", "quality": 100, "contribution": 0.0}, "A1524": {"distance": 46883.0, "latitude": 47.789, "longitude": -116.804, "useCount": 0, "id": "A1524", "name": "Lancaster ID IDDEQ", "quality": 0, "contribution": 0.0}, "TT604": {"distance": 20956.0, "latitude": 47.908, "longitude": -117.397, "useCount": 0, "id": "TT604", "name": "ARCADIA ORCHARDS WA US", "quality": 0, "contribution": 0.0}, "KGEG": {"distance": 12880.0, "latitude": 47.63, "longitude": -117.53, "useCount": 0, "id": "KGEG", "name": "KGEG", "quality": 100, "contribution": 0.0}, "KSKA": {"distance": 20397.0, "latitude": 47.62, "longitude": -117.65, "useCount": 0, "id": "KSKA", "name": "KSKA", "quality": 100, "contribution": 0.0}}}