{"queryCost": 1, "latitude": 37.146, "longitude": -94.31, "resolvedAddress": "37.14600,-94.31000", "address": "37.14600,-94.31000", "timezone": "America/Chicago", "tzoffset": -6.0, "days": [{"datetime": "2020-01-12", "datetimeEpoch": 1578808800, "tempmax": 45.2, "tempmin": 20.2, "temp": 31.6, "feelslikemax": 39.0, "feelslikemin": 13.9, "feelslike": 24.5, "dew": 26.7, "humidity": 83.0, "precip": 0.0, "precipprob": 0.0, "precipcover": 0.0, "preciptype": null, "snow": 0.0, "snowdepth": 0.0, "windgust": 32.2, "windspeed": 17.1, "winddir": 153.1, "pressure": 1021.5, "cloudcover": 42.9, "visibility": 9.1, "solarradiation": 114.6, "solarenergy": 9.8, "uvindex": 6.0, "sunrise": "07:30:50", "sunriseEpoch": 1578835850, "sunset": "17:20:19", "sunsetEpoch": 1578871219, "moonphase": 0.52, "conditions": "Partially cloudy", "description": "Clearing in the afternoon.", "icon": "partly-cloudy-day", "stations": ["KJLN", "KHFJ", "MVVM7", "MVEM7", "99999923908", "72349513987", "72047900149"], "source": "obs"}], "stations": {"KJLN": {"distance": 16865.0, "latitude": 37.15, "longitude": -94.5, "useCount": 0, "id": "KJLN", "name": "KJLN", "quality": 100, "contribution": 0.0}, "KHFJ": {"distance": 37606.0, "latitude": 36.9, "longitude": -94.02, "useCount": 0, "id": "KHFJ", "name": "KHFJ", "quality": 100, "contribution": 0.0}, "MVVM7": {"distance": 34072.0, "latitude": 37.189, "longitude": -93.93, "useCount": 0, "id": "MVVM7", "name": "MT VERNON MO US", "quality": 0, "contribution": 0.0}, "MVEM7": {"distance": 38897.0, "latitude": 37.067, "longitude": -93.883, "useCount": 0, "id": "MVEM7", "name": "MT VERNON MO US SCAN", "quality": 0, "contribution": 0.0}, "99999923908": {"distance": 39592.0, "latitude": 37.428, "longitude": -94.583, "useCount": 0, "id": "99999923908", "name": "JOPLIN 24 N, MO US", "quality": 100, "contribution": 0.0}, "72349513987": {"distance": 16456.0, "latitude": 37.152, "longitude": -94.495, "useCount": 0, "id": "72349513987", "name": "JOPLIN REGIONAL AIRPORT, MO US", "quality": 100, "contribution": 0.0}, "72047900149": {"distance": 37789.0, "latitude": 36.9, "longitude": -94.017, "useCount": 0, "id": "72047900149", "name": "MONETT MUNICIPAL AIRPORT, MO US", "quality": 100, "contribution": 0.0}}}