{"queryCost": 1, "latitude": 38.986, "longitude": -119.163, "resolvedAddress": "38.98600,-119.16300", "address": "38.98600,-119.16300", "timezone": "America/Los_Angeles", "tzoffset": -8.0, "days": [{"datetime": "2020-01-16", "datetimeEpoch": 1579161600, "tempmax": 48.6, "tempmin": 24.6, "temp": 38.8, "feelslikemax": 40.0, "feelslikemin": 15.6, "feelslike": 29.7, "dew": 17.0, "humidity": 47.1, "precip": 0.12, "precipprob": 100.0, "precipcover": 20.83, "preciptype": ["rain", "snow"], "snow": 0.0, "snowdepth": 0.0, "windgust": 50.0, "windspeed": 31.6, "winddir": 201.2, "pressure": 1004.5, "cloudcover": 40.3, "visibility": 6.8, "solarradiation": 91.5, "solarenergy": 8.0, "uvindex": 6.0, "sunrise": "07:13:46", "sunriseEpoch": 1579187626, "sunset": "16:59:14", "sunsetEpoch": 1579222754, "moonphase": 0.69, "conditions": "Snow, Rain, Partially cloudy", "description": "Partly cloudy throughout the day with rain or snow.", "icon": "rain", "stations": ["KMEV", "RHDFL", "72584793230", "72488593102", "DEDN2", "KNFL", "NSMV", "KTVL", "72055199999"], "source": "obs"}], "stations": {"KMEV": {"distance": 50829.0, "latitude": 38.97, "longitude": -119.75, "useCount": 0, "id": "KMEV", "name": "KMEV", "quality": 98, "contribution": 0.0}, "RHDFL": {"distance": 46250.0, "latitude": 39.142, "longitude": -118.667, "useCount": 0, "id": "RHDFL", "name": "RAWHIDE FLATS NV US DRI", "quality": 0, "contribution": 0.0}, "72584793230": {"distance": 72695.0, "latitude": 38.898, "longitude": -119.995, "useCount": 0, "id": "72584793230", "name": "SOUTH LAKE TAHOE AIRPORT, CA US", "quality": 100, "contribution": 0.0}, "72488593102": {"distance": 61473.0, "latitude": 39.417, "longitude": -118.717, "useCount": 0, "id": "72488593102", "name": "FALLON NAAS, NV US", "quality": 100, "contribution": 0.0}, "DEDN2": {"distance": 36124.0, "latitude": 39.262, "longitude": -118.943, "useCount": 0, "id": "DEDN2", "name": "DEAD CAMEL MOUNTAIN NV US", "quality": 0, "contribution": 0.0}, "KNFL": {"distance": 62684.0, "latitude": 39.42, "longitude": -118.7, "useCount": 0, "id": "KNFL", "name": "KNFL", "quality": 98, "contribution": 0.0}, "NSMV": {"distance": 30114.0, "latitude": 38.751, "longitude": -119.336, "useCount": 0, "id": "NSMV", "name": "Smith Valley NV US DRI", "quality": 0, "contribution": 0.0}, "KTVL": {"distance": 73098.0, "latitude": 38.9, "longitude": -120.0, "useCount": 0, "id": "KTVL", "name": "KTVL", "quality": 100, "contribution": 0.0}, "72055199999": {"distance": 50898.0, "latitude": 39.0, "longitude": -119.751, "useCount": 0, "id": "72055199999", "name": "MINDEN TAHOE AIRPORT, NV US", "quality": 100, "contribution": 0.0}}}