{"queryCost": 1, "latitude": 47.038, "longitude": -122.768, "resolvedAddress": "47.03800,-122.76800", "address": "47.03800,-122.76800", "timezone": "America/Los_Angeles", "tzoffset": -8.0, "days": [{"datetime": "2020-01-21", "datetimeEpoch": 1579593600, "tempmax": 47.3, "tempmin": 41.2, "temp": 44.1, "feelslikemax": 42.5, "feelslikemin": 36.2, "feelslike": 38.6, "dew": 41.7, "humidity": 91.2, "precip": 0.49, "precipprob": 100.0, "precipcover": 54.17, "preciptype": ["rain"], "snow": 0.0, "snowdepth": 0.0, "windgust": 35.5, "windspeed": 22.1, "winddir": 152.7, "pressure": 1007.4, "cloudcover": 69.4, "visibility": 8.8, "solarradiation": 16.9, "solarenergy": 1.5, "uvindex": 1.0, "sunrise": "07:48:20", "sunriseEpoch": 1579621700, "sunset": "16:56:48", "sunsetEpoch": 1579654608, "moonphase": 0.95, "conditions": "Rain, Partially cloudy", "description": "Partly cloudy throughout the day with a chance of rain throughout the day.", "icon": "rain", "stations": ["72792024227", "KTCM", "KGRF", "KOLM", "74206024207", "74207124201", "C5218"], "source": "obs"}], "stations": {"72792024227": {"distance": 12526.0, "latitude": 46.973, "longitude": -122.903, "useCount": 0, "id": "72792024227", "name": "OLYMPIA AIRPORT, WA US", "quality": 100, "contribution": 0.0}, "KTCM": {"distance": 24113.0, "latitude": 47.13, "longitude": -122.48, "useCount": 0, "id": "KTCM", "name": "KTCM", "quality": 100, "contribution": 0.0}, "KGRF": {"distance": 15004.0, "latitude": 47.08, "longitude": -122.58, "useCount": 0, "id": "KGRF", "name": "KGRF", "quality": 100, "contribution": 0.0}, "KOLM": {"distance": 12558.0, "latitude": 46.97, "longitude": -122.9, "useCount": 0, "id": "KOLM", "name": "KOLM", "quality": 100, "contribution": 0.0}, "74206024207": {"distance": 24939.0, "latitude": 47.15, "longitude": -122.483, "useCount": 0, "id": "74206024207", "name": "TACOMA MCCHORD AFB, WA US", "quality": 96, "contribution": 0.0}, "74207124201": {"distance": 14908.0, "latitude": 47.083, "longitude": -122.583, "useCount": 0, "id": "74207124201", "name": "GRAY ARMY AIR FIELD, WA US", "quality": 96, "contribution": 0.0}, "C5218": {"distance": 8927.0, "latitude": 46.983, "longitude": -122.854, "useCount": 0, "id": "C5218", "name": "CW5218 Olympia WA US", "quality": 0, "contribution": 0.0}}}