{"queryCost": 1, "latitude": 33.714, "longitude": -117.95, "resolvedAddress": "33.71400,-117.95000", "address": "33.71400,-117.95000", "timezone": "America/Los_Angeles", "tzoffset": -8.0, "days": [{"datetime": "2020-01-20", "datetimeEpoch": 1579507200, "tempmax": 63.8, "tempmin": 54.6, "temp": 59.4, "feelslikemax": 63.8, "feelslikemin": 54.6, "feelslike": 59.4, "dew": 49.7, "humidity": 70.5, "precip": 0.0, "precipprob": 0.0, "precipcover": 0.0, "preciptype": null, "snow": 0.0, "snowdepth": 0.0, "windgust": null, "windspeed": 7.2, "winddir": 140.5, "pressure": 1018.0, "cloudcover": 58.4, "visibility": 9.8, "solarradiation": 40.9, "solarenergy": 3.7, "uvindex": 2.0, "sunrise": "06:55:04", "sunriseEpoch": 1579532104, "sunset": "17:10:46", "sunsetEpoch": 1579569046, "moonphase": 0.91, "conditions": "Partially cloudy", "description": "Partly cloudy throughout the day.", "icon": "partly-cloudy-day", "stations": ["KFUL", "C1521", "72297793184", "KSLI", "KSNA", "AU588", "72297603166", "72297023129", "WWBCN"], "source": "obs"}], "stations": {"KFUL": {"distance": 16488.0, "latitude": 33.86, "longitude": -117.98, "useCount": 0, "id": "KFUL", "name": "KFUL", "quality": 100, "contribution": 0.0}, "C1521": {"distance": 5353.0, "latitude": 33.669, "longitude": -117.971, "useCount": 0, "id": "C1521", "name": "CW1521 Huntington Beach CA US", "quality": 0, "contribution": 0.0}, "72297793184": {"distance": 8652.0, "latitude": 33.68, "longitude": -117.866, "useCount": 0, "id": "72297793184", "name": "SANTA ANA JOHN WAYNE AIRPORT, CA US", "quality": 100, "contribution": 0.0}, "KSLI": {"distance": 11818.0, "latitude": 33.78, "longitude": -118.05, "useCount": 0, "id": "KSLI", "name": "KSLI", "quality": 93, "contribution": 0.0}, "KSNA": {"distance": 8320.0, "latitude": 33.68, "longitude": -117.87, "useCount": 0, "id": "KSNA", "name": "KSNA", "quality": 100, "contribution": 0.0}, "AU588": {"distance": 8410.0, "latitude": 33.783, "longitude": -117.913, "useCount": 0, "id": "AU588", "name": "N6NJ Garden Grove CA US", "quality": 0, "contribution": 0.0}, "72297603166": {"distance": 17781.0, "latitude": 33.872, "longitude": -117.979, "useCount": 0, "id": "72297603166", "name": "FULLERTON MUNICIPAL AIRPORT, CA US", "quality": 100, "contribution": 0.0}, "72297023129": {"distance": 21144.0, "latitude": 33.812, "longitude": -118.146, "useCount": 0, "id": "72297023129", "name": "LONG BEACH DAUGHERTY AIRPORT, CA US", "quality": 100, "contribution": 0.0}, "WWBCN": {"distance": 13266.0, "latitude": 33.628, "longitude": -117.851, "useCount": 0, "id": "WWBCN", "name": "Bonita Canyon CA US MISC", "quality": 0, "contribution": 0.0}}}