{"queryCost": 1, "latitude": 41.623, "longitude": -93.698, "resolvedAddress": "41.62300,-93.69800", "address": "41.62300,-93.69800", "timezone": "America/Chicago", "tzoffset": -5.0, "days": [{"datetime": "2015-06-09", "datetimeEpoch": 1433826000, "tempmax": 94.4, "tempmin": 64.3, "temp": 80.1, "feelslikemax": 92.8, "feelslikemin": 64.3, "feelslike": 79.7, "dew": 57.9, "humidity": 50.0, "precip": 0.0, "precipprob": 0.0, "precipcover": 0.0, "preciptype": null, "snow": 0.0, "snowdepth": 0.0, "windgust": 23.0, "windspeed": 16.5, "winddir": 238.1, "pressure": 1007.8, "cloudcover": 25.3, "visibility": 9.9, "solarradiation": 352.3, "solarenergy": 30.4, "uvindex": 10.0, "sunrise": "05:40:31", "sunriseEpoch": 1433846431, "sunset": "20:47:48", "sunsetEpoch": 1433900868, "moonphase": 0.74, "conditions": "Partially cloudy", "description": "Clearing in the afternoon.", "icon": "partly-cloudy-day", "stations": ["KDSM", "KAMW", "72546014933", "KIKV", "99999954902", "72547294989"], "source": "obs"}], "stations": {"KDSM": {"distance": 11098.0, "latitude": 41.53, "longitude": -93.65, "useCount": 0, "id": "KDSM", "name": "KDSM", "quality": 100, "contribution": 0.0}, "KAMW": {"distance": 41364.0, "latitude": 41.99, "longitude": -93.62, "useCount": 0, "id": "KAMW", "name": "KAMW", "quality": 100, "contribution": 0.0}, "72546014933": {"distance": 10613.0, "latitude": 41.534, "longitude": -93.653, "useCount": 0, "id": "72546014933", "name": "DES MOINES INTERNATIONAL AIRPORT, IA US", "quality": 100, "contribution": 0.0}, "KIKV": {"distance": 12999.0, "latitude": 41.69, "longitude": -93.57, "useCount": 0, "id": "KIKV", "name": "KIKV", "quality": 100, "contribution": 0.0}, "99999954902": {"distance": 35140.0, "latitude": 41.556, "longitude": -93.285, "useCount": 0, "id": "99999954902", "name": "DES MOINES 17 E, IA US", "quality": 100, "contribution": 0.0}, "72547294989": {"distance": 41444.0, "latitude": 41.991, "longitude": -93.619, "useCount": 0, "id": "72547294989", "name": "AMES MUNICIPAL AIRPORT, IA US", "quality": 100, "contribution": 0.0}}}