{"queryCost": 1, "latitude": 34.068, "longitude": -117.28, "resolvedAddress": "34.06800,-117.28000", "address": "34.06800,-117.28000", "timezone": "America/Los_Angeles", "tzoffset": -8.0, "days": [{"datetime": "2019-12-05", "datetimeEpoch": 1575532800, "tempmax": 63.3, "tempmin": 49.1, "temp": 55.7, "feelslikemax": 63.3, "feelslikemin": 49.1, "feelslike": 55.7, "dew": 49.2, "humidity": 80.01, "precip": 0.0, "precipprob": null, "precipcover": 0.0, "preciptype": null, "snow": 0.0, "snowdepth": 0.0, "windgust": null, "windspeed": 4.4, "winddir": 101.8, "pressure": 1018.6, "cloudcover": 37.7, "visibility": 8.2, "solarradiation": 231.3, "solarenergy": 10.0, "uvindex": 5.0, "sunrise": "06:39:54", "sunriseEpoch": 1575556794, "sunset": "16:39:27", "sunsetEpoch": 1575592767, "moonphase": 0.31, "conditions": "Partially cloudy", "description": "Clearing in the afternoon.", "icon": "partly-cloudy-day", "stations": ["KRAL", "SE455", "72286023119", "KRIV", "KONT", "74704003102", "AV480", "72286903171"], "source": "obs"}], "stations": {"KRAL": {"distance": 20461.0, "latitude": 33.95, "longitude": -117.45, "useCount": 0, "id": "KRAL", "name": "KRAL", "quality": 100, "contribution": 0.0}, "SE455": {"distance": 9076.0, "latitude": 33.997, "longitude": -117.231, "useCount": 0, "id": "SE455", "name": "SCE Reche Canyon CA US SC-EDISON", "quality": 0, "contribution": 0.0}, "72286023119": {"distance": 18906.0, "latitude": 33.9, "longitude": -117.25, "useCount": 0, "id": "72286023119", "name": "MARCH AFB, CA US", "quality": 97, "contribution": 0.0}, "KRIV": {"distance": 20948.0, "latitude": 33.88, "longitude": -117.27, "useCount": 0, "id": "KRIV", "name": "KRIV", "quality": 100, "contribution": 0.0}, "KONT": {"distance": 29678.0, "latitude": 34.04, "longitude": -117.6, "useCount": 0, "id": "KONT", "name": "KONT", "quality": 100, "contribution": 0.0}, "74704003102": {"distance": 29540.0, "latitude": 34.056, "longitude": -117.6, "useCount": 0, "id": "74704003102", "name": "ONTARIO INTERNATIONAL AIRPORT, CA US", "quality": 100, "contribution": 0.0}, "AV480": {"distance": 6100.0, "latitude": 34.021, "longitude": -117.314, "useCount": 0, "id": "AV480", "name": "KQ6UP Grand Terrace CA US", "quality": 0, "contribution": 0.0}, "72286903171": {"distance": 19553.0, "latitude": 33.952, "longitude": -117.439, "useCount": 0, "id": "72286903171", "name": "RIVERSIDE MUNICIPAL AIRPORT, CA US", "quality": 100, "contribution": 0.0}}}