{"queryCost": 1, "latitude": 29.387, "longitude": -98.504, "resolvedAddress": "29.38700,-98.50400", "address": "29.38700,-98.50400", "timezone": "America/Chicago", "tzoffset": -6.0, "days": [{"datetime": "2019-12-23", "datetimeEpoch": 1577080800, "tempmax": 70.4, "tempmin": 33.4, "temp": 48.6, "feelslikemax": 70.4, "feelslikemin": 33.4, "feelslike": 48.5, "dew": 36.1, "humidity": 68.91, "precip": 0.0, "precipprob": null, "precipcover": 0.0, "preciptype": null, "snow": 0.0, "snowdepth": 0.0, "windgust": null, "windspeed": 7.1, "winddir": 276.8, "pressure": 1020.1, "cloudcover": 5.0, "visibility": 9.4, "solarradiation": 305.3, "solarenergy": 13.2, "uvindex": 6.0, "sunrise": "07:25:18", "sunriseEpoch": 1577107518, "sunset": "17:40:54", "sunsetEpoch": 1577144454, "moonphase": 0.96, "conditions": "Clear", "description": "Clear conditions throughout the day.", "icon": "clear-day", "stations": ["KSKF", "KSSF", "KSAT", "72253012921", "E6170", "F6098", "72252312970", "72253512909"], "source": "obs"}], "stations": {"KSKF": {"distance": 7413.0, "latitude": 29.38, "longitude": -98.58, "useCount": 0, "id": "KSKF", "name": "KSKF", "quality": 100, "contribution": 0.0}, "KSSF": {"distance": 7151.0, "latitude": 29.33, "longitude": -98.47, "useCount": 0, "id": "KSSF", "name": "KSSF", "quality": 100, "contribution": 0.0}, "KSAT": {"distance": 16256.0, "latitude": 29.53, "longitude": -98.47, "useCount": 0, "id": "KSAT", "name": "KSAT", "quality": 100, "contribution": 0.0}, "72253012921": {"distance": 17619.0, "latitude": 29.544, "longitude": -98.484, "useCount": 0, "id": "72253012921", "name": "SAN ANTONIO INTERNATIONAL AIRPORT, TX US", "quality": 100, "contribution": 0.0}, "E6170": {"distance": 20541.0, "latitude": 29.528, "longitude": -98.367, "useCount": 0, "id": "E6170", "name": "EW6170 San Antonio TX US", "quality": 0, "contribution": 0.0}, "F6098": {"distance": 14794.0, "latitude": 29.505, "longitude": -98.575, "useCount": 0, "id": "F6098", "name": "FW6098 San Antonio TX US", "quality": 0, "contribution": 0.0}, "72252312970": {"distance": 6189.0, "latitude": 29.339, "longitude": -98.472, "useCount": 0, "id": "72252312970", "name": "SAN ANTONIO STINSON MUNICIPAL AIRPORT, TX US", "quality": 100, "contribution": 0.0}, "72253512909": {"distance": 7703.0, "latitude": 29.383, "longitude": -98.583, "useCount": 0, "id": "72253512909", "name": "SAN ANTONIO KELLY FIELD AFB, TX US", "quality": 98, "contribution": 0.0}}}