{"queryCost": 1, "latitude": 38.188, "longitude": -85.58, "resolvedAddress": "38.18800,-85.58000", "address": "38.18800,-85.58000", "timezone": "America/Kentucky/Louisville", "tzoffset": -4.0, "days": [{"datetime": "2019-05-15", "datetimeEpoch": 1557892800, "tempmax": 70.4, "tempmin": 50.9, "temp": 61.0, "feelslikemax": 70.4, "feelslikemin": 50.9, "feelslike": 61.0, "dew": 48.2, "humidity": 64.3, "precip": 0.0, "precipprob": 0.0, "precipcover": 0.0, "preciptype": null, "snow": 0.0, "snowdepth": 0.0, "windgust": null, "windspeed": 10.6, "winddir": 131.0, "pressure": 1016.1, "cloudcover": 61.8, "visibility": 9.9, "solarradiation": 146.5, "solarenergy": 12.7, "uvindex": 7.0, "sunrise": "06:31:43", "sunriseEpoch": 1557916303, "sunset": "20:46:10", "sunsetEpoch": 1557967570, "moonphase": 0.43, "conditions": "Partially cloudy", "description": "Partly cloudy throughout the day.", "icon": "partly-cloudy-day", "stations": ["F1969", "KFTK", "KLOU", "E0797", "KSDF", "72423093821", "72424013807", "72423513810"], "source": "obs"}], "stations": {"F1969": {"distance": 6291.0, "latitude": 38.245, "longitude": -85.582, "useCount": 0, "id": "F1969", "name": "FW1969 Hurstbourne KY US", "quality": 0, "contribution": 0.0}, "KFTK": {"distance": 46870.0, "latitude": 37.9, "longitude": -85.97, "useCount": 0, "id": "KFTK", "name": "KFTK", "quality": 100, "contribution": 0.0}, "KLOU": {"distance": 8641.0, "latitude": 38.22, "longitude": -85.67, "useCount": 0, "id": "KLOU", "name": "KLOU", "quality": 100, "contribution": 0.0}, "E0797": {"distance": 6355.0, "latitude": 38.236, "longitude": -85.62, "useCount": 0, "id": "E0797", "name": "EW0797 Louisville KY US", "quality": 0, "contribution": 0.0}, "KSDF": {"distance": 13155.0, "latitude": 38.18, "longitude": -85.73, "useCount": 0, "id": "KSDF", "name": "KSDF", "quality": 100, "contribution": 0.0}, "72423093821": {"distance": 13942.0, "latitude": 38.181, "longitude": -85.739, "useCount": 0, "id": "72423093821", "name": "LOUISVILLE INTERNATIONAL AIRPORT, KY US", "quality": 100, "contribution": 0.0}, "72424013807": {"distance": 46660.0, "latitude": 37.9, "longitude": -85.967, "useCount": 0, "id": "72424013807", "name": "FORT KNOX GODMAN ARMY AIR FIELD, KY US", "quality": 99, "contribution": 0.0}, "72423513810": {"distance": 8567.0, "latitude": 38.228, "longitude": -85.664, "useCount": 0, "id": "72423513810", "name": "LOUISVILLE BOWMAN FIELD, KY US", "quality": 100, "contribution": 0.0}}}