{"queryCost": 1, "latitude": 37.174, "longitude": -104.508, "resolvedAddress": "37.17400,-104.50800", "address": "37.17400,-104.50800", "timezone": "America/Denver", "tzoffset": -6.0, "days": [{"datetime": "2019-05-19", "datetimeEpoch": 1558245600, "tempmax": 70.4, "tempmin": 32.3, "temp": 52.8, "feelslikemax": 70.4, "feelslikemin": 25.3, "feelslike": 50.5, "dew": 28.0, "humidity": 44.3, "precip": 0.0, "precipprob": 0.0, "precipcover": 0.0, "preciptype": null, "snow": 0.0, "snowdepth": 0.0, "windgust": 42.9, "windspeed": 30.3, "winddir": 203.8, "pressure": 1008.9, "cloudcover": 2.8, "visibility": 9.9, "solarradiation": 254.2, "solarenergy": 22.0, "uvindex": 8.0, "sunrise": "05:46:39", "sunriseEpoch": 1558266399, "sunset": "20:02:51", "sunsetEpoch": 1558317771, "moonphase": 0.5, "conditions": "Clear", "description": "Clear conditions throughout the day.", "icon": "wind", "stations": ["KRTN", "72464523070", "72267823052", "CSU28", "KTAD"], "source": "obs"}], "stations": {"KRTN": {"distance": 48318.0, "latitude": 36.74, "longitude": -104.5, "useCount": 0, "id": "KRTN", "name": "KRTN", "quality": 100, "contribution": 0.0}, "72267823052": {"distance": 48160.0, "latitude": 36.741, "longitude": -104.502, "useCount": 0, "id": "72267823052", "name": "RATON MUNICIPAL CREWS FIELD AIRPORT, NM US", "quality": 100, "contribution": 0.0}, "CSU28": {"distance": 21528.0, "latitude": 37.289, "longitude": -104.313, "useCount": 0, "id": "CSU28", "name": "Hoehne CO US", "quality": 0, "contribution": 0.0}, "72464523070": {"distance": 17986.0, "latitude": 37.262, "longitude": -104.338, "useCount": 0, "id": "72464523070", "name": "TRINIDAD AIRPORT, CO US", "quality": 100, "contribution": 0.0}, "KTAD": {"distance": 19057.0, "latitude": 37.27, "longitude": -104.33, "useCount": 0, "id": "KTAD", "name": "KTAD", "quality": 100, "contribution": 0.0}}}