{"queryCost": 1, "latitude": 44.127, "longitude": -70.2, "resolvedAddress": "44.12700,-70.20000", "address": "44.12700,-70.20000", "timezone": "America/New_York", "tzoffset": -4.0, "days": [{"datetime": "2019-05-21", "datetimeEpoch": 1558411200, "tempmax": 61.9, "tempmin": 52.0, "temp": 56.6, "feelslikemax": 61.9, "feelslikemin": 52.0, "feelslike": 56.6, "dew": 41.4, "humidity": 57.82, "precip": 0.0, "precipprob": null, "precipcover": 8.33, "preciptype": null, "snow": 0.0, "snowdepth": 0.0, "windgust": 34.4, "windspeed": 24.3, "winddir": 301.5, "pressure": 1007.4, "cloudcover": 57.5, "visibility": 9.9, "solarradiation": 268.6, "solarenergy": 17.4, "uvindex": 10.0, "sunrise": "05:08:39", "sunriseEpoch": 1558429719, "sunset": "20:06:45", "sunsetEpoch": 1558483605, "moonphase": 0.54, "conditions": "Partially cloudy", "description": "Partly cloudy throughout the day.", "icon": "partly-cloudy-day", "stations": ["KLEW", "KIWI", "72713594623", "RA008", "E0941", "72618514605", "72618494709", "KAUG"], "source": "obs"}], "stations": {"KLEW": {"distance": 10695.0, "latitude": 44.05, "longitude": -70.28, "useCount": 0, "id": "KLEW", "name": "AUBURN-LEWISTON, ME", "quality": 100, "contribution": 0.0}, "KIWI": {"distance": 42195.0, "latitude": 43.97, "longitude": -69.72, "useCount": 0, "id": "KIWI", "name": "KIWI", "quality": 100, "contribution": 0.0}, "72713594623": {"distance": 43098.0, "latitude": 43.964, "longitude": -69.712, "useCount": 0, "id": "72713594623", "name": "WISCASSET AIRPORT, ME US", "quality": 100, "contribution": 0.0}, "RA008": {"distance": 25032.0, "latitude": 43.931, "longitude": -70.352, "useCount": 0, "id": "RA008", "name": "Gray ME US RAINWISE", "quality": 0, "contribution": 0.0}, "E0941": {"distance": 23551.0, "latitude": 43.98, "longitude": -69.988, "useCount": 0, "id": "E0941", "name": "EW0941 Topsham ME US", "quality": 0, "contribution": 0.0}, "72618514605": {"distance": 38379.0, "latitude": 44.316, "longitude": -69.797, "useCount": 0, "id": "72618514605", "name": "AUGUSTA STATE AIRPORT, ME US", "quality": 100, "contribution": 0.0}, "72618494709": {"distance": 10855.0, "latitude": 44.05, "longitude": -70.283, "useCount": 0, "id": "72618494709", "name": "AUBURN LEWISTON, ME US", "quality": 100, "contribution": 0.0}, "KAUG": {"distance": 38468.0, "latitude": 44.32, "longitude": -69.8, "useCount": 0, "id": "KAUG", "name": "KAUG", "quality": 100, "contribution": 0.0}}}