{"queryCost": 1, "latitude": 32.736, "longitude": -117.08, "resolvedAddress": "32.73600,-117.08000", "address": "32.73600,-117.08000", "timezone": "America/Los_Angeles", "tzoffset": -8.0, "days": [{"datetime": "2020-01-24", "datetimeEpoch": 1579852800, "tempmax": 66.9, "tempmin": 50.9, "temp": 58.3, "feelslikemax": 66.9, "feelslikemin": 50.9, "feelslike": 58.3, "dew": 51.8, "humidity": 80.3, "precip": 0.0, "precipprob": 0.0, "precipcover": 0.0, "preciptype": null, "snow": 0.0, "snowdepth": 0.0, "windgust": null, "windspeed": 8.4, "winddir": 194.0, "pressure": 1016.1, "cloudcover": 37.2, "visibility": 6.6, "solarradiation": 91.0, "solarenergy": 7.8, "uvindex": 4.0, "sunrise": "06:47:56", "sunriseEpoch": 1579877276, "sunset": "17:13:07", "sunsetEpoch": 1579914787, "moonphase": 1.0, "conditions": "Partially cloudy", "description": "Partly cloudy throughout the day.", "icon": "partly-cloudy-day", "stations": ["KNKX", "F1077", "CI184", "KSAN", "72290693112", "72290023188", "KMYF", "72290303131"], "source": "obs"}], "stations": {"KNKX": {"distance": 13231.0, "latitude": 32.85, "longitude": -117.12, "useCount": 0, "id": "KNKX", "name": "KNKX", "quality": 98, "contribution": 0.0}, "F1077": {"distance": 2422.0, "latitude": 32.749, "longitude": -117.059, "useCount": 0, "id": "F1077", "name": "FW1077 San Diego CA US", "quality": 0, "contribution": 0.0}, "CI184": {"distance": 5565.0, "latitude": 32.73, "longitude": -117.139, "useCount": 0, "id": "CI184", "name": "San Diego II CA US CIMIS", "quality": 0, "contribution": 0.0}, "KSAN": {"distance": 8454.0, "latitude": 32.73, "longitude": -117.17, "useCount": 0, "id": "KSAN", "name": "SAN DIEGO/LINDBE, CA", "quality": 100, "contribution": 0.0}, "72290693112": {"distance": 11932.0, "latitude": 32.7, "longitude": -117.2, "useCount": 0, "id": "72290693112", "name": "NORTH ISLAND NAS, CA US", "quality": 100, "contribution": 0.0}, "72290023188": {"distance": 9649.0, "latitude": 32.734, "longitude": -117.183, "useCount": 0, "id": "72290023188", "name": "SAN DIEGO INTERNATIONAL AIRPORT, CA US", "quality": 100, "contribution": 0.0}, "KMYF": {"distance": 10456.0, "latitude": 32.82, "longitude": -117.13, "useCount": 0, "id": "KMYF", "name": "KMYF", "quality": 100, "contribution": 0.0}, "72290303131": {"distance": 10460.0, "latitude": 32.816, "longitude": -117.139, "useCount": 0, "id": "72290303131", "name": "SAN DIEGO MONTGOMERY FIELD, CA US", "quality": 100, "contribution": 0.0}}}