{"queryCost": 1, "latitude": 30.464, "longitude": -88.169, "resolvedAddress": "30.46400,-88.16900", "address": "30.46400,-88.16900", "timezone": "America/Chicago", "tzoffset": -6.0, "days": [{"datetime": "2020-01-24", "datetimeEpoch": 1579845600, "tempmax": 63.7, "tempmin": 46.9, "temp": 54.8, "feelslikemax": 63.7, "feelslikemin": 44.2, "feelslike": 54.6, "dew": 44.1, "humidity": 72.5, "precip": 0.0, "precipprob": 0.0, "precipcover": 0.0, "preciptype": null, "snow": 0.0, "snowdepth": 0.0, "windgust": 19.7, "windspeed": 11.5, "winddir": 276.2, "pressure": 1017.0, "cloudcover": 39.3, "visibility": 6.9, "solarradiation": 57.0, "solarenergy": 4.9, "uvindex": 4.0, "sunrise": "06:47:58", "sunriseEpoch": 1579870078, "sunset": "17:21:44", "sunsetEpoch": 1579908104, "moonphase": 1.0, "conditions": "Partially cloudy", "description": "Clearing in the afternoon.", "icon": "partly-cloudy-day", "stations": ["72223513838", "KMOB", "D1154", "72059200186", "72223013894", "E6967", "KBFM", "KCQF", "GRBM6"], "source": "obs"}], "stations": {"72223513838": {"distance": 20504.0, "latitude": 30.626, "longitude": -88.068, "useCount": 0, "id": "72223513838", "name": "MOBILE DOWNTOWN AIRPORT, AL US", "quality": 100, "contribution": 0.0}, "KMOB": {"distance": 25267.0, "latitude": 30.68, "longitude": -88.25, "useCount": 0, "id": "KMOB", "name": "KMOB", "quality": 100, "contribution": 0.0}, "D1154": {"distance": 17870.0, "latitude": 30.624, "longitude": -88.187, "useCount": 0, "id": "D1154", "name": "DW1154 Mobile AL US", "quality": 0, "contribution": 0.0}, "72059200186": {"distance": 28022.0, "latitude": 30.46, "longitude": -87.877, "useCount": 0, "id": "72059200186", "name": "H L SONNY CALLAHAN AIRPORT, AL US", "quality": 100, "contribution": 0.0}, "72223013894": {"distance": 26026.0, "latitude": 30.688, "longitude": -88.246, "useCount": 0, "id": "72223013894", "name": "MOBILE REGIONAL AIRPORT, AL US", "quality": 100, "contribution": 0.0}, "E6967": {"distance": 27969.0, "latitude": 30.688, "longitude": -88.037, "useCount": 0, "id": "E6967", "name": "EW6967 Mobile AL US", "quality": 0, "contribution": 0.0}, "KBFM": {"distance": 20774.0, "latitude": 30.63, "longitude": -88.07, "useCount": 0, "id": "KBFM", "name": "KBFM", "quality": 100, "contribution": 0.0}, "KCQF": {"distance": 26775.0, "latitude": 30.46, "longitude": -87.89, "useCount": 0, "id": "KCQF", "name": "KCQF", "quality": 97, "contribution": 0.0}, "GRBM6": {"distance": 24790.0, "latitude": 30.438, "longitude": -88.426, "useCount": 0, "id": "GRBM6", "name": "GRAND BAY MS US", "quality": 0, "contribution": 0.0}}}