{"queryCost": 1, "latitude": 26.135, "longitude": -80.177, "resolvedAddress": "26.13500,-80.17700", "address": "26.13500,-80.17700", "timezone": "America/New_York", "tzoffset": -4.0, "days": [{"datetime": "2019-05-24", "datetimeEpoch": 1558670400, "tempmax": 83.9, "tempmin": 77.0, "temp": 79.8, "feelslikemax": 85.7, "feelslikemin": 77.0, "feelslike": 80.5, "dew": 63.8, "humidity": 58.3, "precip": 0.0, "precipprob": 0.0, "precipcover": 0.0, "preciptype": null, "snow": 0.0, "snowdepth": 0.0, "windgust": 24.8, "windspeed": 18.0, "winddir": 66.9, "pressure": 1018.5, "cloudcover": 55.2, "visibility": 9.8, "solarradiation": 252.7, "solarenergy": 22.0, "uvindex": 8.0, "sunrise": "06:30:39", "sunriseEpoch": 1558693839, "sunset": "20:04:42", "sunsetEpoch": 1558742682, "moonphase": 0.65, "conditions": "Partially cloudy", "description": "Partly cloudy throughout the day.", "icon": "partly-cloudy-day", "stations": ["74783012849", "D0271", "72204992805", "KFLL", "72203912885", "KFXE", "KPMP"], "source": "obs"}], "stations": {"74783012849": {"distance": 6429.0, "latitude": 26.079, "longitude": -80.162, "useCount": 0, "id": "74783012849", "name": "FORT LAUDERDALE INTERNATIONAL AIRPORT, FL US", "quality": 100, "contribution": 0.0}, "D0271": {"distance": 4938.0, "latitude": 26.141, "longitude": -80.128, "useCount": 0, "id": "D0271", "name": "DW0271 Fort Lauderdale FL US", "quality": 0, "contribution": 0.0}, "72204992805": {"distance": 14525.0, "latitude": 26.25, "longitude": -80.108, "useCount": 0, "id": "72204992805", "name": "POMPANO BEACH AIRPARK, FL US", "quality": 99, "contribution": 0.0}, "KFLL": {"distance": 7723.0, "latitude": 26.07, "longitude": -80.15, "useCount": 0, "id": "KFLL", "name": "KFLL", "quality": 100, "contribution": 0.0}, "72203912885": {"distance": 6918.0, "latitude": 26.197, "longitude": -80.171, "useCount": 0, "id": "72203912885", "name": "FORT LAUDERDALE EXECUTIVE AIRPORT, FL US", "quality": 99, "contribution": 0.0}, "KFXE": {"distance": 7269.0, "latitude": 26.2, "longitude": -80.17, "useCount": 0, "id": "KFXE", "name": "KFXE", "quality": 100, "contribution": 0.0}, "KPMP": {"distance": 14446.0, "latitude": 26.25, "longitude": -80.11, "useCount": 0, "id": "KPMP", "name": "KPMP", "quality": 100, "contribution": 0.0}}}