{"queryCost": 1, "latitude": 32.178, "longitude": -110.998, "resolvedAddress": "32.17800,-110.99800", "address": "32.17800,-110.99800", "timezone": "America/Phoenix", "tzoffset": -7.0, "days": [{"datetime": "2020-01-28", "datetimeEpoch": 1580194800, "tempmax": 65.5, "tempmin": 38.9, "temp": 50.8, "feelslikemax": 65.5, "feelslikemin": 34.6, "feelslike": 49.0, "dew": 29.3, "humidity": 48.2, "precip": 0.0, "precipprob": 0.0, "precipcover": 0.0, "preciptype": null, "snow": 0.0, "snowdepth": 0.0, "windgust": null, "windspeed": 9.2, "winddir": 161.0, "pressure": 1018.7, "cloudcover": 0.0, "visibility": 9.9, "solarradiation": 190.1, "solarenergy": 16.5, "uvindex": 7.0, "sunrise": "07:20:32", "sunriseEpoch": 1580221232, "sunset": "17:53:36", "sunsetEpoch": 1580259216, "moonphase": 0.06, "conditions": "Clear", "description": "Clear conditions throughout the day.", "icon": "clear-day", "stations": ["72274023160", "KTUS", "D4959", "72274523109", "KDMA", "99999953131"], "source": "obs"}], "stations": {"72274023160": {"distance": 6592.0, "latitude": 32.131, "longitude": -110.955, "useCount": 0, "id": "72274023160", "name": "TUCSON INTERNATIONAL AIRPORT, AZ US", "quality": 100, "contribution": 0.0}, "KTUS": {"distance": 6433.0, "latitude": 32.13, "longitude": -110.96, "useCount": 0, "id": "KTUS", "name": "KTUS", "quality": 100, "contribution": 0.0}, "D4959": {"distance": 7487.0, "latitude": 32.185, "longitude": -111.077, "useCount": 0, "id": "D4959", "name": "DW4959 Tucson Ajo Wy / Kinney AZ US", "quality": 0, "contribution": 0.0}, "72274523109": {"distance": 10909.0, "latitude": 32.167, "longitude": -110.883, "useCount": 0, "id": "72274523109", "name": "DAVIS MONTHAN AFB, AZ US", "quality": 97, "contribution": 0.0}, "KDMA": {"distance": 11154.0, "latitude": 32.17, "longitude": -110.88, "useCount": 0, "id": "KDMA", "name": "KDMA", "quality": 100, "contribution": 0.0}, "99999953131": {"distance": 17588.0, "latitude": 32.24, "longitude": -111.17, "useCount": 0, "id": "99999953131", "name": "TUCSON 11 W, AZ US", "quality": 100, "contribution": 0.0}}}