{"queryCost": 1, "latitude": 32.665, "longitude": -97.341, "resolvedAddress": "32.66500,-97.34100", "address": "32.66500,-97.34100", "timezone": "America/Chicago", "tzoffset": -5.0, "days": [{"datetime": "2019-06-01", "datetimeEpoch": 1559365200, "tempmax": 90.7, "tempmin": 68.9, "temp": 77.5, "feelslikemax": 95.0, "feelslikemin": 68.9, "feelslike": 79.0, "dew": 67.5, "humidity": 73.4, "precip": 0.9, "precipprob": 100.0, "precipcover": 25.0, "preciptype": ["rain"], "snow": 0.0, "snowdepth": 0.0, "windgust": 37.4, "windspeed": 21.7, "winddir": 121.0, "pressure": 1013.0, "cloudcover": 32.8, "visibility": 9.7, "solarradiation": 272.9, "solarenergy": 23.6, "uvindex": 10.0, "sunrise": "06:22:35", "sunriseEpoch": 1559388155, "sunset": "20:32:06", "sunsetEpoch": 1559439126, "moonphase": 0.98, "conditions": "Rain, Partially cloudy", "description": "Partly cloudy throughout the day with late afternoon rain.", "icon": "rain", "stations": ["72247953907", "74739013961", "KNFW", "72259513911", "KGKY", "E2612", "KFTW"], "source": "obs"}], "stations": {"72247953907": {"distance": 23157.0, "latitude": 32.664, "longitude": -97.094, "useCount": 0, "id": "72247953907", "name": "ARLINGTON MUNICIPAL AIRPORT, TX US", "quality": 100, "contribution": 0.0}, "74739013961": {"distance": 17271.0, "latitude": 32.819, "longitude": -97.361, "useCount": 0, "id": "74739013961", "name": "FORT WORTH MEACHAM FIELD, TX US", "quality": 100, "contribution": 0.0}, "KNFW": {"distance": 15519.0, "latitude": 32.77, "longitude": -97.45, "useCount": 0, "id": "KNFW", "name": "KNFW", "quality": 100, "contribution": 0.0}, "72259513911": {"distance": 15244.0, "latitude": 32.767, "longitude": -97.45, "useCount": 0, "id": "72259513911", "name": "FORT WORTH NAS, TX US", "quality": 100, "contribution": 0.0}, "KGKY": {"distance": 23583.0, "latitude": 32.65, "longitude": -97.09, "useCount": 0, "id": "KGKY", "name": "KGKY", "quality": 100, "contribution": 0.0}, "E2612": {"distance": 7607.0, "latitude": 32.653, "longitude": -97.421, "useCount": 0, "id": "E2612", "name": "EW2612 Fort Worth TX US", "quality": 0, "contribution": 0.0}, "KFTW": {"distance": 17467.0, "latitude": 32.82, "longitude": -97.37, "useCount": 0, "id": "KFTW", "name": "FT WORTH/MEACHAM, TX", "quality": 100, "contribution": 0.0}}}