{"queryCost": 1, "latitude": 29.555, "longitude": -95.395, "resolvedAddress": "29.55500,-95.39500", "address": "29.55500,-95.39500", "timezone": "America/Chicago", "tzoffset": -5.0, "days": [{"datetime": "2019-06-15", "datetimeEpoch": 1560574800, "tempmax": 89.8, "tempmin": 75.6, "temp": 83.0, "feelslikemax": 99.6, "feelslikemin": 75.6, "feelslike": 88.5, "dew": 74.0, "humidity": 75.4, "precip": 0.03, "precipprob": 100.0, "precipcover": 8.33, "preciptype": ["rain"], "snow": 0.0, "snowdepth": 0.0, "windgust": 25.6, "windspeed": 14.0, "winddir": 162.8, "pressure": 1013.7, "cloudcover": 35.1, "visibility": 9.8, "solarradiation": 243.9, "solarenergy": 21.0, "uvindex": 8.0, "sunrise": "06:21:13", "sunriseEpoch": 1560597673, "sunset": "20:23:01", "sunsetEpoch": 1560648181, "moonphase": 0.48, "conditions": "Rain, Partially cloudy", "description": "Partly cloudy throughout the day with afternoon rain.", "icon": "rain", "stations": ["KHOU", "KAXH", "72242712975", "KLVJ", "C8931", "72244012918", "72063700223"], "source": "obs"}], "stations": {"KHOU": {"distance": 13915.0, "latitude": 29.63, "longitude": -95.28, "useCount": 0, "id": "KHOU", "name": "KHOU", "quality": 100, "contribution": 0.0}, "KAXH": {"distance": 9637.0, "latitude": 29.51, "longitude": -95.48, "useCount": 0, "id": "KAXH", "name": "KAXH", "quality": 100, "contribution": 0.0}, "72242712975": {"distance": 15382.0, "latitude": 29.519, "longitude": -95.242, "useCount": 0, "id": "72242712975", "name": "HOUSTON CLOVER FIELD, TX US", "quality": 100, "contribution": 0.0}, "KLVJ": {"distance": 15509.0, "latitude": 29.52, "longitude": -95.24, "useCount": 0, "id": "KLVJ", "name": "KLVJ", "quality": 100, "contribution": 0.0}, "C8931": {"distance": 12377.0, "latitude": 29.557, "longitude": -95.523, "useCount": 0, "id": "C8931", "name": "CW8931 Missouri City TX US", "quality": 0, "contribution": 0.0}, "72244012918": {"distance": 14333.0, "latitude": 29.638, "longitude": -95.282, "useCount": 0, "id": "72244012918", "name": "HOUSTON WILLIAM P HOBBY AIRPORT, TX US", "quality": 100, "contribution": 0.0}, "72063700223": {"distance": 10029.0, "latitude": 29.5, "longitude": -95.477, "useCount": 0, "id": "72063700223", "name": "HOUSTON SOUTHWEST AIRPORT, TX US", "quality": 99, "contribution": 0.0}}}