{"queryCost": 1, "latitude": 33.08, "longitude": -106.007, "resolvedAddress": "33.08000,-106.00700", "address": "33.08000,-106.00700", "timezone": "America/Denver", "tzoffset": -6.0, "days": [{"datetime": "2019-07-07", "datetimeEpoch": 1562479200, "tempmax": 85.7, "tempmin": 65.8, "temp": 75.1, "feelslikemax": 84.1, "feelslikemin": 65.8, "feelslike": 74.7, "dew": 56.9, "humidity": 55.29, "precip": 0.05, "precipprob": null, "precipcover": 12.5, "preciptype": null, "snow": 0.0, "snowdepth": 0.0, "windgust": 30.0, "windspeed": 17.3, "winddir": 162.9, "pressure": 1014.4, "cloudcover": 46.5, "visibility": 9.8, "solarradiation": 375.6, "solarenergy": 21.6, "uvindex": 10.0, "sunrise": "06:01:37", "sunriseEpoch": 1562500897, "sunset": "20:16:08", "sunsetEpoch": 1562552168, "moonphase": 0.14, "conditions": "Rain, Partially cloudy", "description": "Partly cloudy throughout the day with afternoon rain.", "icon": "rain", "stations": ["72268393083", "KALM", "72269393097", "WSM28", "KSRR", "KHMN", "74732023002"], "source": "obs"}], "stations": {"72268393083": {"distance": 61454.0, "latitude": 33.45, "longitude": -105.517, "useCount": 0, "id": "72268393083", "name": "RUIDOSO SIERRA BLANCA AIRPORT, NM US", "quality": 100, "contribution": 0.0}, "KALM": {"distance": 27944.0, "latitude": 32.83, "longitude": -105.98, "useCount": 0, "id": "KALM", "name": "KALM", "quality": 97, "contribution": 0.0}, "72269393097": {"distance": 26792.0, "latitude": 32.84, "longitude": -105.991, "useCount": 0, "id": "72269393097", "name": "ALAMOGORDO WHITE SANDS REGIONAL AIRPORT, NM US", "quality": 97, "contribution": 0.0}, "WSM28": {"distance": 16454.0, "latitude": 33.07, "longitude": -106.183, "useCount": 0, "id": "WSM28", "name": "Tula NM US WSMR", "quality": 0, "contribution": 0.0}, "KSRR": {"distance": 62093.0, "latitude": 33.47, "longitude": -105.53, "useCount": 0, "id": "KSRR", "name": "KSRR", "quality": 99, "contribution": 0.0}, "KHMN": {"distance": 27037.0, "latitude": 32.85, "longitude": -106.1, "useCount": 0, "id": "KHMN", "name": "KHMN", "quality": 100, "contribution": 0.0}, "74732023002": {"distance": 27037.0, "latitude": 32.85, "longitude": -106.1, "useCount": 0, "id": "74732023002", "name": "HOLLOMAN AFB, NM US", "quality": 95, "contribution": 0.0}}}