{"queryCost": 1, "latitude": 32.713, "longitude": -96.717, "resolvedAddress": "32.71300,-96.71700", "address": "32.71300,-96.71700", "timezone": "America/Chicago", "tzoffset": -5.0, "days": [{"datetime": "2019-07-14", "datetimeEpoch": 1563080400, "tempmax": 84.7, "tempmin": 74.5, "temp": 79.7, "feelslikemax": 88.3, "feelslikemin": 74.5, "feelslike": 81.2, "dew": 68.9, "humidity": 70.28, "precip": 0.0, "precipprob": null, "precipcover": 0.0, "preciptype": null, "snow": 0.0, "snowdepth": 0.0, "windgust": 23.0, "windspeed": 14.0, "winddir": 78.0, "pressure": 1011.3, "cloudcover": 57.6, "visibility": 9.9, "solarradiation": 250.6, "solarenergy": 14.4, "uvindex": 5.0, "sunrise": "06:29:10", "sunriseEpoch": 1563103750, "sunset": "20:36:04", "sunsetEpoch": 1563154564, "moonphase": 0.47, "conditions": "Partially cloudy", "description": "Partly cloudy throughout the day.", "icon": "partly-cloudy-day", "stations": ["KLNC", "KHQZ", "KDAL", "72259903971", "KRBD", "AN483", "E9393", "72214353975"], "source": "obs"}], "stations": {"KLNC": {"distance": 15921.0, "latitude": 32.57, "longitude": -96.72, "useCount": 0, "id": "KLNC", "name": "KLNC", "quality": 100, "contribution": 0.0}, "KHQZ": {"distance": 17989.0, "latitude": 32.75, "longitude": -96.53, "useCount": 0, "id": "KHQZ", "name": "KHQZ", "quality": 100, "contribution": 0.0}, "KDAL": {"distance": 19686.0, "latitude": 32.85, "longitude": -96.85, "useCount": 0, "id": "KDAL", "name": "KDAL", "quality": 100, "contribution": 0.0}, "72259903971": {"distance": 14602.0, "latitude": 32.681, "longitude": -96.868, "useCount": 0, "id": "72259903971", "name": "DALLAS REDBIRD AIRPORT, TX US", "quality": 99, "contribution": 0.0}, "KRBD": {"distance": 14796.0, "latitude": 32.68, "longitude": -96.87, "useCount": 0, "id": "KRBD", "name": "KRBD", "quality": 99, "contribution": 0.0}, "AN483": {"distance": 17918.0, "latitude": 32.82, "longitude": -96.86, "useCount": 0, "id": "AN483", "name": "Dallas Hinton St. C401/C161 [E] TX TCEQ", "quality": 0, "contribution": 0.0}, "E9393": {"distance": 18421.0, "latitude": 32.653, "longitude": -96.534, "useCount": 0, "id": "E9393", "name": "EW9393 Seagoville TX US", "quality": 0, "contribution": 0.0}, "72214353975": {"distance": 14896.0, "latitude": 32.579, "longitude": -96.719, "useCount": 0, "id": "72214353975", "name": "LANCASTER AIRPORT, TX US", "quality": 100, "contribution": 0.0}}}