{"queryCost": 1, "latitude": 29.446, "longitude": -95.105, "resolvedAddress": "29.44600,-95.10500", "address": "29.44600,-95.10500", "timezone": "America/Chicago", "tzoffset": -5.0, "days": [{"datetime": "2019-07-19", "datetimeEpoch": 1563512400, "tempmax": 92.4, "tempmin": 79.3, "temp": 85.6, "feelslikemax": 102.7, "feelslikemin": 79.3, "feelslike": 92.9, "dew": 74.8, "humidity": 71.4, "precip": 0.0, "precipprob": 0.0, "precipcover": 0.0, "preciptype": null, "snow": 0.0, "snowdepth": 0.0, "windgust": 20.8, "windspeed": 13.8, "winddir": 150.0, "pressure": 1016.0, "cloudcover": 20.6, "visibility": 9.8, "solarradiation": 218.9, "solarenergy": 18.6, "uvindex": 8.0, "sunrise": "06:32:54", "sunriseEpoch": 1563535974, "sunset": "20:20:19", "sunsetEpoch": 1563585619, "moonphase": 0.53, "conditions": "Partially cloudy", "description": "Partly cloudy throughout the day.", "icon": "partly-cloudy-day", "stations": ["KHOU", "KGLS", "72242012923", "72242712975", "KLVJ", "72244012918", "AT862"], "source": "obs"}], "stations": {"KHOU": {"distance": 26586.0, "latitude": 29.63, "longitude": -95.28, "useCount": 0, "id": "KHOU", "name": "KHOU", "quality": 100, "contribution": 0.0}, "KGLS": {"distance": 30062.0, "latitude": 29.27, "longitude": -94.87, "useCount": 0, "id": "KGLS", "name": "KGLS", "quality": 100, "contribution": 0.0}, "72242012923": {"distance": 30632.0, "latitude": 29.273, "longitude": -94.859, "useCount": 0, "id": "72242012923", "name": "GALVESTON SCHOLES FIELD, TX US", "quality": 100, "contribution": 0.0}, "72242712975": {"distance": 15535.0, "latitude": 29.519, "longitude": -95.242, "useCount": 0, "id": "72242712975", "name": "HOUSTON CLOVER FIELD, TX US", "quality": 100, "contribution": 0.0}, "KLVJ": {"distance": 15460.0, "latitude": 29.52, "longitude": -95.24, "useCount": 0, "id": "KLVJ", "name": "KLVJ", "quality": 100, "contribution": 0.0}, "72244012918": {"distance": 27401.0, "latitude": 29.638, "longitude": -95.282, "useCount": 0, "id": "72244012918", "name": "HOUSTON WILLIAM P HOBBY AIRPORT, TX US", "quality": 100, "contribution": 0.0}, "AT862": {"distance": 10079.0, "latitude": 29.537, "longitude": -95.102, "useCount": 0, "id": "AT862", "name": "K5RG-3 Webster TX US", "quality": 0, "contribution": 0.0}}}