{"queryCost": 1, "latitude": 41.809, "longitude": -88.34, "resolvedAddress": "41.80900,-88.34000", "address": "41.80900,-88.34000", "timezone": "America/Chicago", "tzoffset": -5.0, "days": [{"datetime": "2019-08-21", "datetimeEpoch": 1566363600, "tempmax": 81.8, "tempmin": 60.8, "temp": 71.1, "feelslikemax": 85.9, "feelslikemin": 60.8, "feelslike": 71.7, "dew": 66.2, "humidity": 85.4, "precip": 0.11, "precipprob": 100.0, "precipcover": 8.33, "preciptype": ["rain"], "snow": 0.0, "snowdepth": 0.0, "windgust": 33.3, "windspeed": 12.0, "winddir": 266.0, "pressure": 1014.3, "cloudcover": 29.6, "visibility": 8.1, "solarradiation": 151.9, "solarenergy": 13.1, "uvindex": 6.0, "sunrise": "06:07:32", "sunriseEpoch": 1566385652, "sunset": "19:44:47", "sunsetEpoch": 1566434687, "moonphase": 0.65, "conditions": "Rain, Partially cloudy", "description": "Partly cloudy throughout the day with afternoon rain.", "icon": "rain", "stations": ["72530594892", "E0491", "72534804831", "F0906", "KARR", "KLOT", "74465504808", "KDPA"], "source": "obs"}], "stations": {"72530594892": {"distance": 14067.0, "latitude": 41.914, "longitude": -88.246, "useCount": 0, "id": "72530594892", "name": "CHICAGO WEST CHICAGO DUPAGE AIRPORT, IL US", "quality": 100, "contribution": 0.0}, "E0491": {"distance": 1749.0, "latitude": 41.814, "longitude": -88.36, "useCount": 0, "id": "E0491", "name": "EW0491 North Aurora IL US", "quality": 0, "contribution": 0.0}, "72534804831": {"distance": 31135.0, "latitude": 41.604, "longitude": -88.085, "useCount": 0, "id": "72534804831", "name": "ROMEOVILLE WEATHER FORECAST OFFICE, IL US", "quality": 100, "contribution": 0.0}, "F0906": {"distance": 2656.0, "latitude": 41.788, "longitude": -88.355, "useCount": 0, "id": "F0906", "name": "FW0906 Aurora IL US", "quality": 0, "contribution": 0.0}, "KARR": {"distance": 11631.0, "latitude": 41.77, "longitude": -88.47, "useCount": 0, "id": "KARR", "name": "KARR", "quality": 100, "contribution": 0.0}, "KLOT": {"distance": 30371.0, "latitude": 41.61, "longitude": -88.09, "useCount": 0, "id": "KLOT", "name": "KLOT", "quality": 99, "contribution": 0.0}, "74465504808": {"distance": 12513.0, "latitude": 41.77, "longitude": -88.481, "useCount": 0, "id": "74465504808", "name": "CHICAGO AURORA MUNICIPAL AIRPORT, IL US", "quality": 100, "contribution": 0.0}, "KDPA": {"distance": 14434.0, "latitude": 41.92, "longitude": -88.25, "useCount": 0, "id": "KDPA", "name": "KDPA", "quality": 100, "contribution": 0.0}}}