{"queryCost": 1, "latitude": 30.495, "longitude": -91.15, "resolvedAddress": "30.49500,-91.15000", "address": "30.49500,-91.15000", "timezone": "America/Chicago", "tzoffset": -5.0, "days": [{"datetime": "2019-08-27", "datetimeEpoch": 1566882000, "tempmax": 92.9, "tempmin": 75.9, "temp": 83.3, "feelslikemax": 104.3, "feelslikemin": 75.9, "feelslike": 88.9, "dew": 75.5, "humidity": 79.3, "precip": 0.06, "precipprob": 100.0, "precipcover": 4.17, "preciptype": ["rain"], "snow": 0.0, "snowdepth": 0.0, "windgust": null, "windspeed": 9.1, "winddir": 210.2, "pressure": 1013.7, "cloudcover": 39.1, "visibility": 7.8, "solarradiation": 250.6, "solarenergy": 21.6, "uvindex": 10.0, "sunrise": "06:38:11", "sunriseEpoch": 1566905891, "sunset": "19:33:39", "sunsetEpoch": 1566952419, "moonphase": 0.94, "conditions": "Rain, Partially cloudy", "description": "Partly cloudy throughout the day with morning rain.", "icon": "rain", "stations": ["72104600460", "KBTR", "KHZR", "72232013970", "KHDC", "1311W"], "source": "obs"}], "stations": {"72104600460": {"distance": 41134.0, "latitude": 30.173, "longitude": -90.941, "useCount": 0, "id": "72104600460", "name": "LOUISIANA REGIONAL AIRPORT, LA US", "quality": 100, "contribution": 0.0}, "KBTR": {"distance": 3896.0, "latitude": 30.53, "longitude": -91.15, "useCount": 0, "id": "KBTR", "name": "KBTR", "quality": 100, "contribution": 0.0}, "KHZR": {"distance": 39656.0, "latitude": 30.71, "longitude": -91.48, "useCount": 0, "id": "KHZR", "name": "KHZR", "quality": 92, "contribution": 0.0}, "72232013970": {"distance": 4707.0, "latitude": 30.537, "longitude": -91.147, "useCount": 0, "id": "72232013970", "name": "BATON ROUGE METRO AIRPORT, LA US", "quality": 100, "contribution": 0.0}, "KHDC": {"distance": 70069.0, "latitude": 30.52, "longitude": -90.42, "useCount": 0, "id": "KHDC", "name": "KHDC", "quality": 100, "contribution": 0.0}, "1311W": {"distance": 9803.0, "latitude": 30.412, "longitude": -91.184, "useCount": 0, "id": "1311W", "name": "Tiger Stadium LA US WEATHERSTEM", "quality": 0, "contribution": 0.0}}}