{"queryCost": 1, "latitude": 39.708, "longitude": -105.086, "resolvedAddress": "39.70800,-105.08600", "address": "39.70800,-105.08600", "timezone": "America/Denver", "tzoffset": -6.0, "days": [{"datetime": "2019-09-20", "datetimeEpoch": 1568959200, "tempmax": 86.5, "tempmin": 61.0, "temp": 73.1, "feelslikemax": 83.1, "feelslikemin": 61.0, "feelslike": 72.1, "dew": 35.9, "humidity": 33.2, "precip": 0.0, "precipprob": null, "precipcover": 0.0, "preciptype": null, "snow": 0.0, "snowdepth": 0.0, "windgust": 36.2, "windspeed": 23.0, "winddir": 197.9, "pressure": 1002.8, "cloudcover": 28.9, "visibility": 9.9, "solarradiation": 384.2, "solarenergy": 18.0, "uvindex": 8.0, "sunrise": "06:45:52", "sunriseEpoch": 1568983552, "sunset": "19:01:04", "sunsetEpoch": 1569027664, "moonphase": 0.67, "conditions": "Partially cloudy", "description": "Partly cloudy throughout the day.", "icon": "partly-cloudy-day", "stations": ["KBKF", "KDEN", "KAPA", "72469523036", "E7168", "72565003017", "72466693067"], "source": "obs"}], "stations": {"KBKF": {"distance": 28803.0, "latitude": 39.72, "longitude": -104.75, "useCount": 0, "id": "KBKF", "name": "KBKF", "quality": 100, "contribution": 0.0}, "KDEN": {"distance": 39404.0, "latitude": 39.86, "longitude": -104.67, "useCount": 0, "id": "KDEN", "name": "KDEN", "quality": 100, "contribution": 0.0}, "KAPA": {"distance": 25403.0, "latitude": 39.57, "longitude": -104.85, "useCount": 0, "id": "KAPA", "name": "KAPA", "quality": 100, "contribution": 0.0}, "72469523036": {"distance": 28789.0, "latitude": 39.717, "longitude": -104.75, "useCount": 0, "id": "72469523036", "name": "AURORA BUCKLEY FIELD ANGB, CO US", "quality": 100, "contribution": 0.0}, "E7168": {"distance": 3492.0, "latitude": 39.685, "longitude": -105.058, "useCount": 0, "id": "E7168", "name": "EW7168 Golden CO US", "quality": 0, "contribution": 0.0}, "72565003017": {"distance": 39167.0, "latitude": 39.833, "longitude": -104.658, "useCount": 0, "id": "72565003017", "name": "DENVER INTERNATIONAL AIRPORT, CO US", "quality": 100, "contribution": 0.0}, "72466693067": {"distance": 25451.0, "latitude": 39.57, "longitude": -104.849, "useCount": 0, "id": "72466693067", "name": "DENVER CENTENNIAL AIRPORT, CO US", "quality": 100, "contribution": 0.0}}}