{"queryCost": 1, "latitude": 42.1, "longitude": -75.385, "resolvedAddress": "42.10000,-75.38500", "address": "42.10000,-75.38500", "timezone": "America/New_York", "tzoffset": -5.0, "days": [{"datetime": "2020-01-29", "datetimeEpoch": 1580274000, "tempmax": 27.5, "tempmin": 13.8, "temp": 22.8, "feelslikemax": 17.8, "feelslikemin": 6.1, "feelslike": 12.6, "dew": 15.3, "humidity": 73.1, "precip": 0.0, "precipprob": 0.0, "precipcover": 0.0, "preciptype": null, "snow": 0.0, "snowdepth": 0.9, "windgust": 26.4, "windspeed": 15.4, "winddir": 331.6, "pressure": 1019.7, "cloudcover": 47.0, "visibility": 9.7, "solarradiation": 65.9, "solarenergy": 5.9, "uvindex": 4.0, "sunrise": "07:17:58", "sunriseEpoch": 1580300278, "sunset": "17:11:44", "sunsetEpoch": 1580335904, "moonphase": 0.09, "conditions": "Partially cloudy", "description": "Clearing in the afternoon.", "icon": "partly-cloudy-day", "stations": ["99999964758", "E3016", "72514554746", "KMSV", "72515004725", "KBGM", "D5714"], "source": "obs"}], "stations": {"99999964758": {"distance": 80411.0, "latitude": 42.44, "longitude": -76.246, "useCount": 0, "id": "99999964758", "name": "ITHACA 13 E, NY US", "quality": 99, "contribution": 0.0}, "E3016": {"distance": 31205.0, "latitude": 42.343, "longitude": -75.197, "useCount": 0, "id": "E3016", "name": "EW3016 Franklin NY US", "quality": 0, "contribution": 0.0}, "72514554746": {"distance": 66019.0, "latitude": 41.701, "longitude": -74.795, "useCount": 0, "id": "72514554746", "name": "MONTICELLO SULLIVAN, NY US", "quality": 98, "contribution": 0.0}, "KMSV": {"distance": 65819.0, "latitude": 41.7, "longitude": -74.8, "useCount": 0, "id": "KMSV", "name": "MONTICELLO/SLLVN, NY", "quality": 100, "contribution": 0.0}, "72515004725": {"distance": 50522.0, "latitude": 42.207, "longitude": -75.98, "useCount": 0, "id": "72515004725", "name": "BINGHAMTON GREATER AP, NY US", "quality": 100, "contribution": 0.0}, "KBGM": {"distance": 50883.0, "latitude": 42.22, "longitude": -75.98, "useCount": 0, "id": "KBGM", "name": "KBGM", "quality": 100, "contribution": 0.0}, "D5714": {"distance": 14591.0, "latitude": 42.01, "longitude": -75.513, "useCount": 0, "id": "D5714", "name": "DW5714 Windsor NY US", "quality": 0, "contribution": 0.0}}}