{"queryCost": 1, "latitude": 60.325, "longitude": -151.38, "resolvedAddress": "60.32500,-151.38000", "address": "60.32500,-151.38000", "timezone": "America/Anchorage", "tzoffset": -9.0, "days": [{"datetime": "2020-01-29", "datetimeEpoch": 1580288400, "tempmax": 24.2, "tempmin": 10.3, "temp": 20.0, "feelslikemax": 18.3, "feelslikemin": -0.7, "feelslike": 9.7, "dew": 14.6, "humidity": 79.8, "precip": 0.02, "precipprob": 100.0, "precipcover": 8.33, "preciptype": ["snow"], "snow": 0.4, "snowdepth": 16.0, "windgust": 43.7, "windspeed": 17.2, "winddir": 59.9, "pressure": 970.3, "cloudcover": 72.6, "visibility": 8.1, "solarradiation": 1.8, "solarenergy": 0.0, "uvindex": 0.0, "sunrise": "09:28:30", "sunriseEpoch": 1580322510, "sunset": "17:09:34", "sunsetEpoch": 1580350174, "moonphase": 0.09, "conditions": "Snow, Partially cloudy", "description": "Partly cloudy throughout the day with afternoon snow.", "icon": "snow", "stations": ["E6467", "PASX", "70259026523", "SDFA2", "99999926563", "70341025507", "70259526559", "PAEN"], "source": "obs"}], "stations": {"E6467": {"distance": 45047.0, "latitude": 60.728, "longitude": -151.295, "useCount": 0, "id": "E6467", "name": "EW6467 Nikiski AK US", "quality": 0, "contribution": 0.0}, "PASX": {"distance": 25846.0, "latitude": 60.48, "longitude": -151.03, "useCount": 0, "id": "PASX", "name": "SOLDOTNA, AK", "quality": 97, "contribution": 0.0}, "70259026523": {"distance": 29391.0, "latitude": 60.58, "longitude": -151.239, "useCount": 0, "id": "70259026523", "name": "KENAI AIRPORT, AK US", "quality": 100, "contribution": 0.0}, "SDFA2": {"distance": 27742.0, "latitude": 60.497, "longitude": -151.014, "useCount": 0, "id": "SDFA2", "name": "SOLDOTNA AKKKS AK US", "quality": 0, "contribution": 0.0}, "99999926563": {"distance": 67645.0, "latitude": 60.724, "longitude": -150.448, "useCount": 0, "id": "99999926563", "name": "KENAI 29 ENE, AK US", "quality": 100, "contribution": 0.0}, "70341025507": {"distance": 76282.0, "latitude": 59.642, "longitude": -151.491, "useCount": 0, "id": "70341025507", "name": "HOMER AIRPORT, AK US", "quality": 100, "contribution": 0.0}, "70259526559": {"distance": 25372.0, "latitude": 60.476, "longitude": -151.034, "useCount": 0, "id": "70259526559", "name": "SOLDOTNA AIRPORT, AK US", "quality": 96, "contribution": 0.0}, "PAEN": {"distance": 28192.0, "latitude": 60.57, "longitude": -151.25, "useCount": 0, "id": "PAEN", "name": "KENAI MUNICIPAL, AK", "quality": 100, "contribution": 0.0}}}