{"queryCost": 1, "latitude": 40.469, "longitude": -86.165, "resolvedAddress": "40.46900,-86.16500", "address": "40.46900,-86.16500", "timezone": "America/Indiana/Indianapolis", "tzoffset": -4.0, "days": [{"datetime": "2015-06-12", "datetimeEpoch": 1434081600, "tempmax": 86.9, "tempmin": 69.5, "temp": 75.4, "feelslikemax": 94.9, "feelslikemin": 69.5, "feelslike": 76.3, "dew": 66.8, "humidity": 75.3, "precip": 0.81, "precipprob": 100.0, "precipcover": 33.33, "preciptype": ["rain"], "snow": 0.0, "snowdepth": 0.0, "windgust": 39.1, "windspeed": 18.0, "winddir": 231.4, "pressure": 1010.5, "cloudcover": 48.6, "visibility": 9.7, "solarradiation": 153.0, "solarenergy": 13.2, "uvindex": 6.0, "sunrise": "06:13:50", "sunriseEpoch": 1434104030, "sunset": "21:15:21", "sunsetEpoch": 1434158121, "moonphase": 0.91, "conditions": "Rain, Partially cloudy", "description": "Partly cloudy throughout the day with rain.", "icon": "rain", "stations": ["72438754807", "KOKK", "KGUS", "72533594833", "74421494852"], "source": "obs"}], "stations": {"72438754807": {"distance": 11133.0, "latitude": 40.528, "longitude": -86.059, "useCount": 0, "id": "72438754807", "name": "KOKOMO MUNICIPAL AIRPORT, IN US", "quality": 100, "contribution": 0.0}, "KGUS": {"distance": 20189.0, "latitude": 40.65, "longitude": -86.15, "useCount": 0, "id": "KGUS", "name": "KGUS", "quality": 100, "contribution": 0.0}, "72533594833": {"distance": 20189.0, "latitude": 40.65, "longitude": -86.15, "useCount": 0, "id": "72533594833", "name": "PERU GRISSOM AFB, IN US", "quality": 100, "contribution": 0.0}, "74421494852": {"distance": 40820.0, "latitude": 40.483, "longitude": -85.683, "useCount": 0, "id": "74421494852", "name": "MARION MUNICIPAL AIRPORT, IN US", "quality": 100, "contribution": 0.0}, "KOKK": {"distance": 10525.0, "latitude": 40.53, "longitude": -86.07, "useCount": 0, "id": "KOKK", "name": "KOKOMO(AWOS), IN", "quality": 100, "contribution": 0.0}}}