{"queryCost": 1, "latitude": 61.217, "longitude": -149.889, "resolvedAddress": "61.21700,-149.88900", "address": "61.21700,-149.88900", "timezone": "America/Anchorage", "tzoffset": -9.0, "days": [{"datetime": "2020-02-15", "datetimeEpoch": 1581757200, "tempmax": 15.8, "tempmin": 5.3, "temp": 11.4, "feelslikemax": 15.8, "feelslikemin": 1.5, "feelslike": 8.5, "dew": 1.2, "humidity": 63.2, "precip": 0.0, "precipprob": 0.0, "precipcover": 0.0, "preciptype": null, "snow": 0.5, "snowdepth": 10.5, "windgust": null, "windspeed": 5.8, "winddir": 64.8, "pressure": 1005.2, "cloudcover": 72.8, "visibility": 9.9, "solarradiation": 25.6, "solarenergy": 2.1, "uvindex": 1.0, "sunrise": "08:42:42", "sunriseEpoch": 1581788562, "sunset": "17:45:46", "sunsetEpoch": 1581821146, "moonphase": 0.73, "conditions": "Partially cloudy", "description": "Partly cloudy throughout the day.", "icon": "snow", "stations": ["F3890", "PAMR", "PAED", "70272026401", "PMZA2", "70273526409", "PALH", "70272526491"], "source": "obs"}], "stations": {"F3890": {"distance": 7050.0, "latitude": 61.154, "longitude": -149.906, "useCount": 0, "id": "F3890", "name": "FW3890 Anchorage AK US", "quality": 0, "contribution": 0.0}, "PAMR": {"distance": 2117.0, "latitude": 61.22, "longitude": -149.85, "useCount": 0, "id": "PAMR", "name": "MERRILL FIELD, AK", "quality": 100, "contribution": 0.0}, "PAED": {"distance": 6019.0, "latitude": 61.25, "longitude": -149.8, "useCount": 0, "id": "PAED", "name": "PAED", "quality": 100, "contribution": 0.0}, "70272026401": {"distance": 6484.0, "latitude": 61.253, "longitude": -149.794, "useCount": 0, "id": "70272026401", "name": "ANCHORAGE ELMENDORF AFB, AK US", "quality": 98, "contribution": 0.0}, "PMZA2": {"distance": 25310.0, "latitude": 61.422, "longitude": -150.093, "useCount": 0, "id": "PMZA2", "name": "PT MAC AK US", "quality": 0, "contribution": 0.0}, "70273526409": {"distance": 1822.0, "latitude": 61.217, "longitude": -149.855, "useCount": 0, "id": "70273526409", "name": "ANCHORAGE MERRILL FIELD, AK US", "quality": 100, "contribution": 0.0}, "PALH": {"distance": 5282.0, "latitude": 61.19, "longitude": -149.97, "useCount": 0, "id": "PALH", "name": "ANCHORAGE/LAKE HOOD, AK", "quality": 100, "contribution": 0.0}, "70272526491": {"distance": 5984.0, "latitude": 61.178, "longitude": -149.966, "useCount": 0, "id": "70272526491", "name": "ANCHORAGE LAKE HOOD SEA PLANE BASE, AK US", "quality": 100, "contribution": 0.0}}}