{"queryCost": 1, "latitude": 40.763, "longitude": -111.88, "resolvedAddress": "40.76300,-111.88000", "address": "40.76300,-111.88000", "timezone": "America/Denver", "tzoffset": -7.0, "days": [{"datetime": "2020-02-13", "datetimeEpoch": 1581577200, "tempmax": 46.7, "tempmin": 28.9, "temp": 36.7, "feelslikemax": 46.7, "feelslikemin": 21.1, "feelslike": 31.9, "dew": 21.8, "humidity": 56.7, "precip": 0.0, "precipprob": 0.0, "precipcover": 0.0, "preciptype": null, "snow": 0.8, "snowdepth": 2.3, "windgust": null, "windspeed": 8.9, "winddir": 172.3, "pressure": 1020.0, "cloudcover": 33.1, "visibility": 9.9, "solarradiation": 165.0, "solarenergy": 14.2, "uvindex": 6.0, "sunrise": "07:24:34", "sunriseEpoch": 1581603874, "sunset": "17:59:28", "sunsetEpoch": 1581641968, "moonphase": 0.62, "conditions": "Partially cloudy", "description": "Partly cloudy throughout the day.", "icon": "snow", "stations": ["72572024127", "WBB", "72575524101", "KHIF", "72057299999", "KSLC"], "source": "obs"}], "stations": {"72572024127": {"distance": 7689.0, "latitude": 40.778, "longitude": -111.969, "useCount": 0, "id": "72572024127", "name": "SALT LAKE CITY INTERNATIONAL AIRPORT, UT US", "quality": 100, "contribution": 0.0}, "WBB": {"distance": 2721.0, "latitude": 40.766, "longitude": -111.848, "useCount": 0, "id": "WBB", "name": "U of U William Browning Building UT US UUNET", "quality": 0, "contribution": 0.0}, "72575524101": {"distance": 40048.0, "latitude": 41.117, "longitude": -111.967, "useCount": 0, "id": "72575524101", "name": "OGDEN HILL AFB, UT US", "quality": 96, "contribution": 0.0}, "KHIF": {"distance": 40455.0, "latitude": 41.12, "longitude": -111.97, "useCount": 0, "id": "KHIF", "name": "KHIF", "quality": 100, "contribution": 0.0}, "72057299999": {"distance": 43152.0, "latitude": 40.612, "longitude": -112.351, "useCount": 0, "id": "72057299999", "name": "BOLINDER FIELD TOOELE VALLEY, UT US", "quality": 100, "contribution": 0.0}, "KSLC": {"distance": 7820.0, "latitude": 40.78, "longitude": -111.97, "useCount": 0, "id": "KSLC", "name": "KSLC", "quality": 100, "contribution": 0.0}}}