{"queryCost": 1, "latitude": 34.124, "longitude": -117.369, "resolvedAddress": "34.12400,-117.36900", "address": "34.12400,-117.36900", "timezone": "America/Los_Angeles", "tzoffset": -8.0, "days": [{"datetime": "2020-02-14", "datetimeEpoch": 1581667200, "tempmax": 69.3, "tempmin": 41.5, "temp": 54.2, "feelslikemax": 69.3, "feelslikemin": 41.5, "feelslike": 54.2, "dew": 35.1, "humidity": 52.2, "precip": 0.0, "precipprob": 0.0, "precipcover": 0.0, "preciptype": null, "snow": 0.0, "snowdepth": 0.0, "windgust": null, "windspeed": 10.0, "winddir": 147.8, "pressure": 1017.2, "cloudcover": 7.0, "visibility": 9.9, "solarradiation": 163.2, "solarenergy": 13.9, "uvindex": 6.0, "sunrise": "06:35:41", "sunriseEpoch": 1581690941, "sunset": "17:32:05", "sunsetEpoch": 1581730325, "moonphase": 0.67, "conditions": "Clear", "description": "Clear conditions throughout the day.", "icon": "clear-day", "stations": ["KRAL", "72286023119", "KRIV", "KONT", "74704003102", "72286903171", "AU239"], "source": "obs"}], "stations": {"KRAL": {"distance": 20761.0, "latitude": 33.95, "longitude": -117.45, "useCount": 0, "id": "KRAL", "name": "KRAL", "quality": 100, "contribution": 0.0}, "72286023119": {"distance": 27246.0, "latitude": 33.9, "longitude": -117.25, "useCount": 0, "id": "72286023119", "name": "MARCH AFB, CA US", "quality": 97, "contribution": 0.0}, "KRIV": {"distance": 28657.0, "latitude": 33.88, "longitude": -117.27, "useCount": 0, "id": "KRIV", "name": "KRIV", "quality": 100, "contribution": 0.0}, "KONT": {"distance": 23260.0, "latitude": 34.04, "longitude": -117.6, "useCount": 0, "id": "KONT", "name": "KONT", "quality": 100, "contribution": 0.0}, "74704003102": {"distance": 22598.0, "latitude": 34.056, "longitude": -117.6, "useCount": 0, "id": "74704003102", "name": "ONTARIO INTERNATIONAL AIRPORT, CA US", "quality": 100, "contribution": 0.0}, "72286903171": {"distance": 20217.0, "latitude": 33.952, "longitude": -117.439, "useCount": 0, "id": "72286903171", "name": "RIVERSIDE MUNICIPAL AIRPORT, CA US", "quality": 100, "contribution": 0.0}, "AU239": {"distance": 5002.0, "latitude": 34.08, "longitude": -117.38, "useCount": 0, "id": "AU239", "name": "KB6HGN Rialto CA US", "quality": 0, "contribution": 0.0}}}