{"queryCost": 1, "latitude": 43.016, "longitude": -87.938, "resolvedAddress": "43.01600,-87.93800", "address": "43.01600,-87.93800", "timezone": "America/Chicago", "tzoffset": -6.0, "days": [{"datetime": "2020-02-24", "datetimeEpoch": 1582524000, "tempmax": 39.0, "tempmin": 31.6, "temp": 36.3, "feelslikemax": 33.9, "feelslikemin": 24.9, "feelslike": 29.7, "dew": 27.6, "humidity": 70.7, "precip": 0.0, "precipprob": 0.0, "precipcover": 0.0, "preciptype": null, "snow": 1.6, "snowdepth": 3.7, "windgust": 25.1, "windspeed": 16.8, "winddir": 120.6, "pressure": 1013.4, "cloudcover": 72.1, "visibility": 9.9, "solarradiation": 73.8, "solarenergy": 6.3, "uvindex": 3.0, "sunrise": "06:36:26", "sunriseEpoch": 1582547786, "sunset": "17:34:13", "sunsetEpoch": 1582587253, "moonphase": 0.0, "conditions": "Partially cloudy", "description": "Partly cloudy throughout the day.", "icon": "snow", "stations": ["KENW", "AN659", "72640014839", "KRAC", "D0835", "KMWC", "KMKE", "72642494818"], "source": "obs"}], "stations": {"KENW": {"distance": 46314.0, "latitude": 42.6, "longitude": -87.93, "useCount": 0, "id": "KENW", "name": "KENW", "quality": 100, "contribution": 0.0}, "AN659": {"distance": 5432.0, "latitude": 43.061, "longitude": -87.912, "useCount": 0, "id": "AN659", "name": "MILWAUKEE SER DNR WI WIDNR", "quality": 0, "contribution": 0.0}, "72640014839": {"distance": 7321.0, "latitude": 42.955, "longitude": -87.904, "useCount": 0, "id": "72640014839", "name": "MILWAUKEE MITCHELL INTERNATIONAL AIRPORT, WI US", "quality": 100, "contribution": 0.0}, "KRAC": {"distance": 30350.0, "latitude": 42.76, "longitude": -87.81, "useCount": 0, "id": "KRAC", "name": "KRAC", "quality": 100, "contribution": 0.0}, "D0835": {"distance": 5878.0, "latitude": 42.986, "longitude": -87.878, "useCount": 0, "id": "D0835", "name": "DW0835 Milwaukee WI US", "quality": 0, "contribution": 0.0}, "KMWC": {"distance": 13784.0, "latitude": 43.12, "longitude": -88.03, "useCount": 0, "id": "KMWC", "name": "KMWC", "quality": 73, "contribution": 0.0}, "KMKE": {"distance": 7972.0, "latitude": 42.95, "longitude": -87.9, "useCount": 0, "id": "KMKE", "name": "KMKE", "quality": 100, "contribution": 0.0}, "72642494818": {"distance": 30135.0, "latitude": 42.761, "longitude": -87.814, "useCount": 0, "id": "72642494818", "name": "RACINE BATTEN AIRPORT, WI US", "quality": 100, "contribution": 0.0}}}