{"queryCost": 1, "latitude": 32.647, "longitude": -83.721, "resolvedAddress": "32.64700,-83.72100", "address": "32.64700,-83.72100", "timezone": "America/New_York", "tzoffset": -5.0, "days": [{"datetime": "2020-02-09", "datetimeEpoch": 1581224400, "tempmax": 61.0, "tempmin": 32.6, "temp": 45.0, "feelslikemax": 61.0, "feelslikemin": 32.2, "feelslike": 44.4, "dew": 36.1, "humidity": 74.9, "precip": 0.0, "precipprob": 0.0, "precipcover": 0.0, "preciptype": null, "snow": 0.0, "snowdepth": 0.0, "windgust": 20.8, "windspeed": 9.5, "winddir": 81.6, "pressure": 1030.6, "cloudcover": 15.5, "visibility": 7.1, "solarradiation": 164.0, "solarenergy": 14.1, "uvindex": 7.0, "sunrise": "07:23:47", "sunriseEpoch": 1581251027, "sunset": "18:14:48", "sunsetEpoch": 1581290088, "moonphase": 0.5, "conditions": "Clear", "description": "Clear conditions throughout the day.", "icon": "clear-day", "stations": ["F6157", "E3376", "KPXE", "72217003813", "72217513860", "99999900335", "KMCN", "KWRB"], "source": "obs"}], "stations": {"F6157": {"distance": 16145.0, "latitude": 32.581, "longitude": -83.874, "useCount": 0, "id": "F6157", "name": "FW6157 Fort Valley GA US", "quality": 0, "contribution": 0.0}, "E3376": {"distance": 21247.0, "latitude": 32.828, "longitude": -83.649, "useCount": 0, "id": "E3376", "name": "EW3376 Macon GA US", "quality": 0, "contribution": 0.0}, "KPXE": {"distance": 15683.0, "latitude": 32.51, "longitude": -83.76, "useCount": 0, "id": "KPXE", "name": "KPXE", "quality": 100, "contribution": 0.0}, "72217003813": {"distance": 7654.0, "latitude": 32.685, "longitude": -83.653, "useCount": 0, "id": "72217003813", "name": "MACON MIDDLE GA REGIONAL AIRPORT, GA US", "quality": 100, "contribution": 0.0}, "72217513860": {"distance": 11445.0, "latitude": 32.633, "longitude": -83.6, "useCount": 0, "id": "72217513860", "name": "WARNER ROBINS AFB, GA US", "quality": 99, "contribution": 0.0}, "99999900335": {"distance": 50492.0, "latitude": 32.567, "longitude": -84.251, "useCount": 0, "id": "99999900335", "name": null, "quality": 50, "contribution": 0.0}, "KMCN": {"distance": 8892.0, "latitude": 32.7, "longitude": -83.65, "useCount": 0, "id": "KMCN", "name": "KMCN", "quality": 100, "contribution": 0.0}, "KWRB": {"distance": 11499.0, "latitude": 32.63, "longitude": -83.6, "useCount": 0, "id": "KWRB", "name": "KWRB", "quality": 100, "contribution": 0.0}}}