{"queryCost": 1, "latitude": 26.615, "longitude": -81.862, "resolvedAddress": "26.61500,-81.86200", "address": "26.61500,-81.86200", "timezone": "America/New_York", "tzoffset": -5.0, "days": [{"datetime": "2020-02-01", "datetimeEpoch": 1580533200, "tempmax": 67.9, "tempmin": 60.1, "temp": 65.0, "feelslikemax": 67.9, "feelslikemin": 60.1, "feelslike": 65.0, "dew": 61.9, "humidity": 89.7, "precip": 0.31, "precipprob": 100.0, "precipcover": 29.17, "preciptype": ["rain"], "snow": 0.0, "snowdepth": 0.0, "windgust": 43.6, "windspeed": 14.7, "winddir": 255.2, "pressure": 1015.5, "cloudcover": 62.7, "visibility": 8.2, "solarradiation": 43.4, "solarenergy": 3.8, "uvindex": 2.0, "sunrise": "07:12:41", "sunriseEpoch": 1580559161, "sunset": "18:09:37", "sunsetEpoch": 1580598577, "moonphase": 0.22, "conditions": "Rain, Partially cloudy", "description": "Partly cloudy throughout the day with rain in the morning and afternoon.", "icon": "rain", "stations": ["KPGD", "KFMY", "72210612835", "72210812894", "KRSW", "72203412812", "E3705"], "source": "obs"}], "stations": {"KPGD": {"distance": 36618.0, "latitude": 26.92, "longitude": -82.0, "useCount": 0, "id": "KPGD", "name": "KPGD", "quality": 100, "contribution": 0.0}, "KFMY": {"distance": 3977.0, "latitude": 26.58, "longitude": -81.87, "useCount": 0, "id": "KFMY", "name": "KFMY", "quality": 100, "contribution": 0.0}, "72210612835": {"distance": 3340.0, "latitude": 26.585, "longitude": -81.861, "useCount": 0, "id": "72210612835", "name": "FORT MYERS PAGE FIELD AIRPORT, FL US", "quality": 100, "contribution": 0.0}, "72210812894": {"distance": 13807.0, "latitude": 26.536, "longitude": -81.755, "useCount": 0, "id": "72210812894", "name": "FORT MYERS SW FLORIDA REGIONAL AIRPORT, FL US", "quality": 100, "contribution": 0.0}, "KRSW": {"distance": 14624.0, "latitude": 26.53, "longitude": -81.75, "useCount": 0, "id": "KRSW", "name": "KRSW", "quality": 100, "contribution": 0.0}, "72203412812": {"distance": 36015.0, "latitude": 26.917, "longitude": -81.991, "useCount": 0, "id": "72203412812", "name": "PUNTA GORDA CHARLOTTE CO AIRPORT, FL US", "quality": 100, "contribution": 0.0}, "E3705": {"distance": 4601.0, "latitude": 26.642, "longitude": -81.827, "useCount": 0, "id": "E3705", "name": "EW3705 Fort Myers FL US", "quality": 0, "contribution": 0.0}}}