{"queryCost": 1, "latitude": 34.727, "longitude": -87.694, "resolvedAddress": "34.72700,-87.69400", "address": "34.72700,-87.69400", "timezone": "America/Chicago", "tzoffset": -6.0, "days": [{"datetime": "2020-02-25", "datetimeEpoch": 1582610400, "tempmax": 58.9, "tempmin": 43.3, "temp": 52.3, "feelslikemax": 58.9, "feelslikemin": 42.1, "feelslike": 51.8, "dew": 45.5, "humidity": 78.3, "precip": 0.05, "precipprob": 100.0, "precipcover": 4.17, "preciptype": ["rain"], "snow": 0.0, "snowdepth": 0.0, "windgust": null, "windspeed": 10.6, "winddir": 289.1, "pressure": 1010.1, "cloudcover": 26.1, "visibility": 9.9, "solarradiation": 100.2, "solarenergy": 8.7, "uvindex": 4.0, "sunrise": "06:25:28", "sunriseEpoch": 1582633528, "sunset": "17:42:47", "sunsetEpoch": 1582674167, "moonphase": 0.02, "conditions": "Rain, Partially cloudy", "description": "Partly cloudy throughout the day with early morning rain.", "icon": "rain", "stations": ["72323513896", "99999963894", "KMSL", "99999963895", "D9504"], "source": "obs"}], "stations": {"99999963894": {"distance": 7105.0, "latitude": 34.773, "longitude": -87.64, "useCount": 0, "id": "99999963894", "name": "MUSCLE SHOALS 2 N, AL US", "quality": 100, "contribution": 0.0}, "KMSL": {"distance": 7237.0, "latitude": 34.75, "longitude": -87.62, "useCount": 0, "id": "KMSL", "name": "KMSL", "quality": 99, "contribution": 0.0}, "99999963895": {"distance": 30483.0, "latitude": 34.454, "longitude": -87.71, "useCount": 0, "id": "99999963895", "name": "RUSSELLVILLE 4 SSE, AL US", "quality": 100, "contribution": 0.0}, "D9504": {"distance": 8805.0, "latitude": 34.648, "longitude": -87.686, "useCount": 0, "id": "D9504", "name": "DW9504 Florence AL US", "quality": 0, "contribution": 0.0}, "72323513896": {"distance": 8834.0, "latitude": 34.744, "longitude": -87.6, "useCount": 0, "id": "72323513896", "name": "MUSCLE SHOALS REGIONAL AIRPORT, AL US", "quality": 99, "contribution": 0.0}}}