{"queryCost": 1, "latitude": 38.22, "longitude": -86.144, "resolvedAddress": "38.22000,-86.14400", "address": "38.22000,-86.14400", "timezone": "America/Kentucky/Louisville", "tzoffset": -5.0, "days": [{"datetime": "2020-02-16", "datetimeEpoch": 1581829200, "tempmax": 54.4, "tempmin": 39.2, "temp": 45.9, "feelslikemax": 54.4, "feelslikemin": 35.6, "feelslike": 44.4, "dew": 28.0, "humidity": 50.2, "precip": 0.0, "precipprob": 0.0, "precipcover": 0.0, "preciptype": null, "snow": 0.0, "snowdepth": 0.0, "windgust": null, "windspeed": 6.6, "winddir": 171.4, "pressure": 1020.0, "cloudcover": 77.4, "visibility": 9.8, "solarradiation": 78.3, "solarenergy": 6.6, "uvindex": 3.0, "sunrise": "07:34:11", "sunriseEpoch": 1581856451, "sunset": "18:23:41", "sunsetEpoch": 1581895421, "moonphase": 0.78, "conditions": "Partially cloudy", "description": "Partly cloudy throughout the day.", "icon": "partly-cloudy-day", "stations": ["KFTK", "KLOU", "AU953", "KSDF", "72423093821", "72424013807", "72423513810"], "source": "obs"}], "stations": {"KFTK": {"distance": 38750.0, "latitude": 37.9, "longitude": -85.97, "useCount": 0, "id": "KFTK", "name": "KFTK", "quality": 100, "contribution": 0.0}, "KLOU": {"distance": 41455.0, "latitude": 38.22, "longitude": -85.67, "useCount": 0, "id": "KLOU", "name": "KLOU", "quality": 100, "contribution": 0.0}, "AU953": {"distance": 29221.0, "latitude": 38.311, "longitude": -85.83, "useCount": 0, "id": "AU953", "name": "N9OKI New Albany IN US", "quality": 0, "contribution": 0.0}, "KSDF": {"distance": 36490.0, "latitude": 38.18, "longitude": -85.73, "useCount": 0, "id": "KSDF", "name": "KSDF", "quality": 100, "contribution": 0.0}, "72423093821": {"distance": 35685.0, "latitude": 38.181, "longitude": -85.739, "useCount": 0, "id": "72423093821", "name": "LOUISVILLE INTERNATIONAL AIRPORT, KY US", "quality": 100, "contribution": 0.0}, "72424013807": {"distance": 38864.0, "latitude": 37.9, "longitude": -85.967, "useCount": 0, "id": "72424013807", "name": "FORT KNOX GODMAN ARMY AIR FIELD, KY US", "quality": 99, "contribution": 0.0}, "72423513810": {"distance": 42022.0, "latitude": 38.228, "longitude": -85.664, "useCount": 0, "id": "72423513810", "name": "LOUISVILLE BOWMAN FIELD, KY US", "quality": 100, "contribution": 0.0}}}