{"queryCost": 1, "latitude": 29.159, "longitude": -98.172, "resolvedAddress": "29.15900,-98.17200", "address": "29.15900,-98.17200", "timezone": "America/Chicago", "tzoffset": -6.0, "days": [{"datetime": "2020-02-24", "datetimeEpoch": 1582524000, "tempmax": 71.4, "tempmin": 51.6, "temp": 64.5, "feelslikemax": 71.4, "feelslikemin": 51.6, "feelslike": 64.5, "dew": 49.9, "humidity": 64.7, "precip": 0.0, "precipprob": 0.0, "precipcover": 0.0, "preciptype": null, "snow": 0.0, "snowdepth": 0.0, "windgust": 19.7, "windspeed": 11.0, "winddir": 229.3, "pressure": 1010.4, "cloudcover": 35.8, "visibility": 9.9, "solarradiation": 104.4, "solarenergy": 8.9, "uvindex": 4.0, "sunrise": "07:03:34", "sunriseEpoch": 1582549414, "sunset": "18:28:42", "sunsetEpoch": 1582590522, "moonphase": 0.0, "conditions": "Partially cloudy", "description": "Clearing in the afternoon.", "icon": "partly-cloudy-day", "stations": ["72253612911", "KSSF", "KPEZ", "TWB16", "72252312970", "72039500130", "KRND"], "source": "obs"}], "stations": {"72253612911": {"distance": 42491.0, "latitude": 29.533, "longitude": -98.262, "useCount": 0, "id": "72253612911", "name": "RANDOLPH AFB, TX US", "quality": 99, "contribution": 0.0}, "KSSF": {"distance": 34643.0, "latitude": 29.33, "longitude": -98.47, "useCount": 0, "id": "KSSF", "name": "KSSF", "quality": 100, "contribution": 0.0}, "KPEZ": {"distance": 41086.0, "latitude": 28.95, "longitude": -98.52, "useCount": 0, "id": "KPEZ", "name": "KPEZ", "quality": 100, "contribution": 0.0}, "TWB16": {"distance": 36090.0, "latitude": 29.475, "longitude": -98.089, "useCount": 0, "id": "TWB16", "name": "Strey Ranch TX US TWDB", "quality": 0, "contribution": 0.0}, "72252312970": {"distance": 35356.0, "latitude": 29.339, "longitude": -98.472, "useCount": 0, "id": "72252312970", "name": "SAN ANTONIO STINSON MUNICIPAL AIRPORT, TX US", "quality": 100, "contribution": 0.0}, "72039500130": {"distance": 40846.0, "latitude": 28.95, "longitude": -98.517, "useCount": 0, "id": "72039500130", "name": "PLEASANTON MUNICIPAL AIRPORT, TX US", "quality": 100, "contribution": 0.0}, "KRND": {"distance": 42608.0, "latitude": 29.53, "longitude": -98.28, "useCount": 0, "id": "KRND", "name": "KRND", "quality": 100, "contribution": 0.0}}}