{"queryCost": 1, "latitude": 47.144, "longitude": -119.317, "resolvedAddress": "47.14400,-119.31700", "address": "47.14400,-119.31700", "timezone": "America/Los_Angeles", "tzoffset": -8.0, "days": [{"datetime": "2020-02-28", "datetimeEpoch": 1582876800, "tempmax": 60.7, "tempmin": 29.1, "temp": 45.2, "feelslikemax": 60.7, "feelslikemin": 22.9, "feelslike": 42.4, "dew": 30.9, "humidity": 60.8, "precip": 0.0, "precipprob": 0.0, "precipcover": 0.0, "preciptype": null, "snow": 0.0, "snowdepth": 0.0, "windgust": 26.6, "windspeed": 18.6, "winddir": 233.4, "pressure": 1017.1, "cloudcover": 4.9, "visibility": 9.9, "solarradiation": 157.1, "solarenergy": 13.5, "uvindex": 6.0, "sunrise": "06:39:46", "sunriseEpoch": 1582900786, "sunset": "17:40:40", "sunsetEpoch": 1582940440, "moonphase": 0.1, "conditions": "Clear", "description": "Clear conditions throughout the day.", "icon": "clear-day", "stations": ["KMWH", "KEPH", "72790024141", "GERW", "OTOW1", "72782724110", "72782594239", "KEAT"], "source": "obs"}], "stations": {"KMWH": {"distance": 6238.0, "latitude": 47.2, "longitude": -119.32, "useCount": 0, "id": "KMWH", "name": "KMWH", "quality": 100, "contribution": 0.0}, "KEPH": {"distance": 23176.0, "latitude": 47.3, "longitude": -119.52, "useCount": 0, "id": "KEPH", "name": "KEPH", "quality": 100, "contribution": 0.0}, "72790024141": {"distance": 23591.0, "latitude": 47.308, "longitude": -119.515, "useCount": 0, "id": "72790024141", "name": "EPHRATA AIRPORT, WA US", "quality": 100, "contribution": 0.0}, "GERW": {"distance": 27034.0, "latitude": 47.044, "longitude": -119.642, "useCount": 0, "id": "GERW", "name": "GEORGE WA US AGRIMET", "quality": 0, "contribution": 0.0}, "OTOW1": {"distance": 29237.0, "latitude": 46.881, "longitude": -119.324, "useCount": 0, "id": "OTOW1", "name": "OTHELLO WA US", "quality": 0, "contribution": 0.0}, "72782724110": {"distance": 7104.0, "latitude": 47.208, "longitude": -119.319, "useCount": 0, "id": "72782724110", "name": "MOSES LAKE GRANT CO AIRPORT, WA US", "quality": 100, "contribution": 0.0}, "72782594239": {"distance": 72498.0, "latitude": 47.398, "longitude": -120.201, "useCount": 0, "id": "72782594239", "name": "WENATCHEE PANGBORN MEMORIAL AIRPORT, WA US", "quality": 100, "contribution": 0.0}, "KEAT": {"distance": 72528.0, "latitude": 47.4, "longitude": -120.2, "useCount": 0, "id": "KEAT", "name": "KEAT", "quality": 100, "contribution": 0.0}}}