{"queryCost": 1, "latitude": 39.057, "longitude": -94.587, "resolvedAddress": "39.05700,-94.58700", "address": "39.05700,-94.58700", "timezone": "America/Chicago", "tzoffset": -6.0, "days": [{"datetime": "2020-02-26", "datetimeEpoch": 1582696800, "tempmax": 39.6, "tempmin": 28.7, "temp": 33.5, "feelslikemax": 31.8, "feelslikemin": 18.9, "feelslike": 25.8, "dew": 17.6, "humidity": 53.77, "precip": 0.0, "precipprob": null, "precipcover": 0.0, "preciptype": null, "snow": 0.0, "snowdepth": 0.0, "windgust": 27.7, "windspeed": 17.3, "winddir": 327.0, "pressure": 1026.2, "cloudcover": 37.4, "visibility": 9.9, "solarradiation": 187.6, "solarenergy": 14.9, "uvindex": 6.0, "sunrise": "06:55:46", "sunriseEpoch": 1582721746, "sunset": "18:07:22", "sunsetEpoch": 1582762042, "moonphase": 0.04, "conditions": "Partially cloudy", "description": "Partly cloudy throughout the day.", "icon": "partly-cloudy-day", "stations": ["72446803967", "A1182", "72030653879", "KMKC", "KLXT", "KOJC", "72446313988"], "source": "obs"}], "stations": {"72446803967": {"distance": 26544.0, "latitude": 38.85, "longitude": -94.739, "useCount": 0, "id": "72446803967", "name": "OLATHE JOHNSON CO EXECUTIVE AIRPORT, KS US", "quality": 100, "contribution": 0.0}, "A1182": {"distance": 11843.0, "latitude": 39.048, "longitude": -94.45, "useCount": 0, "id": "A1182", "name": "Blue Ridge I-70 MO MODNR", "quality": 0, "contribution": 0.0}, "72030653879": {"distance": 21567.0, "latitude": 38.96, "longitude": -94.371, "useCount": 0, "id": "72030653879", "name": "LEES SUMMIT MUNICIPAL AIRPORT, MO US", "quality": 100, "contribution": 0.0}, "KMKC": {"distance": 6006.0, "latitude": 39.11, "longitude": -94.6, "useCount": 0, "id": "KMKC", "name": "KMKC", "quality": 100, "contribution": 0.0}, "KLXT": {"distance": 21655.0, "latitude": 38.96, "longitude": -94.37, "useCount": 0, "id": "KLXT", "name": "KLXT", "quality": 100, "contribution": 0.0}, "KOJC": {"distance": 26158.0, "latitude": 38.85, "longitude": -94.73, "useCount": 0, "id": "KOJC", "name": "KOJC", "quality": 100, "contribution": 0.0}, "72446313988": {"distance": 7154.0, "latitude": 39.121, "longitude": -94.597, "useCount": 0, "id": "72446313988", "name": "KANSAS CITY DOWNTOWN AIRPORT, MO US", "quality": 100, "contribution": 0.0}}}