{"queryCost": 1, "latitude": 30.663, "longitude": -97.68, "resolvedAddress": "30.66300,-97.68000", "address": "30.66300,-97.68000", "timezone": "America/Chicago", "tzoffset": -6.0, "days": [{"datetime": "2020-02-25", "datetimeEpoch": 1582610400, "tempmax": 64.1, "tempmin": 43.1, "temp": 52.8, "feelslikemax": 64.1, "feelslikemin": 38.8, "feelslike": 51.5, "dew": 38.2, "humidity": 60.2, "precip": 0.0, "precipprob": 0.0, "precipcover": 0.0, "preciptype": null, "snow": 0.0, "snowdepth": 0.0, "windgust": 28.8, "windspeed": 19.7, "winddir": 273.3, "pressure": 1015.7, "cloudcover": 16.9, "visibility": 9.9, "solarradiation": 209.6, "solarenergy": 18.0, "uvindex": 7.0, "sunrise": "07:01:50", "sunriseEpoch": 1582635710, "sunset": "18:26:13", "sunsetEpoch": 1582676773, "moonphase": 0.02, "conditions": "Clear", "description": "Clear conditions throughout the day.", "icon": "clear-day", "stations": ["72064800230", "C3077", "KEDC", "72054200166", "KGTU", "99999963904", "72254753942"], "source": "obs"}], "stations": {"72064800230": {"distance": 31740.0, "latitude": 30.395, "longitude": -97.567, "useCount": 0, "id": "72064800230", "name": "AUSTIN EXECUTIVE AIRPORT, TX US", "quality": 99, "contribution": 0.0}, "C3077": {"distance": 5978.0, "latitude": 30.615, "longitude": -97.707, "useCount": 0, "id": "C3077", "name": "CW3077 Georgetown TX US", "quality": 0, "contribution": 0.0}, "KEDC": {"distance": 31119.0, "latitude": 30.4, "longitude": -97.57, "useCount": 0, "id": "KEDC", "name": "KEDC", "quality": 98, "contribution": 0.0}, "72054200166": {"distance": 32951.0, "latitude": 30.5, "longitude": -97.967, "useCount": 0, "id": "72054200166", "name": "LAGO VISTA RUSTY ALLEN AIRPORT, TX US", "quality": 100, "contribution": 0.0}, "KGTU": {"distance": 1892.0, "latitude": 30.68, "longitude": -97.68, "useCount": 0, "id": "KGTU", "name": "GEORGETOWN, TX", "quality": 100, "contribution": 0.0}, "99999963904": {"distance": 24817.0, "latitude": 30.573, "longitude": -97.443, "useCount": 0, "id": "99999963904", "name": null, "quality": 97, "contribution": 0.0}, "72254753942": {"distance": 1804.0, "latitude": 30.679, "longitude": -97.679, "useCount": 0, "id": "72254753942", "name": "GEORGETOWN MUNICIPAL AIRPORT, TX US", "quality": 100, "contribution": 0.0}}}