{"queryCost": 1, "latitude": 34.0, "longitude": -80.421, "resolvedAddress": "34.00000,-80.42100", "address": "34.00000,-80.42100", "timezone": "America/New_York", "tzoffset": -5.0, "days": [{"datetime": "2020-02-25", "datetimeEpoch": 1582606800, "tempmax": 67.3, "tempmin": 49.1, "temp": 59.8, "feelslikemax": 67.3, "feelslikemin": 48.2, "feelslike": 59.7, "dew": 57.1, "humidity": 91.1, "precip": 0.23, "precipprob": 100.0, "precipcover": 29.17, "preciptype": ["rain"], "snow": 0.0, "snowdepth": 0.0, "windgust": 26.4, "windspeed": 14.1, "winddir": 159.4, "pressure": 1011.0, "cloudcover": 89.9, "visibility": 9.4, "solarradiation": 72.1, "solarenergy": 6.2, "uvindex": 4.0, "sunrise": "06:55:44", "sunriseEpoch": 1582631744, "sunset": "18:14:19", "sunsetEpoch": 1582672459, "moonphase": 0.02, "conditions": "Rain, Partially cloudy", "description": "Partly cloudy throughout the day with rain clearing later.", "icon": "rain", "stations": ["KCDN", "72310503858", "72060300195", "C7235", "TT241", "KMMT", "KSSC", "74790013849"], "source": "obs"}], "stations": {"KCDN": {"distance": 33698.0, "latitude": 34.28, "longitude": -80.56, "useCount": 0, "id": "KCDN", "name": "KCDN", "quality": 100, "contribution": 0.0}, "72310503858": {"distance": 35180.0, "latitude": 33.967, "longitude": -80.8, "useCount": 0, "id": "72310503858", "name": "EASTOVER MCENTIRE ANG, SC US", "quality": 99, "contribution": 0.0}, "72060300195": {"distance": 34255.0, "latitude": 34.283, "longitude": -80.567, "useCount": 0, "id": "72060300195", "name": "WOODWARD FIELD AIRPORT, SC US", "quality": 100, "contribution": 0.0}, "C7235": {"distance": 6673.0, "latitude": 33.945, "longitude": -80.394, "useCount": 0, "id": "C7235", "name": "CW7235 Sumter SC US", "quality": 0, "contribution": 0.0}, "TT241": {"distance": 29707.0, "latitude": 34.04, "longitude": -80.739, "useCount": 0, "id": "TT241", "name": "MCCRADY TRAINING CENTER SC US", "quality": 0, "contribution": 0.0}, "KMMT": {"distance": 36109.0, "latitude": 33.92, "longitude": -80.8, "useCount": 0, "id": "KMMT", "name": "KMMT", "quality": 99, "contribution": 0.0}, "KSSC": {"distance": 5622.0, "latitude": 33.97, "longitude": -80.47, "useCount": 0, "id": "KSSC", "name": "KSSC", "quality": 100, "contribution": 0.0}, "74790013849": {"distance": 5616.0, "latitude": 33.967, "longitude": -80.467, "useCount": 0, "id": "74790013849", "name": "SUMTER SHAW AFB, SC US", "quality": 99, "contribution": 0.0}}}