{"queryCost": 1, "latitude": 33.767, "longitude": -117.92, "resolvedAddress": "33.76700,-117.92000", "address": "33.76700,-117.92000", "timezone": "America/Los_Angeles", "tzoffset": -8.0, "days": [{"datetime": "2020-02-26", "datetimeEpoch": 1582704000, "tempmax": 81.8, "tempmin": 51.0, "temp": 66.8, "feelslikemax": 79.7, "feelslikemin": 51.0, "feelslike": 66.5, "dew": 27.9, "humidity": 25.3, "precip": 0.0, "precipprob": 0.0, "precipcover": 0.0, "preciptype": null, "snow": 0.0, "snowdepth": 0.0, "windgust": null, "windspeed": 8.1, "winddir": 210.7, "pressure": 1023.4, "cloudcover": 12.7, "visibility": 9.9, "solarradiation": 171.7, "solarenergy": 14.8, "uvindex": 6.0, "sunrise": "06:24:13", "sunriseEpoch": 1582727053, "sunset": "17:45:28", "sunsetEpoch": 1582767928, "moonphase": 0.04, "conditions": "Clear", "description": "Clear conditions throughout the day.", "icon": "clear-day", "stations": ["KFUL", "72297793184", "KSLI", "KSNA", "AU588", "72297603166", "72297023129"], "source": "obs"}], "stations": {"KFUL": {"distance": 11746.0, "latitude": 33.86, "longitude": -117.98, "useCount": 0, "id": "KFUL", "name": "KFUL", "quality": 100, "contribution": 0.0}, "72297793184": {"distance": 10899.0, "latitude": 33.68, "longitude": -117.866, "useCount": 0, "id": "72297793184", "name": "SANTA ANA JOHN WAYNE AIRPORT, CA US", "quality": 100, "contribution": 0.0}, "KSLI": {"distance": 12116.0, "latitude": 33.78, "longitude": -118.05, "useCount": 0, "id": "KSLI", "name": "KSLI", "quality": 93, "contribution": 0.0}, "KSNA": {"distance": 10734.0, "latitude": 33.68, "longitude": -117.87, "useCount": 0, "id": "KSNA", "name": "KSNA", "quality": 100, "contribution": 0.0}, "AU588": {"distance": 1895.0, "latitude": 33.783, "longitude": -117.913, "useCount": 0, "id": "AU588", "name": "N6NJ Garden Grove CA US", "quality": 0, "contribution": 0.0}, "72297603166": {"distance": 12889.0, "latitude": 33.872, "longitude": -117.979, "useCount": 0, "id": "72297603166", "name": "FULLERTON MUNICIPAL AIRPORT, CA US", "quality": 100, "contribution": 0.0}, "72297023129": {"distance": 21490.0, "latitude": 33.812, "longitude": -118.146, "useCount": 0, "id": "72297023129", "name": "LONG BEACH DAUGHERTY AIRPORT, CA US", "quality": 100, "contribution": 0.0}}}