{"queryCost": 1, "latitude": 30.009, "longitude": -95.27, "resolvedAddress": "30.00900,-95.27000", "address": "30.00900,-95.27000", "timezone": "America/Chicago", "tzoffset": -6.0, "days": [{"datetime": "2020-03-08", "datetimeEpoch": 1583647200, "tempmax": 72.8, "tempmin": 46.9, "temp": 60.0, "feelslikemax": 72.8, "feelslikemin": 44.4, "feelslike": 59.2, "dew": 50.5, "humidity": 72.92, "precip": 0.0, "precipprob": null, "precipcover": 0.0, "preciptype": null, "snow": 0.0, "snowdepth": 0.0, "windgust": 27.3, "windspeed": 20.5, "winddir": 119.3, "pressure": 1026.1, "cloudcover": 43.2, "visibility": 9.9, "solarradiation": 346.2, "solarenergy": 16.2, "uvindex": 8.0, "sunrise": "07:38:25", "sunriseEpoch": 1583671105, "sunset": "19:25:21", "sunsetEpoch": 1583713521, "moonphase": 0.49, "conditions": "Partially cloudy", "description": "Partly cloudy throughout the day.", "icon": "partly-cloudy-day", "stations": ["AN512", "72242953910", "E3763", "KIAH", "KDWH", "KCXO", "72243012960"], "source": "obs"}], "stations": {"AN512": {"distance": 13174.0, "latitude": 29.901, "longitude": -95.326, "useCount": 0, "id": "AN512", "name": "Houston Aldine C8 TX TCEQ", "quality": 0, "contribution": 0.0}, "72242953910": {"distance": 28330.0, "latitude": 30.068, "longitude": -95.556, "useCount": 0, "id": "72242953910", "name": "HOUSTON HOOKS MEMORIAL AIRPORT, TX US", "quality": 100, "contribution": 0.0}, "E3763": {"distance": 14880.0, "latitude": 30.072, "longitude": -95.406, "useCount": 0, "id": "E3763", "name": "EW3763 Spring TX US", "quality": 0, "contribution": 0.0}, "KIAH": {"distance": 8851.0, "latitude": 29.97, "longitude": -95.35, "useCount": 0, "id": "KIAH", "name": "KIAH", "quality": 100, "contribution": 0.0}, "KDWH": {"distance": 27824.0, "latitude": 30.07, "longitude": -95.55, "useCount": 0, "id": "KDWH", "name": "KDWH", "quality": 100, "contribution": 0.0}, "KCXO": {"distance": 40280.0, "latitude": 30.35, "longitude": -95.41, "useCount": 0, "id": "KCXO", "name": "KCXO", "quality": 100, "contribution": 0.0}, "72243012960": {"distance": 9258.0, "latitude": 29.98, "longitude": -95.36, "useCount": 0, "id": "72243012960", "name": "HOUSTON INTERCONTINENTAL AIRPORT, TX US", "quality": 100, "contribution": 0.0}}}