{"queryCost": 1, "latitude": 39.329, "longitude": -84.525, "resolvedAddress": "39.32900,-84.52500", "address": "39.32900,-84.52500", "timezone": "America/New_York", "tzoffset": -5.0, "days": [{"datetime": "2020-03-06", "datetimeEpoch": 1583470800, "tempmax": 47.0, "tempmin": 35.1, "temp": 38.4, "feelslikemax": 43.2, "feelslikemin": 27.4, "feelslike": 30.6, "dew": 29.2, "humidity": 70.1, "precip": 0.01, "precipprob": 100.0, "precipcover": 4.17, "preciptype": ["rain"], "snow": 0.0, "snowdepth": 0.0, "windgust": 32.4, "windspeed": 19.4, "winddir": 294.4, "pressure": 1022.1, "cloudcover": 81.3, "visibility": 9.8, "solarradiation": 38.9, "solarenergy": 3.2, "uvindex": 2.0, "sunrise": "07:02:32", "sunriseEpoch": 1583496152, "sunset": "18:36:27", "sunsetEpoch": 1583537787, "moonphase": 0.43, "conditions": "Rain, Partially cloudy", "description": "Partly cloudy throughout the day with morning rain.", "icon": "rain", "stations": ["72521753855", "KLUK", "72224963887", "E9434", "KHAO", "KI67", "72429793812"], "source": "obs"}], "stations": {"72521753855": {"distance": 3941.0, "latitude": 39.364, "longitude": -84.525, "useCount": 0, "id": "72521753855", "name": "HAMILTON BUTLER CO REGIONAL AIRPORT, OH US", "quality": 100, "contribution": 0.0}, "KLUK": {"distance": 27053.0, "latitude": 39.1, "longitude": -84.42, "useCount": 0, "id": "KLUK", "name": "KLUK", "quality": 100, "contribution": 0.0}, "72224963887": {"distance": 25110.0, "latitude": 39.531, "longitude": -84.395, "useCount": 0, "id": "72224963887", "name": "MIDDLETOWN HOOK FIELD MUNICIPAL AIRPORT, OH US", "quality": 100, "contribution": 0.0}, "E9434": {"distance": 9123.0, "latitude": 39.34, "longitude": -84.42, "useCount": 0, "id": "E9434", "name": "EW9434 West Chester OH US", "quality": 0, "contribution": 0.0}, "KHAO": {"distance": 3478.0, "latitude": 39.36, "longitude": -84.52, "useCount": 0, "id": "KHAO", "name": "KHAO", "quality": 100, "contribution": 0.0}, "KI67": {"distance": 23665.0, "latitude": 39.25, "longitude": -84.78, "useCount": 0, "id": "KI67", "name": "KI67", "quality": 99, "contribution": 0.0}, "72429793812": {"distance": 26739.0, "latitude": 39.103, "longitude": -84.419, "useCount": 0, "id": "72429793812", "name": "CINCINNATI MUNICIPAL AIRPORT LUNKEN FIELD, OH US", "quality": 100, "contribution": 0.0}}}