{"queryCost": 1, "latitude": 33.765, "longitude": -118.161, "resolvedAddress": "33.76500,-118.16100", "address": "33.76500,-118.16100", "timezone": "America/Los_Angeles", "tzoffset": -7.0, "days": [{"datetime": "2020-03-15", "datetimeEpoch": 1584255600, "tempmax": 64.4, "tempmin": 54.0, "temp": 58.6, "feelslikemax": 64.4, "feelslikemin": 54.0, "feelslike": 58.7, "dew": 46.7, "humidity": 66.81, "precip": 0.02, "precipprob": null, "precipcover": 16.67, "preciptype": null, "snow": 0.0, "snowdepth": 0.0, "windgust": 17.2, "windspeed": 11.2, "winddir": 179.5, "pressure": 1019.7, "cloudcover": 73.6, "visibility": 9.7, "solarradiation": 391.2, "solarenergy": 16.9, "uvindex": 7.0, "sunrise": "07:02:09", "sunriseEpoch": 1584280929, "sunset": "19:01:01", "sunsetEpoch": 1584324061, "moonphase": 0.71, "conditions": "Rain, Partially cloudy", "description": "Partly cloudy throughout the day with early morning rain.", "icon": "rain", "stations": ["KFUL", "72297553141", "KSLI", "CI174", "72297603166", "72297023129", "KLGB"], "source": "obs"}], "stations": {"KFUL": {"distance": 19801.0, "latitude": 33.86, "longitude": -117.98, "useCount": 0, "id": "KFUL", "name": "KFUL", "quality": 100, "contribution": 0.0}, "72297553141": {"distance": 10463.0, "latitude": 33.79, "longitude": -118.052, "useCount": 0, "id": "72297553141", "name": "LOS ALAMITOS ARMY AIR FIELD, CA US", "quality": 89, "contribution": 0.0}, "KSLI": {"distance": 10406.0, "latitude": 33.78, "longitude": -118.05, "useCount": 0, "id": "KSLI", "name": "KSLI", "quality": 93, "contribution": 0.0}, "CI174": {"distance": 7150.0, "latitude": 33.797, "longitude": -118.094, "useCount": 0, "id": "CI174", "name": "Long Beach CA US CIMIS", "quality": 0, "contribution": 0.0}, "72297603166": {"distance": 20614.0, "latitude": 33.872, "longitude": -117.979, "useCount": 0, "id": "72297603166", "name": "FULLERTON MUNICIPAL AIRPORT, CA US", "quality": 100, "contribution": 0.0}, "72297023129": {"distance": 5370.0, "latitude": 33.812, "longitude": -118.146, "useCount": 0, "id": "72297023129", "name": "LONG BEACH DAUGHERTY AIRPORT, CA US", "quality": 100, "contribution": 0.0}, "KLGB": {"distance": 6207.0, "latitude": 33.82, "longitude": -118.15, "useCount": 0, "id": "KLGB", "name": "KLGB", "quality": 100, "contribution": 0.0}}}