{"queryCost": 1, "latitude": 38.148, "longitude": -85.817, "resolvedAddress": "38.14800,-85.81700", "address": "38.14800,-85.81700", "timezone": "America/Kentucky/Louisville", "tzoffset": -4.0, "days": [{"datetime": "2020-03-13", "datetimeEpoch": 1584072000, "tempmax": 64.1, "tempmin": 46.9, "temp": 53.5, "feelslikemax": 64.1, "feelslikemin": 41.7, "feelslike": 52.1, "dew": 36.0, "humidity": 54.5, "precip": 0.13, "precipprob": 100.0, "precipcover": 8.33, "preciptype": ["rain"], "snow": 0.0, "snowdepth": 0.0, "windgust": 31.5, "windspeed": 16.4, "winddir": 303.2, "pressure": 1020.7, "cloudcover": 58.2, "visibility": 9.8, "solarradiation": 126.3, "solarenergy": 10.8, "uvindex": 5.0, "sunrise": "07:56:34", "sunriseEpoch": 1584100594, "sunset": "19:49:06", "sunsetEpoch": 1584143346, "moonphase": 0.6, "conditions": "Rain, Partially cloudy", "description": "Partly cloudy throughout the day with early morning rain.", "icon": "rain", "stations": ["KFTK", "KLOU", "E2323", "KSDF", "72423093821", "72424013807", "C0238", "72423513810"], "source": "obs"}], "stations": {"KFTK": {"distance": 30695.0, "latitude": 37.9, "longitude": -85.97, "useCount": 0, "id": "KFTK", "name": "KFTK", "quality": 100, "contribution": 0.0}, "KLOU": {"distance": 15155.0, "latitude": 38.22, "longitude": -85.67, "useCount": 0, "id": "KLOU", "name": "KLOU", "quality": 100, "contribution": 0.0}, "E2323": {"distance": 3764.0, "latitude": 38.16, "longitude": -85.777, "useCount": 0, "id": "E2323", "name": "EW2323 Louisville KY US", "quality": 0, "contribution": 0.0}, "KSDF": {"distance": 8407.0, "latitude": 38.18, "longitude": -85.73, "useCount": 0, "id": "KSDF", "name": "KSDF", "quality": 100, "contribution": 0.0}, "72423093821": {"distance": 7750.0, "latitude": 38.181, "longitude": -85.739, "useCount": 0, "id": "72423093821", "name": "LOUISVILLE INTERNATIONAL AIRPORT, KY US", "quality": 100, "contribution": 0.0}, "72424013807": {"distance": 30569.0, "latitude": 37.9, "longitude": -85.967, "useCount": 0, "id": "72424013807", "name": "FORT KNOX GODMAN ARMY AIR FIELD, KY US", "quality": 99, "contribution": 0.0}, "C0238": {"distance": 5561.0, "latitude": 38.117, "longitude": -85.767, "useCount": 0, "id": "C0238", "name": "CW0238 Fairdale KY US", "quality": 0, "contribution": 0.0}, "72423513810": {"distance": 16114.0, "latitude": 38.228, "longitude": -85.664, "useCount": 0, "id": "72423513810", "name": "LOUISVILLE BOWMAN FIELD, KY US", "quality": 100, "contribution": 0.0}}}