{"queryCost": 1, "latitude": 25.51, "longitude": -80.426, "resolvedAddress": "25.51000,-80.42600", "address": "25.51000,-80.42600", "timezone": "America/New_York", "tzoffset": -4.0, "days": [{"datetime": "2020-03-16", "datetimeEpoch": 1584331200, "tempmax": 81.0, "tempmin": 66.5, "temp": 75.0, "feelslikemax": 83.2, "feelslikemin": 66.5, "feelslike": 75.5, "dew": 65.3, "humidity": 72.7, "precip": 0.0, "precipprob": 0.0, "precipcover": 0.0, "preciptype": null, "snow": 0.0, "snowdepth": 0.0, "windgust": 36.7, "windspeed": 14.2, "winddir": 76.0, "pressure": 1021.9, "cloudcover": 37.4, "visibility": 9.9, "solarradiation": 268.5, "solarenergy": 23.3, "uvindex": 9.0, "sunrise": "07:29:12", "sunriseEpoch": 1584358152, "sunset": "19:31:25", "sunsetEpoch": 1584401485, "moonphase": 0.76, "conditions": "Partially cloudy", "description": "Partly cloudy throughout the day.", "icon": "partly-cloudy-day", "stations": ["72202912888", "72202612826", "KMIA", "72202012839", "KHST", "KTMB", "D0479"], "source": "obs"}], "stations": {"72202912888": {"distance": 15323.0, "latitude": 25.648, "longitude": -80.433, "useCount": 0, "id": "72202912888", "name": "MIAMI KENDALL TAMIAMI EXEC AIRPORT, FL US", "quality": 98, "contribution": 0.0}, "72202612826": {"distance": 5219.0, "latitude": 25.483, "longitude": -80.383, "useCount": 0, "id": "72202612826", "name": "HOMESTEAD AFB, FL US", "quality": 100, "contribution": 0.0}, "KMIA": {"distance": 34026.0, "latitude": 25.79, "longitude": -80.29, "useCount": 0, "id": "KMIA", "name": "KMIA", "quality": 100, "contribution": 0.0}, "72202012839": {"distance": 32837.0, "latitude": 25.788, "longitude": -80.317, "useCount": 0, "id": "72202012839", "name": "MIAMI INTERNATIONAL AIRPORT, FL US", "quality": 100, "contribution": 0.0}, "KHST": {"distance": 5702.0, "latitude": 25.48, "longitude": -80.38, "useCount": 0, "id": "KHST", "name": "KHST", "quality": 100, "contribution": 0.0}, "KTMB": {"distance": 15590.0, "latitude": 25.65, "longitude": -80.43, "useCount": 0, "id": "KTMB", "name": "KTMB", "quality": 99, "contribution": 0.0}, "D0479": {"distance": 10407.0, "latitude": 25.468, "longitude": -80.519, "useCount": 0, "id": "D0479", "name": "DW0479 Homestead FL US", "quality": 0, "contribution": 0.0}}}