{"queryCost": 1, "latitude": 40.576, "longitude": -73.968, "resolvedAddress": "40.57600,-73.96800", "address": "40.57600,-73.96800", "timezone": "America/New_York", "tzoffset": -4.0, "days": [{"datetime": "2015-06-18", "datetimeEpoch": 1434600000, "tempmax": 69.2, "tempmin": 65.0, "temp": 66.8, "feelslikemax": 69.2, "feelslikemin": 65.0, "feelslike": 66.8, "dew": 59.4, "humidity": 77.3, "precip": 0.0, "precipprob": 0.0, "precipcover": 0.0, "preciptype": null, "snow": 0.0, "snowdepth": 0.0, "windgust": null, "windspeed": 10.1, "winddir": 148.2, "pressure": 1017.8, "cloudcover": 96.1, "visibility": 9.7, "solarradiation": 178.3, "solarenergy": 15.3, "uvindex": 6.0, "sunrise": "05:24:50", "sunriseEpoch": 1434619490, "sunset": "20:29:13", "sunsetEpoch": 1434673753, "moonphase": 0.02, "conditions": "Overcast", "description": "Cloudy skies throughout the day.", "icon": "cloudy", "stations": ["KEWR", "KJFK", "74486094789", "72502014734", "KLGA", "KNYC"], "source": "obs"}], "stations": {"KEWR": {"distance": 21948.0, "latitude": 40.7, "longitude": -74.17, "useCount": 0, "id": "KEWR", "name": "KEWR", "quality": 100, "contribution": 0.0}, "KJFK": {"distance": 17896.0, "latitude": 40.65, "longitude": -73.78, "useCount": 0, "id": "KJFK", "name": "KJFK", "quality": 100, "contribution": 0.0}, "74486094789": {"distance": 18617.0, "latitude": 40.639, "longitude": -73.764, "useCount": 0, "id": "74486094789", "name": "JFK INTERNATIONAL AIRPORT, NY US", "quality": 100, "contribution": 0.0}, "72502014734": {"distance": 20738.0, "latitude": 40.683, "longitude": -74.169, "useCount": 0, "id": "72502014734", "name": "NEWARK LIBERTY INTERNATIONAL AIRPORT, NJ US", "quality": 100, "contribution": 0.0}, "KLGA": {"distance": 22346.0, "latitude": 40.77, "longitude": -73.9, "useCount": 0, "id": "KLGA", "name": "KLGA", "quality": 100, "contribution": 0.0}, "KNYC": {"distance": 21620.0, "latitude": 40.77, "longitude": -73.98, "useCount": 0, "id": "KNYC", "name": "KNYC", "quality": 100, "contribution": 0.0}}}