{"queryCost": 1, "latitude": 40.427, "longitude": -104.704, "resolvedAddress": "40.42700,-104.70400", "address": "40.42700,-104.70400", "timezone": "America/Denver", "tzoffset": -6.0, "days": [{"datetime": "2015-06-19", "datetimeEpoch": 1434693600, "tempmax": 98.4, "tempmin": 60.9, "temp": 76.1, "feelslikemax": 93.6, "feelslikemin": 60.9, "feelslike": 75.2, "dew": 55.8, "humidity": 60.6, "precip": 0.0, "precipprob": 0.0, "precipcover": 0.0, "preciptype": null, "snow": 0.0, "snowdepth": 0.0, "windgust": null, "windspeed": 14.1, "winddir": 156.9, "pressure": 1010.1, "cloudcover": 16.7, "visibility": 9.1, "solarradiation": 384.1, "solarenergy": 33.2, "uvindex": 10.0, "sunrise": "05:28:25", "sunriseEpoch": 1434713305, "sunset": "20:31:58", "sunsetEpoch": 1434767518, "moonphase": 0.05, "conditions": "Clear", "description": "Clear conditions throughout the day.", "icon": "clear-day", "stations": ["72476824051", "72476994035", "KFNL", "99999994074", "KGXY", "72053800164"], "source": "obs"}], "stations": {"72476824051": {"distance": 6176.0, "latitude": 40.436, "longitude": -104.632, "useCount": 0, "id": "72476824051", "name": "GREELEY WELD CO AIRPORT, CO US", "quality": 99, "contribution": 0.0}, "72476994035": {"distance": 26642.0, "latitude": 40.45, "longitude": -105.017, "useCount": 0, "id": "72476994035", "name": "FORT COLLINS LOVELAND AIRPORT, CO US", "quality": 100, "contribution": 0.0}, "KFNL": {"distance": 26895.0, "latitude": 40.45, "longitude": -105.02, "useCount": 0, "id": "KFNL", "name": "LOVELAND/FT CLNS, CO", "quality": 100, "contribution": 0.0}, "99999994074": {"distance": 42476.0, "latitude": 40.807, "longitude": -104.755, "useCount": 0, "id": "99999994074", "name": "NUNN 7 NNE, CO US", "quality": 100, "contribution": 0.0}, "KGXY": {"distance": 6280.0, "latitude": 40.43, "longitude": -104.63, "useCount": 0, "id": "KGXY", "name": "GREELEY, CO", "quality": 100, "contribution": 0.0}, "72053800164": {"distance": 48816.0, "latitude": 40.167, "longitude": -105.167, "useCount": 0, "id": "72053800164", "name": "VANCE BRAND AIRPORT, CO US", "quality": 96, "contribution": 0.0}}}