{"queryCost": 1, "latitude": 40.453, "longitude": -80.003, "resolvedAddress": "40.45300,-80.00300", "address": "40.45300,-80.00300", "timezone": "America/New_York", "tzoffset": -5.0, "days": [{"datetime": "2020-03-05", "datetimeEpoch": 1583384400, "tempmax": 51.2, "tempmin": 28.7, "temp": 39.5, "feelslikemax": 51.2, "feelslikemin": 26.1, "feelslike": 37.2, "dew": 25.3, "humidity": 60.3, "precip": 0.0, "precipprob": 0.0, "precipcover": 0.0, "preciptype": null, "snow": 0.0, "snowdepth": 0.0, "windgust": null, "windspeed": 8.3, "winddir": 153.8, "pressure": 1018.6, "cloudcover": 14.1, "visibility": 9.6, "solarradiation": 161.3, "solarenergy": 13.9, "uvindex": 7.0, "sunrise": "06:46:41", "sunriseEpoch": 1583408801, "sunset": "18:16:37", "sunsetEpoch": 1583450197, "moonphase": 0.38, "conditions": "Clear", "description": "Clear conditions throughout the day.", "icon": "clear-day", "stations": ["KBTP", "KAGC", "72512464705", "KPIT", "72520514762", "72520094823", "0561W", "0359W"], "source": "obs"}], "stations": {"KBTP": {"distance": 36676.0, "latitude": 40.78, "longitude": -79.95, "useCount": 0, "id": "KBTP", "name": "BUTLER CO., PA", "quality": 100, "contribution": 0.0}, "KAGC": {"distance": 13029.0, "latitude": 40.35, "longitude": -79.93, "useCount": 0, "id": "KAGC", "name": "KAGC", "quality": 100, "contribution": 0.0}, "72512464705": {"distance": 36337.0, "latitude": 40.777, "longitude": -79.95, "useCount": 0, "id": "72512464705", "name": "BUTLER CO AIRPORT, PA US", "quality": 99, "contribution": 0.0}, "KPIT": {"distance": 19105.0, "latitude": 40.5, "longitude": -80.22, "useCount": 0, "id": "KPIT", "name": "KPIT", "quality": 100, "contribution": 0.0}, "72520514762": {"distance": 12932.0, "latitude": 40.355, "longitude": -79.922, "useCount": 0, "id": "72520514762", "name": "PITTSBURGH ALLEGHENY CO AIRPORT, PA US", "quality": 100, "contribution": 0.0}, "72520094823": {"distance": 18245.0, "latitude": 40.485, "longitude": -80.214, "useCount": 0, "id": "72520094823", "name": "PITTSBURGH ASOS, PA US", "quality": 100, "contribution": 0.0}, "0561W": {"distance": 1290.0, "latitude": 40.447, "longitude": -80.016, "useCount": 0, "id": "0561W", "name": "Heinz Field PA US WEATHERSTEM", "quality": 0, "contribution": 0.0}, "0359W": {"distance": 3730.0, "latitude": 40.447, "longitude": -79.96, "useCount": 0, "id": "0359W", "name": "Falk School PA US WEATHERSTEM", "quality": 0, "contribution": 0.0}}}