{"queryCost": 1, "latitude": 59.791, "longitude": -151.743, "resolvedAddress": "59.79100,-151.74300", "address": "59.79100,-151.74300", "timezone": "America/Anchorage", "tzoffset": -8.0, "days": [{"datetime": "2020-03-11", "datetimeEpoch": 1583913600, "tempmax": 26.4, "tempmin": 10.0, "temp": 19.3, "feelslikemax": 19.1, "feelslikemin": 3.7, "feelslike": 11.9, "dew": 0.2, "humidity": 43.3, "precip": 0.0, "precipprob": 0.0, "precipcover": 0.0, "preciptype": null, "snow": 0.0, "snowdepth": 29.1, "windgust": 21.9, "windspeed": 10.6, "winddir": 60.1, "pressure": 1028.5, "cloudcover": 0.0, "visibility": 9.9, "solarradiation": 134.9, "solarenergy": 11.7, "uvindex": 5.0, "sunrise": "08:33:07", "sunriseEpoch": 1583944387, "sunset": "20:01:38", "sunsetEpoch": 1583985698, "moonphase": 0.53, "conditions": "Clear", "description": "Clear conditions throughout the day.", "icon": "clear-day", "stations": ["PASO", "SCHA2", "70341025507", "70362125516", "PAHO", "99717699999", "99816799999"], "source": "obs"}], "stations": {"PASO": {"distance": 38077.0, "latitude": 59.45, "longitude": -151.69, "useCount": 0, "id": "PASO", "name": "SELDOVIA, AK", "quality": 99, "contribution": 0.0}, "SCHA2": {"distance": 23821.0, "latitude": 59.68, "longitude": -151.38, "useCount": 0, "id": "SCHA2", "name": "SCHOR GARDEN AK US SCAN", "quality": 0, "contribution": 0.0}, "70341025507": {"distance": 21800.0, "latitude": 59.642, "longitude": -151.491, "useCount": 0, "id": "70341025507", "name": "HOMER AIRPORT, AK US", "quality": 100, "contribution": 0.0}, "70362125516": {"distance": 38775.0, "latitude": 59.443, "longitude": -151.702, "useCount": 0, "id": "70362125516", "name": "SELDOVIA AIRPORT, AK US", "quality": 99, "contribution": 0.0}, "PAHO": {"distance": 21547.0, "latitude": 59.65, "longitude": -151.48, "useCount": 0, "id": "PAHO", "name": "HOMER, AK", "quality": 95, "contribution": 0.0}, "99717699999": {"distance": 27892.0, "latitude": 59.602, "longitude": -151.417, "useCount": 0, "id": "99717699999", "name": "HOMER SPIT, AK US", "quality": 49, "contribution": 0.0}, "99816799999": {"distance": 28061.0, "latitude": 59.6, "longitude": -151.417, "useCount": 0, "id": "99816799999", "name": "KACHEMAK BAY RESERVE, AK US", "quality": 37, "contribution": 0.0}}}