{"queryCost": 1, "latitude": 39.411, "longitude": -76.806, "resolvedAddress": "39.41100,-76.80600", "address": "39.41100,-76.80600", "timezone": "America/New_York", "tzoffset": -4.0, "days": [{"datetime": "2015-06-25", "datetimeEpoch": 1435204800, "tempmax": 81.1, "tempmin": 62.0, "temp": 71.8, "feelslikemax": 81.5, "feelslikemin": 62.0, "feelslike": 71.9, "dew": 60.6, "humidity": 69.8, "precip": 0.2, "precipprob": 100.0, "precipcover": 12.5, "preciptype": ["rain"], "snow": 0.0, "snowdepth": 0.0, "windgust": null, "windspeed": 7.2, "winddir": 123.3, "pressure": 1016.9, "cloudcover": 62.8, "visibility": 9.7, "solarradiation": 294.3, "solarenergy": 25.3, "uvindex": 9.0, "sunrise": "05:41:33", "sunriseEpoch": 1435225293, "sunset": "20:38:06", "sunsetEpoch": 1435279086, "moonphase": 0.3, "conditions": "Rain, Partially cloudy", "description": "Partly cloudy throughout the day with late afternoon rain.", "icon": "rain", "stations": ["KDMW", "72406093721", "KGAI", "72069903724", "KBWI", "72033493764"], "source": "obs"}], "stations": {"KDMW": {"distance": 28244.0, "latitude": 39.61, "longitude": -77.01, "useCount": 0, "id": "KDMW", "name": "KDMW", "quality": 85, "contribution": 0.0}, "72406093721": {"distance": 28472.0, "latitude": 39.173, "longitude": -76.684, "useCount": 0, "id": "72406093721", "name": "BALTIMORE WASHINGTON INTERNATIONAL AIRPORT, MD US", "quality": 100, "contribution": 0.0}, "KGAI": {"distance": 41270.0, "latitude": 39.17, "longitude": -77.17, "useCount": 0, "id": "KGAI", "name": "GAITHERSBURG, MD", "quality": 100, "contribution": 0.0}, "72069903724": {"distance": 27945.0, "latitude": 39.608, "longitude": -77.007, "useCount": 0, "id": "72069903724", "name": "WESTMINSTER CARROLL CO REGIONAL JB POAGE AIRPORT, MD US", "quality": 100, "contribution": 0.0}, "KBWI": {"distance": 28258.0, "latitude": 39.18, "longitude": -76.67, "useCount": 0, "id": "KBWI", "name": "KBWI", "quality": 100, "contribution": 0.0}, "72033493764": {"distance": 41296.0, "latitude": 39.167, "longitude": -77.167, "useCount": 0, "id": "72033493764", "name": "GAITHERSBURG MONTGOMERY CO AIR PARK, MD US", "quality": 100, "contribution": 0.0}}}