{"queryCost": 1, "latitude": 43.011, "longitude": -88.243, "resolvedAddress": "43.01100,-88.24300", "address": "43.01100,-88.24300", "timezone": "America/Chicago", "tzoffset": -5.0, "days": [{"datetime": "2020-04-15", "datetimeEpoch": 1586926800, "tempmax": 36.2, "tempmin": 23.0, "temp": 30.0, "feelslikemax": 32.7, "feelslikemin": 18.8, "feelslike": 25.0, "dew": 14.8, "humidity": 55.1, "precip": 0.0, "precipprob": null, "precipcover": 0.0, "preciptype": null, "snow": 0.0, "snowdepth": 0.0, "windgust": 20.3, "windspeed": 13.1, "winddir": 283.8, "pressure": 1018.7, "cloudcover": 65.4, "visibility": 9.9, "solarradiation": 285.4, "solarenergy": 15.4, "uvindex": 5.0, "sunrise": "06:10:11", "sunriseEpoch": 1586949011, "sunset": "19:36:16", "sunsetEpoch": 1586997376, "moonphase": 0.78, "conditions": "Partially cloudy", "description": "Partly cloudy throughout the day.", "icon": "partly-cloudy-day", "stations": ["KBUU", "72646454834", "72640014839", "C1419", "KUES", "72205904866", "KMKE"], "source": "obs"}], "stations": {"KBUU": {"distance": 36035.0, "latitude": 42.69, "longitude": -88.3, "useCount": 0, "id": "KBUU", "name": "KBUU", "quality": 99, "contribution": 0.0}, "72646454834": {"distance": 42231.0, "latitude": 43.167, "longitude": -88.717, "useCount": 0, "id": "72646454834", "name": "WATERTOWN MUNICIPAL AIRPORT, WI US", "quality": 100, "contribution": 0.0}, "72640014839": {"distance": 28270.0, "latitude": 42.955, "longitude": -87.904, "useCount": 0, "id": "72640014839", "name": "MILWAUKEE MITCHELL INTERNATIONAL AIRPORT, WI US", "quality": 100, "contribution": 0.0}, "C1419": {"distance": 3402.0, "latitude": 43.037, "longitude": -88.222, "useCount": 0, "id": "C1419", "name": "CW1419 Pewaukee WI US", "quality": 0, "contribution": 0.0}, "KUES": {"distance": 3237.0, "latitude": 43.04, "longitude": -88.24, "useCount": 0, "id": "KUES", "name": "KUES", "quality": 67, "contribution": 0.0}, "72205904866": {"distance": 36074.0, "latitude": 42.69, "longitude": -88.304, "useCount": 0, "id": "72205904866", "name": "BURLINGTON MUNICIPAL AIRPORT, WI US", "quality": 100, "contribution": 0.0}, "KMKE": {"distance": 28747.0, "latitude": 42.95, "longitude": -87.9, "useCount": 0, "id": "KMKE", "name": "KMKE", "quality": 100, "contribution": 0.0}}}