{"queryCost": 1, "latitude": 35.05, "longitude": -118.186, "resolvedAddress": "35.05000,-118.18600", "address": "35.05000,-118.18600", "timezone": "America/Los_Angeles", "tzoffset": -7.0, "days": [{"datetime": "2020-03-23", "datetimeEpoch": 1584946800, "tempmax": 57.3, "tempmin": 44.3, "temp": 50.2, "feelslikemax": 57.3, "feelslikemin": 37.2, "feelslike": 47.7, "dew": 40.4, "humidity": 71.4, "precip": 0.02, "precipprob": 100.0, "precipcover": 8.33, "preciptype": ["rain"], "snow": 0.0, "snowdepth": 0.0, "windgust": 30.8, "windspeed": 23.9, "winddir": 226.9, "pressure": 1017.1, "cloudcover": 30.0, "visibility": 10.0, "solarradiation": 262.5, "solarenergy": 22.7, "uvindex": 9.0, "sunrise": "06:51:12", "sunriseEpoch": 1584971472, "sunset": "19:07:29", "sunsetEpoch": 1585015649, "moonphase": 1.0, "conditions": "Rain, Partially cloudy", "description": "Partly cloudy throughout the day with rain clearing later.", "icon": "rain", "stations": ["SE377", "KMHV", "KTSP", "74917100479", "K9L2", "72317153144", "KEDW"], "source": "obs"}], "stations": {"SE377": {"distance": 7691.0, "latitude": 35.118, "longitude": -118.204, "useCount": 0, "id": "SE377", "name": "SCE Tehachapi Pass CA US SC-EDISON", "quality": 0, "contribution": 0.0}, "KMHV": {"distance": 3965.0, "latitude": 35.07, "longitude": -118.15, "useCount": 0, "id": "KMHV", "name": "KMHV", "quality": 98, "contribution": 0.0}, "KTSP": {"distance": 24378.0, "latitude": 35.14, "longitude": -118.43, "useCount": 0, "id": "KTSP", "name": "KTSP", "quality": 97, "contribution": 0.0}, "74917100479": {"distance": 24907.0, "latitude": 35.135, "longitude": -118.439, "useCount": 0, "id": "74917100479", "name": "TEHACHAPI MUNICIPAL AIRPORT, CA US", "quality": 98, "contribution": 0.0}, "K9L2": {"distance": 30461.0, "latitude": 34.99, "longitude": -117.86, "useCount": 0, "id": "K9L2", "name": "K9L2", "quality": 97, "contribution": 0.0}, "72317153144": {"distance": 30060.0, "latitude": 34.988, "longitude": -117.865, "useCount": 0, "id": "72317153144", "name": "EDWARDS AFB NORTH AUXILIARY AIRFIELD, CA US", "quality": 97, "contribution": 0.0}, "KEDW": {"distance": 32525.0, "latitude": 34.9, "longitude": -117.88, "useCount": 0, "id": "KEDW", "name": "KEDW", "quality": 100, "contribution": 0.0}}}