{"queryCost": 1, "latitude": 42.807, "longitude": -73.937, "resolvedAddress": "42.80700,-73.93700", "address": "42.80700,-73.93700", "timezone": "America/New_York", "tzoffset": -4.0, "days": [{"datetime": "2020-03-24", "datetimeEpoch": 1585022400, "tempmax": 41.9, "tempmin": 32.9, "temp": 37.0, "feelslikemax": 41.8, "feelslikemin": 26.1, "feelslike": 33.0, "dew": 29.1, "humidity": 73.2, "precip": 0.0, "precipprob": 0.0, "precipcover": 0.0, "preciptype": null, "snow": 1.9, "snowdepth": 4.4, "windgust": 16.1, "windspeed": 7.8, "winddir": 243.4, "pressure": 1021.0, "cloudcover": 79.1, "visibility": 9.5, "solarradiation": 91.4, "solarenergy": 7.7, "uvindex": 4.0, "sunrise": "06:50:59", "sunriseEpoch": 1585047059, "sunset": "19:13:22", "sunsetEpoch": 1585091602, "moonphase": 0.0, "conditions": "Partially cloudy", "description": "Partly cloudy throughout the day.", "icon": "snow", "stations": ["KGFL", "72616654781", "72518014735", "KDDH", "KALB", "KAQW", "D3701"], "source": "obs"}], "stations": {"KGFL": {"distance": 63672.0, "latitude": 43.33, "longitude": -73.62, "useCount": 0, "id": "KGFL", "name": "KGFL", "quality": 100, "contribution": 0.0}, "72616654781": {"distance": 56985.0, "latitude": 42.894, "longitude": -73.249, "useCount": 0, "id": "72616654781", "name": "BENNINGTON MORSE STATE AIRPORT, VT US", "quality": 100, "contribution": 0.0}, "72518014735": {"distance": 13087.0, "latitude": 42.747, "longitude": -73.799, "useCount": 0, "id": "72518014735", "name": "ALBANY INTERNATIONAL AIRPORT, NY US", "quality": 100, "contribution": 0.0}, "KDDH": {"distance": 56825.0, "latitude": 42.89, "longitude": -73.25, "useCount": 0, "id": "KDDH", "name": "KDDH", "quality": 100, "contribution": 0.0}, "KALB": {"distance": 12867.0, "latitude": 42.75, "longitude": -73.8, "useCount": 0, "id": "KALB", "name": "KALB", "quality": 100, "contribution": 0.0}, "KAQW": {"distance": 63816.0, "latitude": 42.7, "longitude": -73.17, "useCount": 0, "id": "KAQW", "name": "KAQW", "quality": 100, "contribution": 0.0}, "D3701": {"distance": 1400.0, "latitude": 42.818, "longitude": -73.928, "useCount": 0, "id": "D3701", "name": "DW3701 Schenectady NY US", "quality": 0, "contribution": 0.0}}}