{"queryCost": 1, "latitude": 36.03, "longitude": -80.383, "resolvedAddress": "36.03000,-80.38300", "address": "36.03000,-80.38300", "timezone": "America/New_York", "tzoffset": -4.0, "days": [{"datetime": "2020-03-24", "datetimeEpoch": 1585022400, "tempmax": 58.2, "tempmin": 48.8, "temp": 52.3, "feelslikemax": 58.2, "feelslikemin": 46.3, "feelslike": 52.2, "dew": 50.2, "humidity": 93.2, "precip": 0.6, "precipprob": 100.0, "precipcover": 33.33, "preciptype": ["rain"], "snow": 0.0, "snowdepth": 0.0, "windgust": null, "windspeed": 9.6, "winddir": 136.3, "pressure": 1018.4, "cloudcover": 79.3, "visibility": 5.7, "solarradiation": 68.5, "solarenergy": 6.0, "uvindex": 3.0, "sunrise": "07:18:30", "sunriseEpoch": 1585048710, "sunset": "19:37:14", "sunsetEpoch": 1585093034, "moonphase": 0.0, "conditions": "Rain, Partially cloudy", "description": "Partly cloudy throughout the day with rain.", "icon": "rain", "stations": ["72207953888", "72317013723", "KINT", "E7058", "72319393807", "KEXX", "KGSO"], "source": "obs"}], "stations": {"72207953888": {"distance": 28617.0, "latitude": 35.781, "longitude": -80.304, "useCount": 0, "id": "72207953888", "name": "LEXINGTON DAVIDSON CO AIRPORT, NC US", "quality": 100, "contribution": 0.0}, "72317013723": {"distance": 40271.0, "latitude": 36.097, "longitude": -79.943, "useCount": 0, "id": "72317013723", "name": "GREENSBORO AIRPORT, NC US", "quality": 100, "contribution": 0.0}, "KINT": {"distance": 18411.0, "latitude": 36.13, "longitude": -80.22, "useCount": 0, "id": "KINT", "name": "KINT", "quality": 100, "contribution": 0.0}, "E7058": {"distance": 6604.0, "latitude": 35.989, "longitude": -80.436, "useCount": 0, "id": "E7058", "name": "EW7058 Advance NC US", "quality": 0, "contribution": 0.0}, "72319393807": {"distance": 18501.0, "latitude": 36.134, "longitude": -80.222, "useCount": 0, "id": "72319393807", "name": "WINSTON SALEM REYNOLDS AIRPORT, NC US", "quality": 100, "contribution": 0.0}, "KEXX": {"distance": 28819.0, "latitude": 35.78, "longitude": -80.3, "useCount": 0, "id": "KEXX", "name": "KEXX", "quality": 97, "contribution": 0.0}, "KGSO": {"distance": 39364.0, "latitude": 36.08, "longitude": -79.95, "useCount": 0, "id": "KGSO", "name": "KGSO", "quality": 100, "contribution": 0.0}}}