{"queryCost": 1, "latitude": 31.794, "longitude": -106.363, "resolvedAddress": "31.79400,-106.36300", "address": "31.79400,-106.36300", "timezone": "America/Denver", "tzoffset": -6.0, "days": [{"datetime": "2020-03-24", "datetimeEpoch": 1585029600, "tempmax": 75.6, "tempmin": 55.9, "temp": 65.5, "feelslikemax": 75.6, "feelslikemin": 55.9, "feelslike": 65.5, "dew": 23.7, "humidity": 21.3, "precip": 0.0, "precipprob": 0.0, "precipcover": 0.0, "preciptype": null, "snow": 0.0, "snowdepth": 0.0, "windgust": 25.3, "windspeed": 16.4, "winddir": 266.7, "pressure": 1013.1, "cloudcover": 40.4, "visibility": 9.9, "solarradiation": 289.7, "solarenergy": 25.0, "uvindex": 10.0, "sunrise": "07:03:16", "sunriseEpoch": 1585054996, "sunset": "19:20:11", "sunsetEpoch": 1585099211, "moonphase": 0.0, "conditions": "Partially cloudy", "description": "Partly cloudy throughout the day.", "icon": "partly-cloudy-day", "stations": ["AN502", "KBIF", "KLRU", "72270499999", "72364099999", "72270023044", "E0322", "KELP"], "source": "obs"}], "stations": {"AN502": {"distance": 6485.0, "latitude": 31.747, "longitude": -106.403, "useCount": 0, "id": "AN502", "name": "Ascarate Park Southeast C37 TX TCEQ", "quality": 0, "contribution": 0.0}, "KBIF": {"distance": 6438.0, "latitude": 31.85, "longitude": -106.38, "useCount": 0, "id": "KBIF", "name": "KBIF", "quality": 98, "contribution": 0.0}, "KLRU": {"distance": 75430.0, "latitude": 32.28, "longitude": -106.92, "useCount": 0, "id": "KLRU", "name": "KLRU", "quality": 100, "contribution": 0.0}, "72270499999": {"distance": 6384.0, "latitude": 31.85, "longitude": -106.38, "useCount": 0, "id": "72270499999", "name": "BIGGS ARMY AIR FIELD FORT BLISS TEXAS USA, TX US", "quality": 98, "contribution": 0.0}, "72364099999": {"distance": 33562.0, "latitude": 31.88, "longitude": -106.703, "useCount": 0, "id": "72364099999", "name": "DONA ANA CO INTERNATIONAL JETPORT ARPT SANTA TERESA, NM US", "quality": 100, "contribution": 0.0}, "72270023044": {"distance": 2266.0, "latitude": 31.811, "longitude": -106.376, "useCount": 0, "id": "72270023044", "name": "EL PASO INTERNATIONAL AIRPORT, TX US", "quality": 100, "contribution": 0.0}, "E0322": {"distance": 8141.0, "latitude": 31.752, "longitude": -106.293, "useCount": 0, "id": "E0322", "name": "EW0322 El Paso TX US", "quality": 0, "contribution": 0.0}, "KELP": {"distance": 3564.0, "latitude": 31.8, "longitude": -106.4, "useCount": 0, "id": "KELP", "name": "KELP", "quality": 100, "contribution": 0.0}}}