{"queryCost": 1, "latitude": 35.596, "longitude": -82.549, "resolvedAddress": "35.59600,-82.54900", "address": "35.59600,-82.54900", "timezone": "America/New_York", "tzoffset": -4.0, "days": [{"datetime": "2020-03-31", "datetimeEpoch": 1585627200, "tempmax": 56.9, "tempmin": 43.4, "temp": 49.8, "feelslikemax": 56.9, "feelslikemin": 38.9, "feelslike": 49.4, "dew": 35.1, "humidity": 59.0, "precip": 0.12, "precipprob": 100.0, "precipcover": 20.83, "preciptype": ["rain"], "snow": 0.0, "snowdepth": 0.0, "windgust": 24.2, "windspeed": 7.7, "winddir": 195.4, "pressure": 1008.9, "cloudcover": 29.1, "visibility": 9.7, "solarradiation": 53.3, "solarenergy": 4.5, "uvindex": 3.0, "sunrise": "07:17:18", "sunriseEpoch": 1585653438, "sunset": "19:51:34", "sunsetEpoch": 1585698694, "moonphase": 0.2, "conditions": "Rain, Partially cloudy", "description": "Partly cloudy throughout the day with rain.", "icon": "rain", "stations": ["72315003812", "F2588", "99999953877", "99999953878", "KAVL"], "source": "obs"}], "stations": {"F2588": {"distance": 15035.0, "latitude": 35.553, "longitude": -82.706, "useCount": 0, "id": "F2588", "name": "FW2588 Candler NC US", "quality": 0, "contribution": 0.0}, "99999953877": {"distance": 12749.0, "latitude": 35.495, "longitude": -82.614, "useCount": 0, "id": "99999953877", "name": "ASHEVILLE 8 SSW, NC US", "quality": 100, "contribution": 0.0}, "99999953878": {"distance": 19772.0, "latitude": 35.419, "longitude": -82.557, "useCount": 0, "id": "99999953878", "name": "ASHEVILLE 13 S, NC US", "quality": 100, "contribution": 0.0}, "72315003812": {"distance": 18297.0, "latitude": 35.432, "longitude": -82.537, "useCount": 0, "id": "72315003812", "name": "ASHEVILLE AIRPORT, NC US", "quality": 100, "contribution": 0.0}, "KAVL": {"distance": 18479.0, "latitude": 35.43, "longitude": -82.55, "useCount": 0, "id": "KAVL", "name": "KAVL", "quality": 100, "contribution": 0.0}}}