{"queryCost": 1, "latitude": 25.888, "longitude": -80.332, "resolvedAddress": "25.88800,-80.33200", "address": "25.88800,-80.33200", "timezone": "America/New_York", "tzoffset": -4.0, "days": [{"datetime": "2020-04-05", "datetimeEpoch": 1586059200, "tempmax": 83.6, "tempmin": 71.4, "temp": 77.5, "feelslikemax": 85.7, "feelslikemin": 71.4, "feelslike": 78.2, "dew": 65.1, "humidity": 66.2, "precip": 0.01, "precipprob": 100.0, "precipcover": 4.17, "preciptype": ["rain"], "snow": 0.0, "snowdepth": 0.0, "windgust": 19.7, "windspeed": 13.1, "winddir": 134.3, "pressure": 1014.7, "cloudcover": 61.7, "visibility": 9.9, "solarradiation": 158.6, "solarenergy": 13.6, "uvindex": 8.0, "sunrise": "07:07:43", "sunriseEpoch": 1586084863, "sunset": "19:40:19", "sunsetEpoch": 1586130019, "moonphase": 0.45, "conditions": "Rain, Partially cloudy", "description": "Partly cloudy throughout the day with late afternoon rain.", "icon": "rain", "stations": ["KHWO", "72202412882", "72203792809", "0235W", "KOPF", "KMIA", "72202012839"], "source": "obs"}], "stations": {"KHWO": {"distance": 16115.0, "latitude": 26.0, "longitude": -80.23, "useCount": 0, "id": "KHWO", "name": "KHWO", "quality": 94, "contribution": 0.0}, "72202412882": {"distance": 5588.0, "latitude": 25.907, "longitude": -80.28, "useCount": 0, "id": "72202412882", "name": "MIAMI OPA LOCKA AIRPORT, FL US", "quality": 100, "contribution": 0.0}, "72203792809": {"distance": 15336.0, "latitude": 25.999, "longitude": -80.241, "useCount": 0, "id": "72203792809", "name": "HOLLYWOOD NORTH PERRY AIRPORT, FL US", "quality": 93, "contribution": 0.0}, "0235W": {"distance": 16109.0, "latitude": 25.788, "longitude": -80.216, "useCount": 0, "id": "0235W", "name": "U of Miami Health System FL US WEATHERSTEM", "quality": 0, "contribution": 0.0}, "KOPF": {"distance": 5376.0, "latitude": 25.9, "longitude": -80.28, "useCount": 0, "id": "KOPF", "name": "KOPF", "quality": 100, "contribution": 0.0}, "KMIA": {"distance": 11693.0, "latitude": 25.79, "longitude": -80.29, "useCount": 0, "id": "KMIA", "name": "KMIA", "quality": 100, "contribution": 0.0}, "72202012839": {"distance": 11223.0, "latitude": 25.788, "longitude": -80.317, "useCount": 0, "id": "72202012839", "name": "MIAMI INTERNATIONAL AIRPORT, FL US", "quality": 100, "contribution": 0.0}}}