{"queryCost": 1, "latitude": 33.415, "longitude": -82.02, "resolvedAddress": "33.41500,-82.02000", "address": "33.41500,-82.02000", "timezone": "America/New_York", "tzoffset": -4.0, "days": [{"datetime": "2015-06-22", "datetimeEpoch": 1434945600, "tempmax": 99.4, "tempmin": 76.7, "temp": 85.8, "feelslikemax": 105.4, "feelslikemin": 76.7, "feelslike": 89.8, "dew": 70.9, "humidity": 63.9, "precip": 0.01, "precipprob": 100.0, "precipcover": 4.17, "preciptype": ["rain"], "snow": 0.0, "snowdepth": 0.0, "windgust": 34.9, "windspeed": 14.7, "winddir": 202.3, "pressure": 1017.0, "cloudcover": 6.5, "visibility": 9.9, "solarradiation": 249.1, "solarenergy": 21.5, "uvindex": 7.0, "sunrise": "06:19:03", "sunriseEpoch": 1434968343, "sunset": "20:41:05", "sunsetEpoch": 1435020065, "moonphase": 0.16, "conditions": "Rain", "description": "Clear conditions throughout the day with late afternoon rain.", "icon": "rain", "stations": ["72218113837", "KAGS", "72218003820", "KDNL", "99820599999", "KAIK"], "source": "obs"}], "stations": {"72218113837": {"distance": 6030.0, "latitude": 33.467, "longitude": -82.039, "useCount": 0, "id": "72218113837", "name": "AUGUSTA DANIEL FIELD AIRPORT, GA US", "quality": 100, "contribution": 0.0}, "KAGS": {"distance": 7687.0, "latitude": 33.36, "longitude": -81.97, "useCount": 0, "id": "KAGS", "name": "KAGS", "quality": 100, "contribution": 0.0}, "72218003820": {"distance": 7714.0, "latitude": 33.364, "longitude": -81.963, "useCount": 0, "id": "72218003820", "name": "AUGUSTA BUSH FIELD AIRPORT, GA US", "quality": 100, "contribution": 0.0}, "KDNL": {"distance": 6398.0, "latitude": 33.47, "longitude": -82.04, "useCount": 0, "id": "KDNL", "name": "KDNL", "quality": 100, "contribution": 0.0}, "99820599999": {"distance": 32619.0, "latitude": 33.667, "longitude": -82.2, "useCount": 0, "id": "99820599999", "name": "STROM THURMOND DAM, US", "quality": 95, "contribution": 0.0}, "KAIK": {"distance": 40274.0, "latitude": 33.65, "longitude": -81.69, "useCount": 0, "id": "KAIK", "name": "KAIK", "quality": 98, "contribution": 0.0}}}