{"queryCost": 1, "latitude": 32.509, "longitude": -93.971, "resolvedAddress": "32.50900,-93.97100", "address": "32.50900,-93.97100", "timezone": "America/Chicago", "tzoffset": -5.0, "days": [{"datetime": "2020-04-07", "datetimeEpoch": 1586235600, "tempmax": 83.7, "tempmin": 69.8, "temp": 75.3, "feelslikemax": 88.1, "feelslikemin": 69.8, "feelslike": 76.3, "dew": 69.9, "humidity": 84.28, "precip": 0.0, "precipprob": null, "precipcover": 0.0, "preciptype": null, "snow": 0.0, "snowdepth": 0.0, "windgust": 19.7, "windspeed": 12.1, "winddir": 190.7, "pressure": 1013.3, "cloudcover": 72.5, "visibility": 8.8, "solarradiation": 234.4, "solarenergy": 11.8, "uvindex": 8.0, "sunrise": "06:55:34", "sunriseEpoch": 1586260534, "sunset": "19:40:33", "sunsetEpoch": 1586306433, "moonphase": 0.5, "conditions": "Partially cloudy", "description": "Partly cloudy throughout the day.", "icon": "partly-cloudy-day", "stations": ["KDTN", "72248513944", "72248013957", "E7656", "KSHV", "72248453905", "KBAD", "CADT2"], "source": "obs"}], "stations": {"KDTN": {"distance": 20876.0, "latitude": 32.53, "longitude": -93.75, "useCount": 0, "id": "KDTN", "name": "KDTN", "quality": 100, "contribution": 0.0}, "72248513944": {"distance": 28586.0, "latitude": 32.5, "longitude": -93.667, "useCount": 0, "id": "72248513944", "name": "SHREVEPORT BARKSDALE AFB, LA US", "quality": 98, "contribution": 0.0}, "72248013957": {"distance": 15390.0, "latitude": 32.447, "longitude": -93.824, "useCount": 0, "id": "72248013957", "name": "SHREVEPORT REGIONAL AIRPORT, LA US", "quality": 100, "contribution": 0.0}, "E7656": {"distance": 18380.0, "latitude": 32.567, "longitude": -93.787, "useCount": 0, "id": "E7656", "name": "EW7656 Shreveport LA US", "quality": 0, "contribution": 0.0}, "KSHV": {"distance": 14828.0, "latitude": 32.47, "longitude": -93.82, "useCount": 0, "id": "KSHV", "name": "KSHV", "quality": 100, "contribution": 0.0}, "72248453905": {"distance": 21543.0, "latitude": 32.543, "longitude": -93.745, "useCount": 0, "id": "72248453905", "name": "SHREVEPORT DOWNTOWN AIRPORT, LA US", "quality": 100, "contribution": 0.0}, "KBAD": {"distance": 28276.0, "latitude": 32.5, "longitude": -93.67, "useCount": 0, "id": "KBAD", "name": "KBAD", "quality": 100, "contribution": 0.0}, "CADT2": {"distance": 21499.0, "latitude": 32.658, "longitude": -94.116, "useCount": 0, "id": "CADT2", "name": "CADDO LAKE TX US", "quality": 0, "contribution": 0.0}}}