{"queryCost": 1, "latitude": 35.18, "longitude": -86.101, "resolvedAddress": "35.18000,-86.10100", "address": "35.18000,-86.10100", "timezone": "America/Chicago", "tzoffset": -5.0, "days": [{"datetime": "2020-04-09", "datetimeEpoch": 1586408400, "tempmax": 69.5, "tempmin": 58.7, "temp": 62.3, "feelslikemax": 69.5, "feelslikemin": 58.7, "feelslike": 62.3, "dew": 43.3, "humidity": 56.0, "precip": 0.13, "precipprob": 100.0, "precipcover": 16.67, "preciptype": ["rain"], "snow": 0.0, "snowdepth": 0.0, "windgust": 28.8, "windspeed": 18.3, "winddir": 273.6, "pressure": null, "cloudcover": 28.5, "visibility": 9.9, "solarradiation": 273.6, "solarenergy": 23.4, "uvindex": 9.0, "sunrise": "06:19:21", "sunriseEpoch": 1586431161, "sunset": "19:12:47", "sunsetEpoch": 1586477567, "moonphase": 0.52, "conditions": "Rain, Partially cloudy", "description": "Clearing in the afternoon with early morning rain.", "icon": "rain", "stations": ["KTHA", "TT543", "KBGF", "99999963896", "KSYI", "KFYM", "EAST1"], "source": "obs"}], "stations": {"KTHA": {"distance": 26058.0, "latitude": 35.38, "longitude": -86.25, "useCount": 0, "id": "KTHA", "name": "KTHA", "quality": 100, "contribution": 0.0}, "TT543": {"distance": 16874.0, "latitude": 35.321, "longitude": -86.034, "useCount": 0, "id": "TT543", "name": "ARNOLD AIR FORCE BASE TN US", "quality": 0, "contribution": 0.0}, "KBGF": {"distance": 3730.0, "latitude": 35.18, "longitude": -86.06, "useCount": 0, "id": "KBGF", "name": "KBGF", "quality": 99, "contribution": 0.0}, "99999963896": {"distance": 54873.0, "latitude": 34.694, "longitude": -86.0, "useCount": 0, "id": "99999963896", "name": "SCOTTSBORO 2 NE, AL US", "quality": 100, "contribution": 0.0}, "KSYI": {"distance": 52310.0, "latitude": 35.56, "longitude": -86.44, "useCount": 0, "id": "KSYI", "name": "KSYI", "quality": 99, "contribution": 0.0}, "KFYM": {"distance": 44423.0, "latitude": 35.07, "longitude": -86.57, "useCount": 0, "id": "KFYM", "name": "KFYM", "quality": 93, "contribution": 0.0}, "EAST1": {"distance": 9385.0, "latitude": 35.139, "longitude": -86.191, "useCount": 0, "id": "EAST1", "name": "EASTVIEW FARM TN US SCAN", "quality": 0, "contribution": 0.0}}}