{"queryCost": 1, "latitude": 38.063, "longitude": -97.944, "resolvedAddress": "38.06300,-97.94400", "address": "38.06300,-97.94400", "timezone": "America/Chicago", "tzoffset": -5.0, "days": [{"datetime": "2015-06-23", "datetimeEpoch": 1435035600, "tempmax": 98.0, "tempmin": 71.1, "temp": 85.9, "feelslikemax": 98.4, "feelslikemin": 71.1, "feelslike": 86.7, "dew": 61.6, "humidity": 46.0, "precip": 0.0, "precipprob": 0.0, "precipcover": 0.0, "preciptype": null, "snow": 0.0, "snowdepth": 0.0, "windgust": 25.3, "windspeed": 18.3, "winddir": 150.1, "pressure": 1015.2, "cloudcover": 16.0, "visibility": 9.2, "solarradiation": 303.6, "solarenergy": 26.1, "uvindex": 8.0, "sunrise": "06:09:45", "sunriseEpoch": 1435057785, "sunset": "20:58:13", "sunsetEpoch": 1435111093, "moonphase": 0.21, "conditions": "Clear", "description": "Clear conditions throughout the day.", "icon": "clear-day", "stations": ["72450613986", "KICT", "KEWK", "72450953939", "KHUT"], "source": "obs"}], "stations": {"72450613986": {"distance": 7314.0, "latitude": 38.065, "longitude": -97.861, "useCount": 0, "id": "72450613986", "name": "HUTCHINSON MUNICIPAL AIRPORT, KS US", "quality": 100, "contribution": 0.0}, "KICT": {"distance": 64456.0, "latitude": 37.65, "longitude": -97.43, "useCount": 0, "id": "KICT", "name": "KICT", "quality": 100, "contribution": 0.0}, "KEWK": {"distance": 58220.0, "latitude": 38.05, "longitude": -97.28, "useCount": 0, "id": "KEWK", "name": "NEWTON (AWOS), KS", "quality": 100, "contribution": 0.0}, "72450953939": {"distance": 58662.0, "latitude": 38.068, "longitude": -97.275, "useCount": 0, "id": "72450953939", "name": "NEWTON CITY CO AIRPORT, KS US", "quality": 100, "contribution": 0.0}, "KHUT": {"distance": 6532.0, "latitude": 38.07, "longitude": -97.87, "useCount": 0, "id": "KHUT", "name": "KHUT", "quality": 100, "contribution": 0.0}}}