{"queryCost": 1, "latitude": 45.429, "longitude": -122.628, "resolvedAddress": "45.42900,-122.62800", "address": "45.42900,-122.62800", "timezone": "America/Los_Angeles", "tzoffset": -7.0, "days": [{"datetime": "2020-04-11", "datetimeEpoch": 1586588400, "tempmax": 62.1, "tempmin": 44.7, "temp": 52.5, "feelslikemax": 62.1, "feelslikemin": 44.7, "feelslike": 52.5, "dew": 37.4, "humidity": 58.4, "precip": 0.0, "precipprob": 0.0, "precipcover": 0.0, "preciptype": null, "snow": 0.0, "snowdepth": 0.0, "windgust": 18.3, "windspeed": 8.5, "winddir": 172.9, "pressure": 1020.6, "cloudcover": 36.5, "visibility": 9.9, "solarradiation": 158.3, "solarenergy": 13.8, "uvindex": 5.0, "sunrise": "06:31:06", "sunriseEpoch": 1586611866, "sunset": "19:52:27", "sunsetEpoch": 1586659947, "moonphase": 0.58, "conditions": "Partially cloudy", "description": "Partly cloudy throughout the day.", "icon": "partly-cloudy-day", "stations": ["72698524242", "D6016", "KVUO", "72698024229", "KPDX", "KTTD", "72791894298"], "source": "obs"}], "stations": {"72698524242": {"distance": 21836.0, "latitude": 45.551, "longitude": -122.409, "useCount": 0, "id": "72698524242", "name": "PORTLAND TROUTDALE AIRPORT, OR US", "quality": 100, "contribution": 0.0}, "D6016": {"distance": 3019.0, "latitude": 45.451, "longitude": -122.605, "useCount": 0, "id": "D6016", "name": "DW6016 Milwaukie OR US", "quality": 0, "contribution": 0.0}, "KVUO": {"distance": 21408.0, "latitude": 45.62, "longitude": -122.66, "useCount": 0, "id": "KVUO", "name": "KVUO", "quality": 100, "contribution": 0.0}, "72698024229": {"distance": 18627.0, "latitude": 45.596, "longitude": -122.609, "useCount": 0, "id": "72698024229", "name": "PORTLAND INTERNATIONAL AIRPORT, OR US", "quality": 100, "contribution": 0.0}, "KPDX": {"distance": 19161.0, "latitude": 45.6, "longitude": -122.6, "useCount": 0, "id": "KPDX", "name": "KPDX", "quality": 100, "contribution": 0.0}, "KTTD": {"distance": 21093.0, "latitude": 45.55, "longitude": -122.42, "useCount": 0, "id": "KTTD", "name": "KTTD", "quality": 100, "contribution": 0.0}, "72791894298": {"distance": 21471.0, "latitude": 45.621, "longitude": -122.657, "useCount": 0, "id": "72791894298", "name": "VANCOUVER PEARSON AIRPORT, WA US", "quality": 100, "contribution": 0.0}}}