{"queryCost": 1, "latitude": 26.246, "longitude": -80.098, "resolvedAddress": "26.24600,-80.09800", "address": "26.24600,-80.09800", "timezone": "America/New_York", "tzoffset": -4.0, "days": [{"datetime": "2020-04-12", "datetimeEpoch": 1586664000, "tempmax": 86.0, "tempmin": 78.2, "temp": 80.9, "feelslikemax": 94.9, "feelslikemin": 78.2, "feelslike": 85.2, "dew": 74.5, "humidity": 81.1, "precip": 0.0, "precipprob": null, "precipcover": 0.0, "preciptype": null, "snow": 0.0, "snowdepth": 0.0, "windgust": 26.3, "windspeed": 19.7, "winddir": 130.6, "pressure": 1017.2, "cloudcover": 73.6, "visibility": 8.1, "solarradiation": 250.1, "solarenergy": 12.6, "uvindex": 6.0, "sunrise": "06:59:26", "sunriseEpoch": 1586689166, "sunset": "19:42:57", "sunsetEpoch": 1586734977, "moonphase": 0.63, "conditions": "Partially cloudy", "description": "Partly cloudy throughout the day.", "icon": "partly-cloudy-day", "stations": ["74783012849", "72204992805", "KFLL", "72203912885", "F0365", "KPMP", "KFXE"], "source": "obs"}], "stations": {"74783012849": {"distance": 19687.0, "latitude": 26.079, "longitude": -80.162, "useCount": 0, "id": "74783012849", "name": "FORT LAUDERDALE INTERNATIONAL AIRPORT, FL US", "quality": 100, "contribution": 0.0}, "72204992805": {"distance": 1121.0, "latitude": 26.25, "longitude": -80.108, "useCount": 0, "id": "72204992805", "name": "POMPANO BEACH AIRPARK, FL US", "quality": 99, "contribution": 0.0}, "KFLL": {"distance": 20269.0, "latitude": 26.07, "longitude": -80.15, "useCount": 0, "id": "KFLL", "name": "KFLL", "quality": 100, "contribution": 0.0}, "72203912885": {"distance": 9096.0, "latitude": 26.197, "longitude": -80.171, "useCount": 0, "id": "72203912885", "name": "FORT LAUDERDALE EXECUTIVE AIRPORT, FL US", "quality": 99, "contribution": 0.0}, "F0365": {"distance": 11118.0, "latitude": 26.249, "longitude": -80.209, "useCount": 0, "id": "F0365", "name": "FW0365 Margate FL US", "quality": 0, "contribution": 0.0}, "KPMP": {"distance": 1278.0, "latitude": 26.25, "longitude": -80.11, "useCount": 0, "id": "KPMP", "name": "KPMP", "quality": 100, "contribution": 0.0}, "KFXE": {"distance": 8827.0, "latitude": 26.2, "longitude": -80.17, "useCount": 0, "id": "KFXE", "name": "KFXE", "quality": 100, "contribution": 0.0}}}