{"queryCost": 1, "latitude": 33.657, "longitude": -101.822, "resolvedAddress": "33.65700,-101.82200", "address": "33.65700,-101.82200", "timezone": "America/Chicago", "tzoffset": -5.0, "days": [{"datetime": "2020-04-16", "datetimeEpoch": 1587013200, "tempmax": 83.9, "tempmin": 44.0, "temp": 64.2, "feelslikemax": 81.1, "feelslikemin": 39.0, "feelslike": 62.7, "dew": 37.0, "humidity": 44.23, "precip": 0.0, "precipprob": null, "precipcover": 0.0, "preciptype": null, "snow": 0.0, "snowdepth": 0.0, "windgust": 36.5, "windspeed": 24.2, "winddir": 193.3, "pressure": 1009.7, "cloudcover": 10.3, "visibility": 9.9, "solarradiation": 522.7, "solarenergy": 28.2, "uvindex": 10.0, "sunrise": "07:14:45", "sunriseEpoch": 1587039285, "sunset": "20:19:36", "sunsetEpoch": 1587086376, "moonphase": 0.83, "conditions": "Clear", "description": "Clear conditions throughout the day.", "icon": "clear-day", "stations": ["LWST2", "KLBB", "KPVW", "72267023042", "72217423097"], "source": "obs"}], "stations": {"LWST2": {"distance": 9253.0, "latitude": 33.604, "longitude": -101.899, "useCount": 0, "id": "LWST2", "name": "Lubbock 3W", "quality": 0, "contribution": 0.0}, "KLBB": {"distance": 1358.0, "latitude": 33.65, "longitude": -101.81, "useCount": 0, "id": "KLBB", "name": "KLBB", "quality": 100, "contribution": 0.0}, "72267023042": {"distance": 962.0, "latitude": 33.666, "longitude": -101.823, "useCount": 0, "id": "72267023042", "name": "LUBBOCK INTERNATIONAL AIRPORT, TX US", "quality": 100, "contribution": 0.0}, "72217423097": {"distance": 57563.0, "latitude": 34.167, "longitude": -101.717, "useCount": 0, "id": "72217423097", "name": "PLAINVIEW HALE CO AIRPORT, TX US", "quality": 100, "contribution": 0.0}, "KPVW": {"distance": 57879.0, "latitude": 34.17, "longitude": -101.72, "useCount": 0, "id": "KPVW", "name": "KPVW", "quality": 100, "contribution": 0.0}}}