{"queryCost": 1, "latitude": 34.508, "longitude": -82.672, "resolvedAddress": "34.50800,-82.67200", "address": "34.50800,-82.67200", "timezone": "America/New_York", "tzoffset": -4.0, "days": [{"datetime": "2020-04-17", "datetimeEpoch": 1587096000, "tempmax": 71.8, "tempmin": 39.8, "temp": 56.9, "feelslikemax": 71.8, "feelslikemin": 39.8, "feelslike": 56.6, "dew": 41.2, "humidity": 59.6, "precip": 0.0, "precipprob": 0.0, "precipcover": 0.0, "preciptype": null, "snow": 0.0, "snowdepth": 0.0, "windgust": 21.9, "windspeed": 13.7, "winddir": 159.8, "pressure": 1022.1, "cloudcover": 2.2, "visibility": 9.9, "solarradiation": 216.8, "solarenergy": 18.7, "uvindex": 10.0, "sunrise": "06:56:01", "sunriseEpoch": 1587120961, "sunset": "20:04:44", "sunsetEpoch": 1587168284, "moonphase": 0.88, "conditions": "Clear", "description": "Clear conditions throughout the day.", "icon": "clear-day", "stations": ["72074400271", "KLQK", "KCEU", "72311853850", "72319093846", "C1744", "KAND"], "source": "obs"}], "stations": {"72074400271": {"distance": 34493.0, "latitude": 34.817, "longitude": -82.7, "useCount": 0, "id": "72074400271", "name": "PICKENS CO AIRPORT, SC US", "quality": 100, "contribution": 0.0}, "KLQK": {"distance": 33716.0, "latitude": 34.81, "longitude": -82.7, "useCount": 0, "id": "KLQK", "name": "KLQK", "quality": 99, "contribution": 0.0}, "KCEU": {"distance": 26241.0, "latitude": 34.67, "longitude": -82.88, "useCount": 0, "id": "KCEU", "name": "KCEU", "quality": 100, "contribution": 0.0}, "72311853850": {"distance": 26813.0, "latitude": 34.672, "longitude": -82.886, "useCount": 0, "id": "72311853850", "name": "CLEMSON OCONEE CO AIRPORT, SC US", "quality": 100, "contribution": 0.0}, "72319093846": {"distance": 3644.0, "latitude": 34.498, "longitude": -82.71, "useCount": 0, "id": "72319093846", "name": "ANDERSON FAA AIRPORT, SC US", "quality": 100, "contribution": 0.0}, "C1744": {"distance": 6118.0, "latitude": 34.562, "longitude": -82.658, "useCount": 0, "id": "C1744", "name": "N1ACB Anderson SC US", "quality": 0, "contribution": 0.0}, "KAND": {"distance": 4493.0, "latitude": 34.5, "longitude": -82.72, "useCount": 0, "id": "KAND", "name": "KAND", "quality": 100, "contribution": 0.0}}}