{"queryCost": 1, "latitude": 38.319, "longitude": -87.279, "resolvedAddress": "38.31900,-87.27900", "address": "38.31900,-87.27900", "timezone": "America/Indiana/Petersburg", "tzoffset": -4.0, "days": [{"datetime": "2020-05-03", "datetimeEpoch": 1588478400, "tempmax": 74.1, "tempmin": 61.3, "temp": 68.0, "feelslikemax": 74.1, "feelslikemin": 61.3, "feelslike": 68.0, "dew": 57.2, "humidity": 68.68, "precip": 0.0, "precipprob": null, "precipcover": 0.0, "preciptype": null, "snow": 0.0, "snowdepth": 0.0, "windgust": 18.3, "windspeed": 10.5, "winddir": 256.3, "pressure": 1012.7, "cloudcover": 52.3, "visibility": 9.9, "solarradiation": 226.1, "solarenergy": 12.2, "uvindex": 6.0, "sunrise": "06:49:26", "sunriseEpoch": 1588502966, "sunset": "20:43:02", "sunsetEpoch": 1588552982, "moonphase": 0.39, "conditions": "Partially cloudy", "description": "Becoming cloudy in the afternoon.", "icon": "partly-cloudy-day", "stations": ["KHNB", "72432093817", "72090300441", "KEVV", "D0191", "E8495", "KDCY", "72436553896"], "source": "obs"}], "stations": {"KHNB": {"distance": 29756.0, "latitude": 38.25, "longitude": -86.95, "useCount": 0, "id": "KHNB", "name": "HUNTINGBURG, IN", "quality": 100, "contribution": 0.0}, "72432093817": {"distance": 37189.0, "latitude": 38.044, "longitude": -87.52, "useCount": 0, "id": "72432093817", "name": "EVANSVILLE REGIONAL AIRPORT, IN US", "quality": 100, "contribution": 0.0}, "72090300441": {"distance": 44404.0, "latitude": 38.7, "longitude": -87.13, "useCount": 0, "id": "72090300441", "name": "DAVIESS CO AIRPORT, IN US", "quality": 100, "contribution": 0.0}, "KEVV": {"distance": 38040.0, "latitude": 38.04, "longitude": -87.53, "useCount": 0, "id": "KEVV", "name": "KEVV", "quality": 100, "contribution": 0.0}, "D0191": {"distance": 38353.0, "latitude": 38.03, "longitude": -87.517, "useCount": 0, "id": "D0191", "name": "DW0191 Evansville IN US", "quality": 0, "contribution": 0.0}, "E8495": {"distance": 37264.0, "latitude": 38.637, "longitude": -87.143, "useCount": 0, "id": "E8495", "name": "EW8495 Washington IN US", "quality": 0, "contribution": 0.0}, "KDCY": {"distance": 44354.0, "latitude": 38.7, "longitude": -87.13, "useCount": 0, "id": "KDCY", "name": "KDCY", "quality": 98, "contribution": 0.0}, "72436553896": {"distance": 29485.0, "latitude": 38.249, "longitude": -86.954, "useCount": 0, "id": "72436553896", "name": "HUNTINGBURG AIRPORT, IN US", "quality": 100, "contribution": 0.0}}}