{"queryCost": 1, "latitude": 34.737, "longitude": -92.378, "resolvedAddress": "34.73700,-92.37800", "address": "34.73700,-92.37800", "timezone": "America/Chicago", "tzoffset": -5.0, "days": [{"datetime": "2020-05-01", "datetimeEpoch": 1588309200, "tempmax": 82.1, "tempmin": 50.4, "temp": 66.8, "feelslikemax": 81.1, "feelslikemin": 50.4, "feelslike": 66.6, "dew": 51.7, "humidity": 62.7, "precip": 0.0, "precipprob": 0.0, "precipcover": 0.0, "preciptype": null, "snow": 0.0, "snowdepth": 0.0, "windgust": 17.2, "windspeed": 12.1, "winddir": 186.2, "pressure": 1016.4, "cloudcover": 45.8, "visibility": 9.9, "solarradiation": 221.6, "solarenergy": 19.3, "uvindex": 9.0, "sunrise": "06:18:32", "sunriseEpoch": 1588331912, "sunset": "19:55:04", "sunsetEpoch": 1588380904, "moonphase": 0.28, "conditions": "Partially cloudy", "description": "Partly cloudy throughout the day.", "icon": "partly-cloudy-day", "stations": ["72340503930", "KHOT", "72340313963", "KLRF", "E9770", "72341793988", "KLIT"], "source": "obs"}], "stations": {"72340503930": {"distance": 28883.0, "latitude": 34.917, "longitude": -92.15, "useCount": 0, "id": "72340503930", "name": "LITTLE ROCK AFB, AR US", "quality": 99, "contribution": 0.0}, "KHOT": {"distance": 72525.0, "latitude": 34.47, "longitude": -93.1, "useCount": 0, "id": "KHOT", "name": "KHOT", "quality": 99, "contribution": 0.0}, "72340313963": {"distance": 12771.0, "latitude": 34.727, "longitude": -92.239, "useCount": 0, "id": "72340313963", "name": "LITTLE ROCK AIRPORT ADAMS FIELD, AR US", "quality": 100, "contribution": 0.0}, "KLRF": {"distance": 29139.0, "latitude": 34.92, "longitude": -92.15, "useCount": 0, "id": "KLRF", "name": "KLRF", "quality": 100, "contribution": 0.0}, "E9770": {"distance": 22500.0, "latitude": 34.536, "longitude": -92.359, "useCount": 0, "id": "E9770", "name": "EW9770 Hensley AR US", "quality": 0, "contribution": 0.0}, "72341793988": {"distance": 74197.0, "latitude": 34.18, "longitude": -91.934, "useCount": 0, "id": "72341793988", "name": "PINE BLUFF GRIDER FIELD, AR US", "quality": 100, "contribution": 0.0}, "KLIT": {"distance": 13672.0, "latitude": 34.72, "longitude": -92.23, "useCount": 0, "id": "KLIT", "name": "KLIT", "quality": 100, "contribution": 0.0}}}