{"queryCost": 1, "latitude": 34.025, "longitude": -118.263, "resolvedAddress": "34.02500,-118.26300", "address": "34.02500,-118.26300", "timezone": "America/Los_Angeles", "tzoffset": -7.0, "days": [{"datetime": "2020-04-30", "datetimeEpoch": 1588230000, "tempmax": 75.6, "tempmin": 64.0, "temp": 67.9, "feelslikemax": 75.6, "feelslikemin": 64.0, "feelslike": 67.9, "dew": 57.8, "humidity": 70.82, "precip": 0.0, "precipprob": null, "precipcover": 0.0, "preciptype": null, "snow": 0.0, "snowdepth": 0.0, "windgust": 18.3, "windspeed": 10.7, "winddir": 293.1, "pressure": 1012.9, "cloudcover": 56.4, "visibility": 6.1, "solarradiation": 455.9, "solarenergy": 24.6, "uvindex": 10.0, "sunrise": "06:04:13", "sunriseEpoch": 1588251853, "sunset": "19:36:40", "sunsetEpoch": 1588300600, "moonphase": 0.23, "conditions": "Partially cloudy", "description": "Clearing in the afternoon.", "icon": "partly-cloudy-day", "stations": ["A2968", "KHHR", "72295023174", "KCQT", "72295603167", "KLAX", "72287493134", "CQ070"], "source": "obs"}], "stations": {"A2968": {"distance": 5680.0, "latitude": 34.066, "longitude": -118.227, "useCount": 0, "id": "A2968", "name": "Los Angeles - N. Main Street CA SCQ", "quality": 0, "contribution": 0.0}, "KHHR": {"distance": 13224.0, "latitude": 33.92, "longitude": -118.33, "useCount": 0, "id": "KHHR", "name": "KHHR", "quality": 100, "contribution": 0.0}, "72295023174": {"distance": 15135.0, "latitude": 33.938, "longitude": -118.389, "useCount": 0, "id": "72295023174", "name": "LOS ANGELES INTERNATIONAL AIRPORT, CA US", "quality": 100, "contribution": 0.0}, "KCQT": {"distance": 1664.0, "latitude": 34.02, "longitude": -118.28, "useCount": 0, "id": "KCQT", "name": "KCQT", "quality": 100, "contribution": 0.0}, "72295603167": {"distance": 13130.0, "latitude": 33.923, "longitude": -118.334, "useCount": 0, "id": "72295603167", "name": "HAWTHORNE MUNICIPAL AIRPORT, CA US", "quality": 100, "contribution": 0.0}, "KLAX": {"distance": 16486.0, "latitude": 33.93, "longitude": -118.4, "useCount": 0, "id": "KLAX", "name": "KLAX", "quality": 100, "contribution": 0.0}, "72287493134": {"distance": 2588.0, "latitude": 34.024, "longitude": -118.291, "useCount": 0, "id": "72287493134", "name": "LOS ANGELES DOWNTOWN USC, CA US", "quality": 100, "contribution": 0.0}, "CQ070": {"distance": 5726.0, "latitude": 34.067, "longitude": -118.227, "useCount": 0, "id": "CQ070", "name": "Los Angeles-North Main Street CA US CARB", "quality": 0, "contribution": 0.0}}}