{"queryCost": 1, "latitude": 44.743, "longitude": -74.285, "resolvedAddress": "44.74300,-74.28500", "address": "44.74300,-74.28500", "timezone": "America/New_York", "tzoffset": -4.0, "days": [{"datetime": "2015-06-26", "datetimeEpoch": 1435291200, "tempmax": 73.6, "tempmin": 49.7, "temp": 62.6, "feelslikemax": 73.6, "feelslikemin": 49.7, "feelslike": 62.6, "dew": 49.6, "humidity": 67.9, "precip": 0.0, "precipprob": 0.0, "precipcover": 0.0, "preciptype": null, "snow": 0.0, "snowdepth": 0.0, "windgust": 23.0, "windspeed": 7.9, "winddir": 208.3, "pressure": 1017.5, "cloudcover": 30.8, "visibility": 31.1, "solarradiation": 359.5, "solarenergy": 31.0, "uvindex": 10.0, "sunrise": "05:12:55", "sunriseEpoch": 1435309975, "sunset": "20:46:56", "sunsetEpoch": 1435366016, "moonphase": 0.35, "conditions": "Partially cloudy", "description": "Partly cloudy throughout the day.", "icon": "partly-cloudy-day", "stations": ["KMSS", "CWBZ", "KSLK", "72622394725", "71712099999", "72622894740"], "source": "obs"}], "stations": {"KMSS": {"distance": 48505.0, "latitude": 44.93, "longitude": -74.84, "useCount": 0, "id": "KMSS", "name": "KMSS", "quality": 98, "contribution": 0.0}, "CWBZ": {"distance": 41969.0, "latitude": 45.12, "longitude": -74.28, "useCount": 0, "id": "CWBZ", "name": "CWBZ", "quality": 100, "contribution": 0.0}, "KSLK": {"distance": 38773.0, "latitude": 44.4, "longitude": -74.2, "useCount": 0, "id": "KSLK", "name": "KSLK", "quality": 100, "contribution": 0.0}, "72622394725": {"distance": 49195.0, "latitude": 44.936, "longitude": -74.846, "useCount": 0, "id": "72622394725", "name": "MASSENA INTERNATIONAL AIRPORT, NY US", "quality": 100, "contribution": 0.0}, "71712099999": {"distance": 41600.0, "latitude": 45.117, "longitude": -74.283, "useCount": 0, "id": "71712099999", "name": "ST ANICET 1 QUE, CA", "quality": 100, "contribution": 0.0}, "72622894740": {"distance": 40300.0, "latitude": 44.385, "longitude": -74.207, "useCount": 0, "id": "72622894740", "name": "SARANAC LAKE ADIRONDACK REGIONAL AIRPORT, NY US", "quality": 100, "contribution": 0.0}}}