{"queryCost": 1, "latitude": 33.519, "longitude": -117.687, "resolvedAddress": "33.51900,-117.68700", "address": "33.51900,-117.68700", "timezone": "America/Los_Angeles", "tzoffset": -7.0, "days": [{"datetime": "2020-05-11", "datetimeEpoch": 1589180400, "tempmax": 75.4, "tempmin": 63.6, "temp": 68.3, "feelslikemax": 75.4, "feelslikemin": 63.6, "feelslike": 68.3, "dew": 54.5, "humidity": 62.1, "precip": 0.0, "precipprob": 0.0, "precipcover": 0.0, "preciptype": null, "snow": 0.0, "snowdepth": 0.0, "windgust": 23.0, "windspeed": 13.2, "winddir": 253.3, "pressure": 1015.1, "cloudcover": 54.4, "visibility": 9.9, "solarradiation": 281.3, "solarenergy": 24.3, "uvindex": 10.0, "sunrise": "05:52:51", "sunriseEpoch": 1589201571, "sunset": "19:41:50", "sunsetEpoch": 1589251310, "moonphase": 0.61, "conditions": "Partially cloudy", "description": "Clearing in the afternoon.", "icon": "partly-cloudy-day", "stations": ["72033353175", "72292603154", "72297793184", "KNFG", "C6287", "KSNA", "KAJO"], "source": "obs"}], "stations": {"72033353175": {"distance": 42885.0, "latitude": 33.898, "longitude": -117.602, "useCount": 0, "id": "72033353175", "name": "CORONA MUNICIPAL AIRPORT, CA US", "quality": 99, "contribution": 0.0}, "72292603154": {"distance": 39686.0, "latitude": 33.3, "longitude": -117.35, "useCount": 0, "id": "72292603154", "name": "CAMP PENDLETON MCAS, CA US", "quality": 99, "contribution": 0.0}, "72297793184": {"distance": 24427.0, "latitude": 33.68, "longitude": -117.866, "useCount": 0, "id": "72297793184", "name": "SANTA ANA JOHN WAYNE AIRPORT, CA US", "quality": 100, "contribution": 0.0}, "KNFG": {"distance": 40381.0, "latitude": 33.29, "longitude": -117.35, "useCount": 0, "id": "KNFG", "name": "KNFG", "quality": 99, "contribution": 0.0}, "C6287": {"distance": 4613.0, "latitude": 33.533, "longitude": -117.64, "useCount": 0, "id": "C6287", "name": "CW6287 Ladera Ranch CA US", "quality": 0, "contribution": 0.0}, "KSNA": {"distance": 24680.0, "latitude": 33.68, "longitude": -117.87, "useCount": 0, "id": "KSNA", "name": "KSNA", "quality": 100, "contribution": 0.0}, "KAJO": {"distance": 43171.0, "latitude": 33.9, "longitude": -117.6, "useCount": 0, "id": "KAJO", "name": "CORONA, CA", "quality": 99, "contribution": 0.0}}}