{"queryCost": 1, "latitude": 32.218, "longitude": -81.926, "resolvedAddress": "32.21800,-81.92600", "address": "32.21800,-81.92600", "timezone": "America/New_York", "tzoffset": -4.0, "days": [{"datetime": "2020-05-09", "datetimeEpoch": 1588996800, "tempmax": 72.8, "tempmin": 54.9, "temp": 64.8, "feelslikemax": 72.8, "feelslikemin": 54.9, "feelslike": 64.8, "dew": 47.8, "humidity": 58.4, "precip": 0.02, "precipprob": 100.0, "precipcover": 4.17, "preciptype": ["rain"], "snow": 0.0, "snowdepth": 0.0, "windgust": 20.8, "windspeed": 10.3, "winddir": 183.3, "pressure": 1018.4, "cloudcover": 21.1, "visibility": 9.8, "solarradiation": 287.8, "solarenergy": 24.9, "uvindex": 10.0, "sunrise": "06:33:58", "sunriseEpoch": 1589020438, "sunset": "20:14:45", "sunsetEpoch": 1589069685, "moonphase": 0.53, "conditions": "Rain, Partially cloudy", "description": "Clearing in the afternoon with early morning rain.", "icon": "rain", "stations": ["KLHW", "KCWV", "FSGG1", "72209003875", "KSAV", "72269100366", "72207003822"], "source": "obs"}], "stations": {"KLHW": {"distance": 51071.0, "latitude": 31.88, "longitude": -81.56, "useCount": 0, "id": "KLHW", "name": "KLHW", "quality": 100, "contribution": 0.0}, "KCWV": {"distance": 5642.0, "latitude": 32.2, "longitude": -81.87, "useCount": 0, "id": "KCWV", "name": "KCWV", "quality": 49, "contribution": 0.0}, "FSGG1": {"distance": 18837.0, "latitude": 32.075, "longitude": -81.82, "useCount": 0, "id": "FSGG1", "name": "GLISSON'S POND GA US", "quality": 0, "contribution": 0.0}, "72209003875": {"distance": 50373.0, "latitude": 31.883, "longitude": -81.567, "useCount": 0, "id": "72209003875", "name": "FORT STEWART WRIGHT, GA US", "quality": 99, "contribution": 0.0}, "KSAV": {"distance": 69105.0, "latitude": 32.13, "longitude": -81.2, "useCount": 0, "id": "KSAV", "name": "KSAV", "quality": 100, "contribution": 0.0}, "72269100366": {"distance": 5642.0, "latitude": 32.2, "longitude": -81.87, "useCount": 0, "id": "72269100366", "name": "CLAXTON EVANS CO AIRPORT, GA US", "quality": 50, "contribution": 0.0}, "72207003822": {"distance": 68860.0, "latitude": 32.131, "longitude": -81.202, "useCount": 0, "id": "72207003822", "name": "SAVANNAH INTERNATIONAL AIRPORT, GA US", "quality": 100, "contribution": 0.0}}}