{"queryCost": 1, "latitude": 39.03, "longitude": -108.515, "resolvedAddress": "39.03000,-108.51500", "address": "39.03000,-108.51500", "timezone": "America/Denver", "tzoffset": -6.0, "days": [{"datetime": "2020-05-09", "datetimeEpoch": 1589004000, "tempmax": 74.2, "tempmin": 47.5, "temp": 60.3, "feelslikemax": 74.2, "feelslikemin": 46.6, "feelslike": 60.2, "dew": 15.4, "humidity": 19.5, "precip": 0.0, "precipprob": null, "precipcover": 0.0, "preciptype": null, "snow": 0.0, "snowdepth": 0.0, "windgust": 26.4, "windspeed": 12.9, "winddir": 184.3, "pressure": 1016.1, "cloudcover": 0.0, "visibility": 9.9, "solarradiation": 393.9, "solarenergy": 24.1, "uvindex": 8.0, "sunrise": "06:06:23", "sunriseEpoch": 1589025983, "sunset": "20:15:11", "sunsetEpoch": 1589076911, "moonphase": 0.53, "conditions": "Clear", "description": "Clear conditions throughout the day.", "icon": "clear-day", "stations": ["72476023066", "KGJT", "72053100158", "KAJZ", "72476593013", "CSU94", "KMTJ"], "source": "obs"}], "stations": {"72476023066": {"distance": 11799.0, "latitude": 39.134, "longitude": -108.54, "useCount": 0, "id": "72476023066", "name": "GRAND JUNCTION WALKER FIELD, CO US", "quality": 100, "contribution": 0.0}, "KGJT": {"distance": 8999.0, "latitude": 39.11, "longitude": -108.53, "useCount": 0, "id": "KGJT", "name": "KGJT", "quality": 100, "contribution": 0.0}, "72053100158": {"distance": 47562.0, "latitude": 38.783, "longitude": -108.067, "useCount": 0, "id": "72053100158", "name": "BLAKE FIELD AIRPORT, CO US", "quality": 98, "contribution": 0.0}, "KAJZ": {"distance": 48250.0, "latitude": 38.78, "longitude": -108.06, "useCount": 0, "id": "KAJZ", "name": "KAJZ", "quality": 98, "contribution": 0.0}, "72476593013": {"distance": 79143.0, "latitude": 38.506, "longitude": -107.899, "useCount": 0, "id": "72476593013", "name": "MONTROSE REGIONAL AIRPORT, CO US", "quality": 100, "contribution": 0.0}, "CSU94": {"distance": 4437.0, "latitude": 39.044, "longitude": -108.467, "useCount": 0, "id": "CSU94", "name": "CSU Orchard Mesa Research Statio CO US", "quality": 0, "contribution": 0.0}, "KMTJ": {"distance": 79564.0, "latitude": 38.5, "longitude": -107.9, "useCount": 0, "id": "KMTJ", "name": "KMTJ", "quality": 100, "contribution": 0.0}}}