{"queryCost": 1, "latitude": 47.614, "longitude": -122.352, "resolvedAddress": "47.61400,-122.35200", "address": "47.61400,-122.35200", "timezone": "America/Los_Angeles", "tzoffset": -7.0, "days": [{"datetime": "2020-05-19", "datetimeEpoch": 1589871600, "tempmax": 64.5, "tempmin": 53.3, "temp": 57.9, "feelslikemax": 64.5, "feelslikemin": 53.3, "feelslike": 57.9, "dew": 48.2, "humidity": 70.6, "precip": 0.0, "precipprob": 0.0, "precipcover": 0.0, "preciptype": null, "snow": 0.0, "snowdepth": 0.0, "windgust": null, "windspeed": 7.7, "winddir": 196.8, "pressure": 1016.2, "cloudcover": 81.9, "visibility": 9.7, "solarradiation": 191.8, "solarenergy": 16.4, "uvindex": 8.0, "sunrise": "05:26:34", "sunriseEpoch": 1589891194, "sunset": "20:46:05", "sunsetEpoch": 1589946365, "moonphase": 0.96, "conditions": "Partially cloudy", "description": "Partly cloudy throughout the day.", "icon": "partly-cloudy-day", "stations": ["72793024233", "KSEA", "KBFI", "72793524234", "72793494248", "F0821", "KRNT"], "source": "obs"}], "stations": {"72793024233": {"distance": 19095.0, "latitude": 47.444, "longitude": -122.314, "useCount": 0, "id": "72793024233", "name": "SEATTLE TACOMA AIRPORT, WA US", "quality": 100, "contribution": 0.0}, "KSEA": {"distance": 18670.0, "latitude": 47.45, "longitude": -122.3, "useCount": 0, "id": "KSEA", "name": "KSEA", "quality": 100, "contribution": 0.0}, "KBFI": {"distance": 10134.0, "latitude": 47.53, "longitude": -122.3, "useCount": 0, "id": "KBFI", "name": "KBFI", "quality": 100, "contribution": 0.0}, "72793524234": {"distance": 10074.0, "latitude": 47.53, "longitude": -122.301, "useCount": 0, "id": "72793524234", "name": "SEATTLE BOEING FIELD, WA US", "quality": 100, "contribution": 0.0}, "72793494248": {"distance": 16971.0, "latitude": 47.493, "longitude": -122.214, "useCount": 0, "id": "72793494248", "name": "RENTON MUNICIPAL AIRPORT, WA US", "quality": 100, "contribution": 0.0}, "F0821": {"distance": 2862.0, "latitude": 47.612, "longitude": -122.314, "useCount": 0, "id": "F0821", "name": "FW0821 Seattle WA US", "quality": 0, "contribution": 0.0}, "KRNT": {"distance": 16105.0, "latitude": 47.5, "longitude": -122.22, "useCount": 0, "id": "KRNT", "name": "KRNT", "quality": 100, "contribution": 0.0}}}