{"queryCost": 1, "latitude": 28.906, "longitude": -81.266, "resolvedAddress": "28.90600,-81.26600", "address": "28.90600,-81.26600", "timezone": "America/New_York", "tzoffset": -4.0, "days": [{"datetime": "2020-05-12", "datetimeEpoch": 1589256000, "tempmax": 81.9, "tempmin": 60.8, "temp": 71.3, "feelslikemax": 80.7, "feelslikemin": 60.8, "feelslike": 71.1, "dew": 53.3, "humidity": 57.3, "precip": 0.0, "precipprob": 0.0, "precipcover": 0.0, "preciptype": null, "snow": 0.0, "snowdepth": 0.0, "windgust": 20.8, "windspeed": 15.0, "winddir": 70.8, "pressure": 1021.0, "cloudcover": 0.0, "visibility": 9.9, "solarradiation": 143.1, "solarenergy": 12.3, "uvindex": 7.0, "sunrise": "06:35:14", "sunriseEpoch": 1589279714, "sunset": "20:07:58", "sunsetEpoch": 1589328478, "moonphase": 0.65, "conditions": "Clear", "description": "Clear conditions throughout the day.", "icon": "clear-day", "stations": ["F6069", "72205712854", "KSFB", "KDED", "72090400299"], "source": "obs"}], "stations": {"F6069": {"distance": 6961.0, "latitude": 28.855, "longitude": -81.224, "useCount": 0, "id": "F6069", "name": "FW6069 Enterprise FL US", "quality": 0, "contribution": 0.0}, "KDED": {"distance": 17197.0, "latitude": 29.06, "longitude": -81.28, "useCount": 0, "id": "KDED", "name": "KDED", "quality": 96, "contribution": 0.0}, "72205712854": {"distance": 14228.0, "latitude": 28.78, "longitude": -81.244, "useCount": 0, "id": "72205712854", "name": "ORLANDO SANFORD AIRPORT, FL US", "quality": 100, "contribution": 0.0}, "72090400299": {"distance": 17999.0, "latitude": 29.067, "longitude": -81.283, "useCount": 0, "id": "72090400299", "name": "DELAND MUNICIPAL AIRPORT SYDNEY H TAYLOR FIELD, FL US", "quality": 100, "contribution": 0.0}, "KSFB": {"distance": 14459.0, "latitude": 28.78, "longitude": -81.23, "useCount": 0, "id": "KSFB", "name": "KSFB", "quality": 100, "contribution": 0.0}}}