{"queryCost": 1, "latitude": 44.999, "longitude": -88.372, "resolvedAddress": "44.99900,-88.37200", "address": "44.99900,-88.37200", "timezone": "America/Chicago", "tzoffset": -5.0, "days": [{"datetime": "2020-05-18", "datetimeEpoch": 1589778000, "tempmax": 50.7, "tempmin": 48.3, "temp": 49.7, "feelslikemax": 50.7, "feelslikemin": 41.4, "feelslike": 45.4, "dew": 48.7, "humidity": 96.4, "precip": 1.52, "precipprob": 100.0, "precipcover": 91.67, "preciptype": ["rain"], "snow": 0.0, "snowdepth": 0.0, "windgust": 34.9, "windspeed": 22.9, "winddir": 56.0, "pressure": null, "cloudcover": 99.3, "visibility": 5.4, "solarradiation": 42.2, "solarenergy": 3.8, "uvindex": 2.0, "sunrise": "05:20:41", "sunriseEpoch": 1589797241, "sunset": "20:19:56", "sunsetEpoch": 1589851196, "moonphase": 0.93, "conditions": "Rain, Overcast", "description": "Cloudy skies throughout the day with a chance of rain throughout the day.", "icon": "rain", "stations": ["KEZS", "KOCQ", "72058900185", "A0705600464", "TT278"], "source": "obs"}], "stations": {"KEZS": {"distance": 27588.0, "latitude": 44.79, "longitude": -88.56, "useCount": 0, "id": "KEZS", "name": "KEZS", "quality": 99, "contribution": 0.0}, "KOCQ": {"distance": 38405.0, "latitude": 44.87, "longitude": -87.92, "useCount": 0, "id": "KOCQ", "name": "KOCQ", "quality": 98, "contribution": 0.0}, "72058900185": {"distance": 27843.0, "latitude": 44.783, "longitude": -88.55, "useCount": 0, "id": "72058900185", "name": "SHAWANO MUNICIPAL AIRPORT, WI US", "quality": 100, "contribution": 0.0}, "A0705600464": {"distance": 38986.0, "latitude": 44.874, "longitude": -87.91, "useCount": 0, "id": "A0705600464", "name": "J DOUGLAS BAKE MEMORIAL AIRPORT, WI US", "quality": 100, "contribution": 0.0}, "TT278": {"distance": 13915.0, "latitude": 45.124, "longitude": -88.372, "useCount": 0, "id": "TT278", "name": "MOUNTAIN WI US", "quality": 0, "contribution": 0.0}}}