{"queryCost": 1, "latitude": 29.684, "longitude": -95.366, "resolvedAddress": "29.68400,-95.36600", "address": "29.68400,-95.36600", "timezone": "America/Chicago", "tzoffset": -5.0, "days": [{"datetime": "2020-05-14", "datetimeEpoch": 1589432400, "tempmax": 87.6, "tempmin": 75.1, "temp": 80.4, "feelslikemax": 92.6, "feelslikemin": 75.1, "feelslike": 82.1, "dew": 70.4, "humidity": 73.2, "precip": 0.02, "precipprob": 100.0, "precipcover": 8.33, "preciptype": ["rain"], "snow": 0.0, "snowdepth": 0.0, "windgust": 20.2, "windspeed": 14.9, "winddir": 141.8, "pressure": 1013.2, "cloudcover": 59.2, "visibility": 9.5, "solarradiation": 253.1, "solarenergy": 21.8, "uvindex": 8.0, "sunrise": "06:28:56", "sunriseEpoch": 1589455736, "sunset": "20:07:05", "sunsetEpoch": 1589504825, "moonphase": 0.75, "conditions": "Rain, Partially cloudy", "description": "Partly cloudy throughout the day with morning rain.", "icon": "rain", "stations": ["KHOU", "KAXH", "72242712975", "AN528", "KLVJ", "72244012918"], "source": "obs"}], "stations": {"KHOU": {"distance": 10264.0, "latitude": 29.63, "longitude": -95.28, "useCount": 0, "id": "KHOU", "name": "KHOU", "quality": 100, "contribution": 0.0}, "KAXH": {"distance": 22292.0, "latitude": 29.51, "longitude": -95.48, "useCount": 0, "id": "KAXH", "name": "KAXH", "quality": 100, "contribution": 0.0}, "72242712975": {"distance": 21967.0, "latitude": 29.519, "longitude": -95.242, "useCount": 0, "id": "72242712975", "name": "HOUSTON CLOVER FIELD, TX US", "quality": 100, "contribution": 0.0}, "AN528": {"distance": 6901.0, "latitude": 29.686, "longitude": -95.295, "useCount": 0, "id": "AN528", "name": "Houston Park Place C416 TX TCEQ", "quality": 0, "contribution": 0.0}, "KLVJ": {"distance": 21955.0, "latitude": 29.52, "longitude": -95.24, "useCount": 0, "id": "KLVJ", "name": "KLVJ", "quality": 100, "contribution": 0.0}, "72244012918": {"distance": 9607.0, "latitude": 29.638, "longitude": -95.282, "useCount": 0, "id": "72244012918", "name": "HOUSTON WILLIAM P HOBBY AIRPORT, TX US", "quality": 100, "contribution": 0.0}}}