{"queryCost": 1, "latitude": 38.271, "longitude": -104.577, "resolvedAddress": "38.27100,-104.57700", "address": "38.27100,-104.57700", "timezone": "America/Denver", "tzoffset": -6.0, "days": [{"datetime": "2020-05-15", "datetimeEpoch": 1589522400, "tempmax": 75.7, "tempmin": 49.9, "temp": 62.9, "feelslikemax": 75.7, "feelslikemin": 47.1, "feelslike": 62.8, "dew": 46.4, "humidity": 57.18, "precip": 0.0, "precipprob": null, "precipcover": 4.17, "preciptype": null, "snow": 0.0, "snowdepth": 0.0, "windgust": 32.2, "windspeed": 21.8, "winddir": 182.2, "pressure": 1009.4, "cloudcover": 46.0, "visibility": 9.9, "solarradiation": 512.6, "solarenergy": 27.7, "uvindex": 10.0, "sunrise": "05:46:49", "sunriseEpoch": 1589543209, "sunset": "20:03:05", "sunsetEpoch": 1589594585, "moonphase": 0.8, "conditions": "Partially cloudy", "description": "Clearing in the afternoon.", "icon": "partly-cloudy-day", "stations": ["KPUB", "72468094015", "E6496", "72466093037", "72464093058", "KFCS", "KABH"], "source": "obs"}], "stations": {"KPUB": {"distance": 5081.0, "latitude": 38.28, "longitude": -104.52, "useCount": 0, "id": "KPUB", "name": "KPUB", "quality": 100, "contribution": 0.0}, "72468094015": {"distance": 47977.0, "latitude": 38.678, "longitude": -104.757, "useCount": 0, "id": "72468094015", "name": "FORT CARSON BUTTS ARMY AIR FIELD, CO US", "quality": 94, "contribution": 0.0}, "E6496": {"distance": 2974.0, "latitude": 38.298, "longitude": -104.576, "useCount": 0, "id": "E6496", "name": "EW6496 Pueblo CO US", "quality": 0, "contribution": 0.0}, "72466093037": {"distance": 60775.0, "latitude": 38.81, "longitude": -104.688, "useCount": 0, "id": "72466093037", "name": "COLORADO SPRINGS MUNICIPAL AIRPORT, CO US", "quality": 100, "contribution": 0.0}, "72464093058": {"distance": 6510.0, "latitude": 38.289, "longitude": -104.506, "useCount": 0, "id": "72464093058", "name": "PUEBLO MEMORIAL AIRPORT, CO US", "quality": 100, "contribution": 0.0}, "KFCS": {"distance": 48537.0, "latitude": 38.68, "longitude": -104.77, "useCount": 0, "id": "KFCS", "name": "KFCS", "quality": 100, "contribution": 0.0}, "KABH": {"distance": 60561.0, "latitude": 38.77, "longitude": -104.3, "useCount": 0, "id": "KABH", "name": "KABH", "quality": 98, "contribution": 0.0}}}