{"queryCost": 1, "latitude": 35.79, "longitude": -78.587, "resolvedAddress": "35.79000,-78.58700", "address": "35.79000,-78.58700", "timezone": "America/New_York", "tzoffset": -4.0, "days": [{"datetime": "2020-05-13", "datetimeEpoch": 1589342400, "tempmax": 69.0, "tempmin": 44.0, "temp": 55.9, "feelslikemax": 69.0, "feelslikemin": 44.0, "feelslike": 55.9, "dew": 45.0, "humidity": 68.84, "precip": 0.0, "precipprob": null, "precipcover": 0.0, "preciptype": null, "snow": 0.0, "snowdepth": 0.0, "windgust": null, "windspeed": 5.6, "winddir": 109.7, "pressure": 1026.4, "cloudcover": 73.8, "visibility": 9.9, "solarradiation": 265.2, "solarenergy": 14.3, "uvindex": 8.0, "sunrise": "06:10:14", "sunriseEpoch": 1589364614, "sunset": "20:11:39", "sunsetEpoch": 1589415099, "moonphase": 0.7, "conditions": "Partially cloudy", "description": "Partly cloudy throughout the day.", "icon": "partly-cloudy-day", "stations": ["KLHZ", "A3715", "72213103713", "KJNX", "1327W", "KRDU", "72306013722"], "source": "obs"}], "stations": {"KLHZ": {"distance": 34533.0, "latitude": 36.02, "longitude": -78.33, "useCount": 0, "id": "KLHZ", "name": "KLHZ", "quality": 99, "contribution": 0.0}, "A3715": {"distance": 7448.0, "latitude": 35.856, "longitude": -78.574, "useCount": 0, "id": "A3715", "name": "Millbrook NCore NC NCDNRDAQC", "quality": 0, "contribution": 0.0}, "72213103713": {"distance": 32955.0, "latitude": 35.541, "longitude": -78.39, "useCount": 0, "id": "72213103713", "name": "SMITHFIELD JOHNSTON CO AIRPORT, NC US", "quality": 100, "contribution": 0.0}, "KJNX": {"distance": 33044.0, "latitude": 35.54, "longitude": -78.39, "useCount": 0, "id": "KJNX", "name": "KJNX", "quality": 95, "contribution": 0.0}, "1327W": {"distance": 7603.0, "latitude": 35.783, "longitude": -78.671, "useCount": 0, "id": "1327W", "name": "NC State Dail Softball Stadium NC US WEATHERSTEM", "quality": 0, "contribution": 0.0}, "KRDU": {"distance": 19083.0, "latitude": 35.86, "longitude": -78.78, "useCount": 0, "id": "KRDU", "name": "KRDU", "quality": 100, "contribution": 0.0}, "72306013722": {"distance": 20953.0, "latitude": 35.892, "longitude": -78.782, "useCount": 0, "id": "72306013722", "name": "RALEIGH AIRPORT, NC US", "quality": 100, "contribution": 0.0}}}