{"queryCost": 1, "latitude": 30.415, "longitude": -84.299, "resolvedAddress": "30.41500,-84.29900", "address": "30.41500,-84.29900", "timezone": "America/New_York", "tzoffset": -4.0, "days": [{"datetime": "2020-05-27", "datetimeEpoch": 1590552000, "tempmax": 87.1, "tempmin": 71.0, "temp": 76.7, "feelslikemax": 93.7, "feelslikemin": 71.0, "feelslike": 78.2, "dew": 71.0, "humidity": 83.5, "precip": 0.5, "precipprob": 100.0, "precipcover": 25.0, "preciptype": ["rain"], "snow": 0.0, "snowdepth": 0.0, "windgust": 24.2, "windspeed": 7.9, "winddir": 141.1, "pressure": 1012.8, "cloudcover": 88.6, "visibility": 8.9, "solarradiation": 150.2, "solarenergy": 12.9, "uvindex": 8.0, "sunrise": "06:36:58", "sunriseEpoch": 1590575818, "sunset": "20:32:14", "sunsetEpoch": 1590625934, "moonphase": 0.11, "conditions": "Rain, Partially cloudy", "description": "Partly cloudy throughout the day with rain.", "icon": "rain", "stations": ["0076W", "72214093805", "K2J9", "0383W", "KTLH", "KBGE", "72026853882", "99999900325"], "source": "obs"}], "stations": {"0076W": {"distance": 2267.0, "latitude": 30.434, "longitude": -84.29, "useCount": 0, "id": "0076W", "name": "Domi Station FL US WEATHERSTEM", "quality": 0, "contribution": 0.0}, "72214093805": {"distance": 5755.0, "latitude": 30.393, "longitude": -84.353, "useCount": 0, "id": "72214093805", "name": "TALLAHASSEE REGIONAL AIRPORT, FL US", "quality": 100, "contribution": 0.0}, "K2J9": {"distance": 31680.0, "latitude": 30.6, "longitude": -84.55, "useCount": 0, "id": "K2J9", "name": "K2J9", "quality": 49, "contribution": 0.0}, "0383W": {"distance": 669.0, "latitude": 30.419, "longitude": -84.294, "useCount": 0, "id": "0383W", "name": "Bond Elementary School FL US WEATHERSTEM", "quality": 0, "contribution": 0.0}, "KTLH": {"distance": 7852.0, "latitude": 30.38, "longitude": -84.37, "useCount": 0, "id": "KTLH", "name": "KTLH", "quality": 100, "contribution": 0.0}, "KBGE": {"distance": 69875.0, "latitude": 30.97, "longitude": -84.64, "useCount": 0, "id": "KBGE", "name": "KBGE", "quality": 100, "contribution": 0.0}, "72026853882": {"distance": 70895.0, "latitude": 30.983, "longitude": -84.633, "useCount": 0, "id": "72026853882", "name": "BAINBRIDGE DECATUR CO INDUSTRIAL AIR PARK AIRPORT, GA US", "quality": 100, "contribution": 0.0}, "99999900325": {"distance": 32051.0, "latitude": 30.598, "longitude": -84.557, "useCount": 0, "id": "99999900325", "name": null, "quality": 50, "contribution": 0.0}}}