{"queryCost": 1, "latitude": 33.865, "longitude": -117.975, "resolvedAddress": "33.86500,-117.97500", "address": "33.86500,-117.97500", "timezone": "America/Los_Angeles", "tzoffset": -7.0, "days": [{"datetime": "2020-05-27", "datetimeEpoch": 1590562800, "tempmax": 80.1, "tempmin": 61.1, "temp": 69.6, "feelslikemax": 80.7, "feelslikemin": 61.1, "feelslike": 69.6, "dew": 57.5, "humidity": 67.3, "precip": 0.0, "precipprob": 0.0, "precipcover": 0.0, "preciptype": null, "snow": 0.0, "snowdepth": 0.0, "windgust": null, "windspeed": 9.2, "winddir": 186.8, "pressure": 1012.3, "cloudcover": 23.7, "visibility": 8.7, "solarradiation": 313.4, "solarenergy": 27.0, "uvindex": 10.0, "sunrise": "05:43:38", "sunriseEpoch": 1590583418, "sunset": "19:55:02", "sunsetEpoch": 1590634502, "moonphase": 0.11, "conditions": "Partially cloudy", "description": "Clearing in the afternoon.", "icon": "partly-cloudy-day", "stations": ["KFUL", "72297553141", "KSLI", "72297603166", "C9736", "72297023129", "KLGB"], "source": "obs"}], "stations": {"KFUL": {"distance": 723.0, "latitude": 33.86, "longitude": -117.98, "useCount": 0, "id": "KFUL", "name": "KFUL", "quality": 100, "contribution": 0.0}, "72297553141": {"distance": 10973.0, "latitude": 33.79, "longitude": -118.052, "useCount": 0, "id": "72297553141", "name": "LOS ALAMITOS ARMY AIR FIELD, CA US", "quality": 89, "contribution": 0.0}, "KSLI": {"distance": 11732.0, "latitude": 33.78, "longitude": -118.05, "useCount": 0, "id": "KSLI", "name": "KSLI", "quality": 93, "contribution": 0.0}, "72297603166": {"distance": 852.0, "latitude": 33.872, "longitude": -117.979, "useCount": 0, "id": "72297603166", "name": "FULLERTON MUNICIPAL AIRPORT, CA US", "quality": 100, "contribution": 0.0}, "C9736": {"distance": 5917.0, "latitude": 33.907, "longitude": -118.015, "useCount": 0, "id": "C9736", "name": "CW9736 La Mirada CA US", "quality": 0, "contribution": 0.0}, "72297023129": {"distance": 16892.0, "latitude": 33.812, "longitude": -118.146, "useCount": 0, "id": "72297023129", "name": "LONG BEACH DAUGHERTY AIRPORT, CA US", "quality": 100, "contribution": 0.0}, "KLGB": {"distance": 16938.0, "latitude": 33.82, "longitude": -118.15, "useCount": 0, "id": "KLGB", "name": "KLGB", "quality": 100, "contribution": 0.0}}}