{"queryCost": 1, "latitude": 36.205, "longitude": -115.132, "resolvedAddress": "36.20500,-115.13200", "address": "36.20500,-115.13200", "timezone": "America/Los_Angeles", "tzoffset": -7.0, "days": [{"datetime": "2020-04-23", "datetimeEpoch": 1587625200, "tempmax": 89.8, "tempmin": 68.8, "temp": 80.0, "feelslikemax": 85.8, "feelslikemin": 68.8, "feelslike": 78.3, "dew": 29.9, "humidity": 17.25, "precip": 0.0, "precipprob": null, "precipcover": 0.0, "preciptype": null, "snow": 0.0, "snowdepth": 0.0, "windgust": 34.8, "windspeed": 23.7, "winddir": 307.6, "pressure": 1013.1, "cloudcover": 4.0, "visibility": 9.9, "solarradiation": 500.7, "solarenergy": 27.0, "uvindex": 10.0, "sunrise": "05:56:08", "sunriseEpoch": 1587646568, "sunset": "19:21:52", "sunsetEpoch": 1587694912, "moonphase": 0.0, "conditions": "Clear", "description": "Clear conditions throughout the day.", "icon": "clear-day", "stations": ["KLAS", "74614023112", "KLSV", "F4443", "72386023169", "KVGT", "72484653123"], "source": "obs"}], "stations": {"KLAS": {"distance": 14328.0, "latitude": 36.08, "longitude": -115.17, "useCount": 0, "id": "KLAS", "name": "KLAS", "quality": 100, "contribution": 0.0}, "74614023112": {"distance": 10204.0, "latitude": 36.25, "longitude": -115.033, "useCount": 0, "id": "74614023112", "name": "LAS VEGAS NELLIS AFB, NV US", "quality": 96, "contribution": 0.0}, "KLSV": {"distance": 9312.0, "latitude": 36.22, "longitude": -115.03, "useCount": 0, "id": "KLSV", "name": "KLSV", "quality": 99, "contribution": 0.0}, "F4443": {"distance": 10725.0, "latitude": 36.15, "longitude": -115.23, "useCount": 0, "id": "F4443", "name": "FW4443 Las Vegas NV US", "quality": 0, "contribution": 0.0}, "72386023169": {"distance": 15076.0, "latitude": 36.072, "longitude": -115.163, "useCount": 0, "id": "72386023169", "name": "MCCARRAN INTERNATIONAL AIRPORT, NV US", "quality": 100, "contribution": 0.0}, "KVGT": {"distance": 6133.0, "latitude": 36.21, "longitude": -115.2, "useCount": 0, "id": "KVGT", "name": "KVGT", "quality": 100, "contribution": 0.0}, "72484653123": {"distance": 5797.0, "latitude": 36.212, "longitude": -115.196, "useCount": 0, "id": "72484653123", "name": "LAS VEGAS AIR TERMINAL, NV US", "quality": 100, "contribution": 0.0}}}