{"queryCost": 1, "latitude": 27.724, "longitude": -97.434, "resolvedAddress": "27.72400,-97.43400", "address": "27.72400,-97.43400", "timezone": "America/Chicago", "tzoffset": -5.0, "days": [{"datetime": "2020-05-26", "datetimeEpoch": 1590469200, "tempmax": 85.3, "tempmin": 70.1, "temp": 78.0, "feelslikemax": 89.1, "feelslikemin": 70.1, "feelslike": 79.5, "dew": 70.5, "humidity": 79.52, "precip": 0.25, "precipprob": null, "precipcover": 33.33, "preciptype": null, "snow": 0.0, "snowdepth": 0.0, "windgust": 37.0, "windspeed": 27.9, "winddir": 110.1, "pressure": 1010.9, "cloudcover": 50.0, "visibility": 9.5, "solarradiation": 456.1, "solarenergy": 24.6, "uvindex": 10.0, "sunrise": "06:35:35", "sunriseEpoch": 1590492935, "sunset": "20:18:26", "sunsetEpoch": 1590542306, "moonphase": 0.07, "conditions": "Rain, Partially cloudy", "description": "Partly cloudy throughout the day with rain clearing later.", "icon": "rain", "stations": ["KCRP", "72251012924", "KRBO", "72251512926", "AN573", "99999912946", "KNGP"], "source": "obs"}], "stations": {"KCRP": {"distance": 8277.0, "latitude": 27.77, "longitude": -97.5, "useCount": 0, "id": "KCRP", "name": "KCRP", "quality": 100, "contribution": 0.0}, "72251012924": {"distance": 9517.0, "latitude": 27.774, "longitude": -97.512, "useCount": 0, "id": "72251012924", "name": "CORPUS CHRISTI INTERNATIONAL AIRPORT, TX US", "quality": 100, "contribution": 0.0}, "KRBO": {"distance": 25979.0, "latitude": 27.78, "longitude": -97.69, "useCount": 0, "id": "KRBO", "name": "KRBO", "quality": 94, "contribution": 0.0}, "72251512926": {"distance": 15528.0, "latitude": 27.683, "longitude": -97.283, "useCount": 0, "id": "72251512926", "name": "CORPUS CHRISTI NAS, TX US", "quality": 100, "contribution": 0.0}, "AN573": {"distance": 4598.0, "latitude": 27.765, "longitude": -97.434, "useCount": 0, "id": "AN573", "name": "Corpus Christi West C4 TX TCEQ", "quality": 0, "contribution": 0.0}, "99999912946": {"distance": 2673.0, "latitude": 27.7, "longitude": -97.433, "useCount": 0, "id": "99999912946", "name": "CORPUS CHRISTI CABANISS FIELD NAVAL OUTLYING FIELD, TX US", "quality": 91, "contribution": 0.0}, "KNGP": {"distance": 15410.0, "latitude": 27.7, "longitude": -97.28, "useCount": 0, "id": "KNGP", "name": "KNGP", "quality": 99, "contribution": 0.0}}}