{"queryCost": 1, "latitude": 36.055, "longitude": -94.19, "resolvedAddress": "36.05500,-94.19000", "address": "36.05500,-94.19000", "timezone": "America/Chicago", "tzoffset": -5.0, "days": [{"datetime": "2020-06-01", "datetimeEpoch": 1590987600, "tempmax": 81.9, "tempmin": 58.0, "temp": 70.5, "feelslikemax": 82.3, "feelslikemin": 58.0, "feelslike": 70.6, "dew": 58.8, "humidity": 69.9, "precip": 0.0, "precipprob": null, "precipcover": 0.0, "preciptype": null, "snow": 0.0, "snowdepth": 0.0, "windgust": 18.3, "windspeed": 12.8, "winddir": 115.9, "pressure": 1020.9, "cloudcover": 0.0, "visibility": 9.8, "solarradiation": 497.7, "solarenergy": 28.7, "uvindex": 10.0, "sunrise": "06:01:07", "sunriseEpoch": 1591009267, "sunset": "20:28:38", "sunsetEpoch": 1591061318, "moonphase": 0.38, "conditions": "Clear", "description": "Clear conditions throughout the day.", "icon": "clear-day", "stations": ["KSLG", "KXNA", "72344593993", "STKA4", "72344353955", "KFYV", "72343653922"], "source": "obs"}], "stations": {"KSLG": {"distance": 30667.0, "latitude": 36.2, "longitude": -94.48, "useCount": 0, "id": "KSLG", "name": "SILOAM SPRINGS, AR", "quality": 100, "contribution": 0.0}, "KXNA": {"distance": 27270.0, "latitude": 36.28, "longitude": -94.31, "useCount": 0, "id": "KXNA", "name": "KXNA", "quality": 100, "contribution": 0.0}, "72344593993": {"distance": 5373.0, "latitude": 36.01, "longitude": -94.169, "useCount": 0, "id": "72344593993", "name": "FAYETTEVILLE DRAKE FIELD, AR US", "quality": 100, "contribution": 0.0}, "STKA4": {"distance": 19719.0, "latitude": 36.118, "longitude": -94.395, "useCount": 0, "id": "STKA4", "name": "WEDINGTON AR US", "quality": 0, "contribution": 0.0}, "72344353955": {"distance": 30975.0, "latitude": 36.191, "longitude": -94.491, "useCount": 0, "id": "72344353955", "name": "SILOAM SPRINGS SMITH FIELD AIRPORT, AR US", "quality": 100, "contribution": 0.0}, "KFYV": {"distance": 6382.0, "latitude": 36.0, "longitude": -94.17, "useCount": 0, "id": "KFYV", "name": "KFYV", "quality": 100, "contribution": 0.0}, "72343653922": {"distance": 27269.0, "latitude": 36.283, "longitude": -94.3, "useCount": 0, "id": "72343653922", "name": "FAYETTEVILLE SPRINGDALE NW AR REGL AIRPORT, AR US", "quality": 100, "contribution": 0.0}}}