{"queryCost": 1, "latitude": 40.396, "longitude": -122.22, "resolvedAddress": "40.39600,-122.22000", "address": "40.39600,-122.22000", "timezone": "America/Los_Angeles", "tzoffset": -7.0, "days": [{"datetime": "2020-06-02", "datetimeEpoch": 1591081200, "tempmax": 96.1, "tempmin": 65.1, "temp": 80.8, "feelslikemax": 92.6, "feelslikemin": 65.1, "feelslike": 79.5, "dew": 53.1, "humidity": 43.3, "precip": 0.0, "precipprob": 0.0, "precipcover": 0.0, "preciptype": null, "snow": 0.0, "snowdepth": 0.0, "windgust": null, "windspeed": 14.0, "winddir": 193.6, "pressure": 1013.7, "cloudcover": 0.0, "visibility": 9.9, "solarradiation": 335.3, "solarenergy": 29.1, "uvindex": 9.0, "sunrise": "05:40:20", "sunriseEpoch": 1591101620, "sunset": "20:34:04", "sunsetEpoch": 1591155244, "moonphase": 0.43, "conditions": "Clear", "description": "Clear conditions throughout the day.", "icon": "clear-day", "stations": ["KRBL", "KRDD", "72592024257", "RRAC1", "99999904222", "72591024216"], "source": "obs"}], "stations": {"KRBL": {"distance": 27503.0, "latitude": 40.15, "longitude": -122.25, "useCount": 0, "id": "KRBL", "name": "KRBL", "quality": 100, "contribution": 0.0}, "KRDD": {"distance": 13415.0, "latitude": 40.5, "longitude": -122.3, "useCount": 0, "id": "KRDD", "name": "KRDD", "quality": 100, "contribution": 0.0}, "72592024257": {"distance": 15090.0, "latitude": 40.518, "longitude": -122.299, "useCount": 0, "id": "72592024257", "name": "REDDING MUNICIPAL AIRPORT, CA US", "quality": 100, "contribution": 0.0}, "RRAC1": {"distance": 14664.0, "latitude": 40.516, "longitude": -122.292, "useCount": 0, "id": "RRAC1", "name": "REDDING CA US", "quality": 0, "contribution": 0.0}, "99999904222": {"distance": 43316.0, "latitude": 40.651, "longitude": -122.607, "useCount": 0, "id": "99999904222", "name": "REDDING 12 WNW, CA US", "quality": 100, "contribution": 0.0}, "72591024216": {"distance": 27326.0, "latitude": 40.152, "longitude": -122.254, "useCount": 0, "id": "72591024216", "name": "RED BLUFF MUNICIPAL AIRPORT, CA US", "quality": 100, "contribution": 0.0}}}