{"queryCost": 1, "latitude": 33.306, "longitude": -112.056, "resolvedAddress": "33.30600,-112.05600", "address": "33.30600,-112.05600", "timezone": "America/Phoenix", "tzoffset": -7.0, "days": [{"datetime": "2020-05-21", "datetimeEpoch": 1590044400, "tempmax": 91.3, "tempmin": 64.4, "temp": 79.0, "feelslikemax": 87.1, "feelslikemin": 64.4, "feelslike": 77.3, "dew": 22.8, "humidity": 14.0, "precip": 0.0, "precipprob": null, "precipcover": 0.0, "preciptype": null, "snow": 0.0, "snowdepth": 0.0, "windgust": null, "windspeed": 9.5, "winddir": 168.4, "pressure": 1008.8, "cloudcover": 1.7, "visibility": 9.9, "solarradiation": 357.6, "solarenergy": 30.9, "uvindex": 10.0, "sunrise": "05:24:07", "sunriseEpoch": 1590063847, "sunset": "19:26:02", "sunsetEpoch": 1590114362, "moonphase": 1.0, "conditions": "Clear", "description": "Clear conditions throughout the day.", "icon": "clear-day", "stations": ["72278903192", "MASP", "KSDL", "72278023183", "KPHX", "72278303185", "KFFZ"], "source": "obs"}], "stations": {"72278903192": {"distance": 37749.0, "latitude": 33.623, "longitude": -111.911, "useCount": 0, "id": "72278903192", "name": "SCOTTSDALE MUNICIPAL AIRPORT, AZ US", "quality": 100, "contribution": 0.0}, "MASP": {"distance": 4780.0, "latitude": 33.344, "longitude": -112.033, "useCount": 0, "id": "MASP", "name": "South Mountain Park AZ US AZ ALERT", "quality": 0, "contribution": 0.0}, "KSDL": {"distance": 36121.0, "latitude": 33.61, "longitude": -111.92, "useCount": 0, "id": "KSDL", "name": "KSDL", "quality": 100, "contribution": 0.0}, "72278023183": {"distance": 14384.0, "latitude": 33.428, "longitude": -112.004, "useCount": 0, "id": "72278023183", "name": "PHOENIX AIRPORT, AZ US", "quality": 100, "contribution": 0.0}, "KPHX": {"distance": 14204.0, "latitude": 33.43, "longitude": -112.02, "useCount": 0, "id": "KPHX", "name": "KPHX", "quality": 100, "contribution": 0.0}, "72278303185": {"distance": 34948.0, "latitude": 33.467, "longitude": -111.733, "useCount": 0, "id": "72278303185", "name": "MESA FALCON FIELD, AZ US", "quality": 100, "contribution": 0.0}, "KFFZ": {"distance": 35376.0, "latitude": 33.47, "longitude": -111.73, "useCount": 0, "id": "KFFZ", "name": "FALCON FLD MESA, AZ", "quality": 100, "contribution": 0.0}}}