{"queryCost": 1, "latitude": 40.926, "longitude": -73.773, "resolvedAddress": "40.92600,-73.77300", "address": "40.92600,-73.77300", "timezone": "America/New_York", "tzoffset": -4.0, "days": [{"datetime": "2020-06-06", "datetimeEpoch": 1591416000, "tempmax": 85.4, "tempmin": 68.8, "temp": 76.4, "feelslikemax": 87.2, "feelslikemin": 68.8, "feelslike": 76.7, "dew": 61.4, "humidity": 65.3, "precip": 0.1, "precipprob": 100.0, "precipcover": 16.67, "preciptype": ["rain"], "snow": 0.0, "snowdepth": 0.0, "windgust": 31.7, "windspeed": 21.1, "winddir": 224.5, "pressure": 1007.7, "cloudcover": 45.8, "visibility": 7.4, "solarradiation": 133.3, "solarenergy": 11.4, "uvindex": 6.0, "sunrise": "05:23:39", "sunriseEpoch": 1591435419, "sunset": "20:24:29", "sunsetEpoch": 1591489469, "moonphase": 0.51, "conditions": "Rain, Partially cloudy", "description": "Partly cloudy throughout the day with rain.", "icon": "rain", "stations": ["72503794745", "72505394728", "KHPN", "KLGA", "D9314", "F6107", "KNYC", "72503014732"], "source": "obs"}], "stations": {"72503794745": {"distance": 16235.0, "latitude": 41.062, "longitude": -73.705, "useCount": 0, "id": "72503794745", "name": "WESTCHESTER CO AIRPORT, NY US", "quality": 100, "contribution": 0.0}, "72505394728": {"distance": 23259.0, "latitude": 40.779, "longitude": -73.969, "useCount": 0, "id": "72505394728", "name": "NY CITY CENTRAL PARK, NY US", "quality": 100, "contribution": 0.0}, "KHPN": {"distance": 17163.0, "latitude": 41.07, "longitude": -73.7, "useCount": 0, "id": "KHPN", "name": "KHPN", "quality": 100, "contribution": 0.0}, "KLGA": {"distance": 20395.0, "latitude": 40.77, "longitude": -73.9, "useCount": 0, "id": "KLGA", "name": "KLGA", "quality": 100, "contribution": 0.0}, "D9314": {"distance": 15383.0, "latitude": 40.881, "longitude": -73.6, "useCount": 0, "id": "D9314", "name": "DW9314 Locust Valley NY US", "quality": 0, "contribution": 0.0}, "F6107": {"distance": 15365.0, "latitude": 40.794, "longitude": -73.721, "useCount": 0, "id": "F6107", "name": "FW6107 Great Neck NY US", "quality": 0, "contribution": 0.0}, "KNYC": {"distance": 24605.0, "latitude": 40.77, "longitude": -73.98, "useCount": 0, "id": "KNYC", "name": "KNYC", "quality": 100, "contribution": 0.0}, "72503014732": {"distance": 18653.0, "latitude": 40.779, "longitude": -73.88, "useCount": 0, "id": "72503014732", "name": "LAGUARDIA AIRPORT, NY US", "quality": 100, "contribution": 0.0}}}