{"queryCost": 1, "latitude": 32.317, "longitude": -106.775, "resolvedAddress": "32.31700,-106.77500", "address": "32.31700,-106.77500", "timezone": "America/Denver", "tzoffset": -6.0, "days": [{"datetime": "2020-06-08", "datetimeEpoch": 1591596000, "tempmax": 89.9, "tempmin": 62.7, "temp": 78.2, "feelslikemax": 85.9, "feelslikemin": 62.7, "feelslike": 76.8, "dew": 33.2, "humidity": 20.77, "precip": 0.0, "precipprob": null, "precipcover": 0.0, "preciptype": null, "snow": 0.0, "snowdepth": 0.0, "windgust": 38.9, "windspeed": 30.7, "winddir": 264.0, "pressure": 1004.0, "cloudcover": 0.1, "visibility": 9.9, "solarradiation": 444.6, "solarenergy": 25.6, "uvindex": 10.0, "sunrise": "05:59:51", "sunriseEpoch": 1591617591, "sunset": "20:12:58", "sunsetEpoch": 1591668778, "moonphase": 0.54, "conditions": "Clear", "description": "Clear conditions throughout the day.", "icon": "wind", "stations": ["99999903074", "NMC07", "KLRU", "KBIF", "72270499999", "72269593041", "F0536"], "source": "obs"}], "stations": {"99999903074": {"distance": 33183.0, "latitude": 32.614, "longitude": -106.741, "useCount": 0, "id": "99999903074", "name": "LAS CRUCES 20 N, NM US", "quality": 100, "contribution": 0.0}, "NMC07": {"distance": 4123.0, "latitude": 32.282, "longitude": -106.76, "useCount": 0, "id": "NMC07", "name": "NMSU Main Campus NM US NMCC", "quality": 0, "contribution": 0.0}, "KLRU": {"distance": 14252.0, "latitude": 32.28, "longitude": -106.92, "useCount": 0, "id": "KLRU", "name": "KLRU", "quality": 100, "contribution": 0.0}, "KBIF": {"distance": 63957.0, "latitude": 31.85, "longitude": -106.38, "useCount": 0, "id": "KBIF", "name": "KBIF", "quality": 98, "contribution": 0.0}, "72270499999": {"distance": 64003.0, "latitude": 31.85, "longitude": -106.38, "useCount": 0, "id": "72270499999", "name": "BIGGS ARMY AIR FIELD FORT BLISS TEXAS USA, TX US", "quality": 98, "contribution": 0.0}, "72269593041": {"distance": 13878.0, "latitude": 32.283, "longitude": -106.917, "useCount": 0, "id": "72269593041", "name": "LAS CRUCES MUNICIPAL AIRPORT, NM US", "quality": 100, "contribution": 0.0}, "F0536": {"distance": 2346.0, "latitude": 32.338, "longitude": -106.771, "useCount": 0, "id": "F0536", "name": "FW0536 Las Cruces NM US", "quality": 0, "contribution": 0.0}}}