{"queryCost": 1, "latitude": 35.414, "longitude": -97.444, "resolvedAddress": "35.41400,-97.44400", "address": "35.41400,-97.44400", "timezone": "America/Chicago", "tzoffset": -5.0, "days": [{"datetime": "2015-07-04", "datetimeEpoch": 1435986000, "tempmax": 87.5, "tempmin": 70.5, "temp": 78.0, "feelslikemax": 94.0, "feelslikemin": 70.5, "feelslike": 80.2, "dew": 69.6, "humidity": 76.2, "precip": 0.03, "precipprob": 100.0, "precipcover": 8.33, "preciptype": ["rain"], "snow": 0.0, "snowdepth": 0.0, "windgust": 24.2, "windspeed": 9.5, "winddir": 137.0, "pressure": 1013.3, "cloudcover": 26.8, "visibility": 9.8, "solarradiation": 248.5, "solarenergy": 21.5, "uvindex": 9.0, "sunrise": "06:19:41", "sunriseEpoch": 1436008781, "sunset": "20:48:29", "sunsetEpoch": 1436060909, "moonphase": 0.54, "conditions": "Rain, Partially cloudy", "description": "Becoming cloudy in the afternoon with rain.", "icon": "rain", "stations": ["72354013919", "72353013967", "KTIK", "KPWA", "KOKC", "72354403954"], "source": "obs"}], "stations": {"72354013919": {"distance": 5515.0, "latitude": 35.417, "longitude": -97.383, "useCount": 0, "id": "72354013919", "name": "OKLAHOMA CITY TINKER AFB, OK US", "quality": 99, "contribution": 0.0}, "72353013967": {"distance": 14482.0, "latitude": 35.389, "longitude": -97.601, "useCount": 0, "id": "72353013967", "name": "OKLAHOMA CITY WILL ROGERS WORLD AIRPORT, OK US", "quality": 100, "contribution": 0.0}, "KTIK": {"distance": 5844.0, "latitude": 35.42, "longitude": -97.38, "useCount": 0, "id": "KTIK", "name": "KTIK", "quality": 100, "contribution": 0.0}, "KPWA": {"distance": 22705.0, "latitude": 35.53, "longitude": -97.65, "useCount": 0, "id": "KPWA", "name": "KPWA", "quality": 100, "contribution": 0.0}, "KOKC": {"distance": 14240.0, "latitude": 35.4, "longitude": -97.6, "useCount": 0, "id": "KOKC", "name": "KOKC", "quality": 100, "contribution": 0.0}, "72354403954": {"distance": 22746.0, "latitude": 35.534, "longitude": -97.647, "useCount": 0, "id": "72354403954", "name": "OKLAHOMA CITY WILEY POST AIRPORT, OK US", "quality": 100, "contribution": 0.0}}}