{"queryCost": 1, "latitude": 33.722, "longitude": -84.4, "resolvedAddress": "33.72200,-84.40000", "address": "33.72200,-84.40000", "timezone": "America/New_York", "tzoffset": -4.0, "days": [{"datetime": "2020-06-12", "datetimeEpoch": 1591934400, "tempmax": 86.4, "tempmin": 65.2, "temp": 76.1, "feelslikemax": 86.6, "feelslikemin": 65.2, "feelslike": 76.4, "dew": 60.5, "humidity": 59.83, "precip": 0.01, "precipprob": null, "precipcover": 4.17, "preciptype": null, "snow": 0.0, "snowdepth": 0.0, "windgust": 21.9, "windspeed": 16.0, "winddir": 188.5, "pressure": 1019.2, "cloudcover": 41.5, "visibility": 9.9, "solarradiation": 516.0, "solarenergy": 44.6, "uvindex": 5.0, "sunrise": "06:26:36", "sunriseEpoch": 1591957596, "sunset": "20:48:46", "sunsetEpoch": 1592009326, "moonphase": 0.72, "conditions": "Rain, Partially cloudy", "description": "Partly cloudy throughout the day with late afternoon rain.", "icon": "rain", "stations": ["1066W", "KFTY", "72219013874", "KATL", "72219503888", "72219653863", "KPDK"], "source": "obs"}], "stations": {"1066W": {"distance": 1775.0, "latitude": 33.735, "longitude": -84.39, "useCount": 0, "id": "1066W", "name": "Georgia State University GA US WEATHERSTEM", "quality": 0, "contribution": 0.0}, "KFTY": {"distance": 12847.0, "latitude": 33.78, "longitude": -84.52, "useCount": 0, "id": "KFTY", "name": "KFTY", "quality": 100, "contribution": 0.0}, "72219013874": {"distance": 10939.0, "latitude": 33.63, "longitude": -84.442, "useCount": 0, "id": "72219013874", "name": "ATLANTA HARTSFIELD INTERNATIONAL AIRPORT, GA US", "quality": 100, "contribution": 0.0}, "KATL": {"distance": 8226.0, "latitude": 33.65, "longitude": -84.42, "useCount": 0, "id": "KATL", "name": "KATL", "quality": 100, "contribution": 0.0}, "72219503888": {"distance": 12915.0, "latitude": 33.779, "longitude": -84.521, "useCount": 0, "id": "72219503888", "name": "ATLANTA FULTON CO AIRPORT, GA US", "quality": 100, "contribution": 0.0}, "72219653863": {"distance": 19286.0, "latitude": 33.875, "longitude": -84.302, "useCount": 0, "id": "72219653863", "name": "ATLANTA DEKALB PEACHTREE AIRPORT, GA US", "quality": 100, "contribution": 0.0}, "KPDK": {"distance": 19873.0, "latitude": 33.88, "longitude": -84.3, "useCount": 0, "id": "KPDK", "name": "KPDK", "quality": 100, "contribution": 0.0}}}