{"queryCost": 1, "latitude": 37.662, "longitude": -121.872, "resolvedAddress": "37.66200,-121.87200", "address": "37.66200,-121.87200", "timezone": "America/Los_Angeles", "tzoffset": -7.0, "days": [{"datetime": "2015-07-05", "datetimeEpoch": 1436079600, "tempmax": 82.0, "tempmin": 62.1, "temp": 69.9, "feelslikemax": 81.8, "feelslikemin": 62.1, "feelslike": 69.9, "dew": 57.0, "humidity": 65.7, "precip": 0.0, "precipprob": 0.0, "precipcover": 0.0, "preciptype": null, "snow": 0.0, "snowdepth": 0.0, "windgust": 26.4, "windspeed": 20.5, "winddir": 291.9, "pressure": 1012.7, "cloudcover": 27.0, "visibility": 9.6, "solarradiation": 353.4, "solarenergy": 30.4, "uvindex": 10.0, "sunrise": "05:51:35", "sunriseEpoch": 1436100695, "sunset": "20:32:21", "sunsetEpoch": 1436153541, "moonphase": 0.57, "conditions": "Partially cloudy", "description": "Clearing in the afternoon.", "icon": "partly-cloudy-day", "stations": ["72585093228", "72493023230", "KLVK", "72492723285", "KHWD", "KOAK"], "source": "obs"}], "stations": {"72585093228": {"distance": 21433.0, "latitude": 37.654, "longitude": -122.115, "useCount": 0, "id": "72585093228", "name": "HAYWARD AIR TERMINAL, CA US", "quality": 100, "contribution": 0.0}, "72493023230": {"distance": 31446.0, "latitude": 37.721, "longitude": -122.221, "useCount": 0, "id": "72493023230", "name": "OAKLAND METROPOLITAN, CA US", "quality": 100, "contribution": 0.0}, "KLVK": {"distance": 6236.0, "latitude": 37.7, "longitude": -121.82, "useCount": 0, "id": "KLVK", "name": "LIVERMORE, CA", "quality": 100, "contribution": 0.0}, "72492723285": {"distance": 6148.0, "latitude": 37.693, "longitude": -121.814, "useCount": 0, "id": "72492723285", "name": "LIVERMORE MUNICIPAL AIRPORT, CA US", "quality": 100, "contribution": 0.0}, "KHWD": {"distance": 21872.0, "latitude": 37.67, "longitude": -122.12, "useCount": 0, "id": "KHWD", "name": "KHWD", "quality": 100, "contribution": 0.0}, "KOAK": {"distance": 31328.0, "latitude": 37.72, "longitude": -122.22, "useCount": 0, "id": "KOAK", "name": "KOAK", "quality": 100, "contribution": 0.0}}}