{"queryCost": 1, "latitude": 38.95, "longitude": -95.236, "resolvedAddress": "38.95000,-95.23600", "address": "38.95000,-95.23600", "timezone": "America/Chicago", "tzoffset": -5.0, "days": [{"datetime": "2020-06-15", "datetimeEpoch": 1592197200, "tempmax": 92.8, "tempmin": 69.3, "temp": 81.3, "feelslikemax": 93.0, "feelslikemin": 69.3, "feelslike": 81.6, "dew": 63.5, "humidity": 57.91, "precip": 0.0, "precipprob": null, "precipcover": 0.0, "preciptype": null, "snow": 0.0, "snowdepth": 0.0, "windgust": 23.0, "windspeed": 15.9, "winddir": 146.5, "pressure": 1019.9, "cloudcover": 3.2, "visibility": 9.9, "solarradiation": 448.1, "solarenergy": 25.8, "uvindex": 10.0, "sunrise": "05:54:59", "sunriseEpoch": 1592218499, "sunset": "20:48:21", "sunsetEpoch": 1592272101, "moonphase": 0.86, "conditions": "Clear", "description": "Clear conditions throughout the day.", "icon": "clear-day", "stations": ["72450803997", "KIXD", "KTOP", "F1237", "72456013996", "KLWC", "72447593909"], "source": "obs"}], "stations": {"72450803997": {"distance": 6772.0, "latitude": 39.008, "longitude": -95.212, "useCount": 0, "id": "72450803997", "name": "LAWRENCE ASOS, KS US", "quality": 100, "contribution": 0.0}, "KIXD": {"distance": 33614.0, "latitude": 38.83, "longitude": -94.88, "useCount": 0, "id": "KIXD", "name": "KIXD", "quality": 100, "contribution": 0.0}, "KTOP": {"distance": 35801.0, "latitude": 39.07, "longitude": -95.62, "useCount": 0, "id": "KTOP", "name": "KTOP", "quality": 100, "contribution": 0.0}, "F1237": {"distance": 4733.0, "latitude": 38.935, "longitude": -95.287, "useCount": 0, "id": "F1237", "name": "FW1237 Lawrence KS US", "quality": 0, "contribution": 0.0}, "72456013996": {"distance": 36394.0, "latitude": 39.073, "longitude": -95.626, "useCount": 0, "id": "72456013996", "name": "TOPEKA ASOS, KS US", "quality": 100, "contribution": 0.0}, "KLWC": {"distance": 6821.0, "latitude": 39.01, "longitude": -95.22, "useCount": 0, "id": "KLWC", "name": "KLWC", "quality": 100, "contribution": 0.0}, "72447593909": {"distance": 32768.0, "latitude": 38.832, "longitude": -94.89, "useCount": 0, "id": "72447593909", "name": "OLATHE JOHNSON CO INDUSTRIAL AIRPORT, KS US", "quality": 100, "contribution": 0.0}}}