{"queryCost": 1, "latitude": 37.441, "longitude": -121.877, "resolvedAddress": "37.44100,-121.87700", "address": "37.44100,-121.87700", "timezone": "America/Los_Angeles", "tzoffset": -7.0, "days": [{"datetime": "2020-06-21", "datetimeEpoch": 1592722800, "tempmax": 80.7, "tempmin": 58.0, "temp": 67.9, "feelslikemax": 81.0, "feelslikemin": 58.0, "feelslike": 67.9, "dew": 54.5, "humidity": 63.9, "precip": 0.0, "precipprob": 0.0, "precipcover": 0.0, "preciptype": null, "snow": 0.0, "snowdepth": 0.0, "windgust": null, "windspeed": 16.5, "winddir": 296.4, "pressure": 1014.3, "cloudcover": 29.9, "visibility": 9.9, "solarradiation": 343.4, "solarenergy": 29.6, "uvindex": 10.0, "sunrise": "05:47:06", "sunriseEpoch": 1592743626, "sunset": "20:31:54", "sunsetEpoch": 1592796714, "moonphase": 0.0, "conditions": "Partially cloudy", "description": "Partly cloudy throughout the day.", "icon": "partly-cloudy-day", "stations": ["72585093228", "KSJC", "KLVK", "72492723285", "KHWD", "72494523293", "F0228"], "source": "obs"}], "stations": {"72585093228": {"distance": 31694.0, "latitude": 37.654, "longitude": -122.115, "useCount": 0, "id": "72585093228", "name": "HAYWARD AIR TERMINAL, CA US", "quality": 100, "contribution": 0.0}, "KSJC": {"distance": 9786.0, "latitude": 37.36, "longitude": -121.92, "useCount": 0, "id": "KSJC", "name": "KSJC", "quality": 100, "contribution": 0.0}, "KLVK": {"distance": 29267.0, "latitude": 37.7, "longitude": -121.82, "useCount": 0, "id": "KLVK", "name": "LIVERMORE, CA", "quality": 100, "contribution": 0.0}, "72492723285": {"distance": 28565.0, "latitude": 37.693, "longitude": -121.814, "useCount": 0, "id": "72492723285", "name": "LIVERMORE MUNICIPAL AIRPORT, CA US", "quality": 100, "contribution": 0.0}, "KHWD": {"distance": 33313.0, "latitude": 37.67, "longitude": -122.12, "useCount": 0, "id": "KHWD", "name": "KHWD", "quality": 100, "contribution": 0.0}, "72494523293": {"distance": 10020.0, "latitude": 37.359, "longitude": -121.924, "useCount": 0, "id": "72494523293", "name": "SAN JOSE, CA US", "quality": 100, "contribution": 0.0}, "F0228": {"distance": 6875.0, "latitude": 37.5, "longitude": -121.9, "useCount": 0, "id": "F0228", "name": "FW0228 Sunol CA US", "quality": 0, "contribution": 0.0}}}