{"queryCost": 1, "latitude": 30.38, "longitude": -97.702, "resolvedAddress": "30.38000,-97.70200", "address": "30.38000,-97.70200", "timezone": "America/Chicago", "tzoffset": -5.0, "days": [{"datetime": "2015-07-05", "datetimeEpoch": 1436072400, "tempmax": 90.5, "tempmin": 74.8, "temp": 82.1, "feelslikemax": 99.1, "feelslikemin": 74.8, "feelslike": 85.8, "dew": 73.0, "humidity": 75.7, "precip": 0.0, "precipprob": 0.0, "precipcover": 0.0, "preciptype": null, "snow": 0.0, "snowdepth": 0.0, "windgust": 23.8, "windspeed": 14.2, "winddir": 161.7, "pressure": 1015.2, "cloudcover": 62.5, "visibility": 9.5, "solarradiation": 297.6, "solarenergy": 25.7, "uvindex": 9.0, "sunrise": "06:34:02", "sunriseEpoch": 1436096042, "sunset": "20:36:35", "sunsetEpoch": 1436146595, "moonphase": 0.57, "conditions": "Partially cloudy", "description": "Partly cloudy throughout the day.", "icon": "partly-cloudy-day", "stations": ["KATT", "72064800230", "KAUS", "KEDC", "72254013904", "72254413958"], "source": "obs"}], "stations": {"KATT": {"distance": 9343.0, "latitude": 30.32, "longitude": -97.77, "useCount": 0, "id": "KATT", "name": "KATT", "quality": 100, "contribution": 0.0}, "72064800230": {"distance": 13071.0, "latitude": 30.395, "longitude": -97.567, "useCount": 0, "id": "72064800230", "name": "AUSTIN EXECUTIVE AIRPORT, TX US", "quality": 99, "contribution": 0.0}, "KAUS": {"distance": 21373.0, "latitude": 30.19, "longitude": -97.67, "useCount": 0, "id": "KAUS", "name": "KAUS", "quality": 100, "contribution": 0.0}, "KEDC": {"distance": 12869.0, "latitude": 30.4, "longitude": -97.57, "useCount": 0, "id": "KEDC", "name": "KEDC", "quality": 98, "contribution": 0.0}, "72254013904": {"distance": 22022.0, "latitude": 30.183, "longitude": -97.68, "useCount": 0, "id": "72254013904", "name": "AUSTIN BERGSTROM INTERNATIONAL AIRPORT, TX US", "quality": 100, "contribution": 0.0}, "72254413958": {"distance": 8655.0, "latitude": 30.321, "longitude": -97.76, "useCount": 0, "id": "72254413958", "name": "AUSTIN CAMP MABRY, TX US", "quality": 100, "contribution": 0.0}}}