{"queryCost": 1, "latitude": 38.246, "longitude": -104.632, "resolvedAddress": "38.24600,-104.63200", "address": "38.24600,-104.63200", "timezone": "America/Denver", "tzoffset": -6.0, "days": [{"datetime": "2020-06-23", "datetimeEpoch": 1592892000, "tempmax": 86.2, "tempmin": 55.8, "temp": 71.9, "feelslikemax": 83.8, "feelslikemin": 55.8, "feelslike": 71.6, "dew": 53.9, "humidity": 56.3, "precip": 0.06, "precipprob": 100.0, "precipcover": 12.5, "preciptype": ["rain"], "snow": 0.0, "snowdepth": 0.0, "windgust": 37.8, "windspeed": 24.1, "winddir": 134.9, "pressure": 1014.5, "cloudcover": 20.1, "visibility": 9.9, "solarradiation": 277.4, "solarenergy": 23.9, "uvindex": 10.0, "sunrise": "05:36:10", "sunriseEpoch": 1592912170, "sunset": "20:25:40", "sunsetEpoch": 1592965540, "moonphase": 0.03, "conditions": "Rain, Partially cloudy", "description": "Becoming cloudy in the afternoon with rain.", "icon": "rain", "stations": ["KPUB", "72468094015", "E6496", "72466093037", "72464093058", "KFCS", "KCOS"], "source": "obs"}], "stations": {"KPUB": {"distance": 10496.0, "latitude": 38.28, "longitude": -104.52, "useCount": 0, "id": "KPUB", "name": "KPUB", "quality": 100, "contribution": 0.0}, "72468094015": {"distance": 49341.0, "latitude": 38.678, "longitude": -104.757, "useCount": 0, "id": "72468094015", "name": "FORT CARSON BUTTS ARMY AIR FIELD, CO US", "quality": 94, "contribution": 0.0}, "E6496": {"distance": 7555.0, "latitude": 38.298, "longitude": -104.576, "useCount": 0, "id": "E6496", "name": "EW6496 Pueblo CO US", "quality": 0, "contribution": 0.0}, "72466093037": {"distance": 62973.0, "latitude": 38.81, "longitude": -104.688, "useCount": 0, "id": "72466093037", "name": "COLORADO SPRINGS MUNICIPAL AIRPORT, CO US", "quality": 100, "contribution": 0.0}, "72464093058": {"distance": 11994.0, "latitude": 38.289, "longitude": -104.506, "useCount": 0, "id": "72464093058", "name": "PUEBLO MEMORIAL AIRPORT, CO US", "quality": 100, "contribution": 0.0}, "KFCS": {"distance": 49788.0, "latitude": 38.68, "longitude": -104.77, "useCount": 0, "id": "KFCS", "name": "KFCS", "quality": 100, "contribution": 0.0}, "KCOS": {"distance": 64355.0, "latitude": 38.82, "longitude": -104.72, "useCount": 0, "id": "KCOS", "name": "KCOS", "quality": 100, "contribution": 0.0}}}