{"queryCost": 1, "latitude": 33.746, "longitude": -116.355, "resolvedAddress": "33.74600,-116.35500", "address": "33.74600,-116.35500", "timezone": "America/Los_Angeles", "tzoffset": -7.0, "days": [{"datetime": "2020-06-22", "datetimeEpoch": 1592809200, "tempmax": 107.2, "tempmin": 74.5, "temp": 92.6, "feelslikemax": 101.8, "feelslikemin": 74.5, "feelslike": 90.3, "dew": 51.0, "humidity": 27.4, "precip": 0.0, "precipprob": 0.0, "precipcover": 0.0, "preciptype": null, "snow": 0.0, "snowdepth": 0.0, "windgust": null, "windspeed": 10.5, "winddir": 190.8, "pressure": 1008.6, "cloudcover": 0.0, "visibility": 9.8, "solarradiation": 321.5, "solarenergy": 27.8, "uvindex": 10.0, "sunrise": "05:35:44", "sunriseEpoch": 1592829344, "sunset": "19:59:29", "sunsetEpoch": 1592881169, "moonphase": 0.01, "conditions": "Clear", "description": "Clear conditions throughout the day.", "icon": "clear-day", "stations": ["KPSP", "74718703104", "KTRM", "KNXP", "72286893138", "72068799999", "D0742"], "source": "obs"}], "stations": {"KPSP": {"distance": 16352.0, "latitude": 33.83, "longitude": -116.5, "useCount": 0, "id": "KPSP", "name": "KPSP", "quality": 100, "contribution": 0.0}, "74718703104": {"distance": 22494.0, "latitude": 33.627, "longitude": -116.159, "useCount": 0, "id": "74718703104", "name": "DESERT RESORTS REGIONAL AIRPORT, CA US", "quality": 96, "contribution": 0.0}, "KTRM": {"distance": 21456.0, "latitude": 33.63, "longitude": -116.17, "useCount": 0, "id": "KTRM", "name": "KTRM", "quality": 93, "contribution": 0.0}, "KNXP": {"distance": 62668.0, "latitude": 34.28, "longitude": -116.14, "useCount": 0, "id": "KNXP", "name": "KNXP", "quality": 100, "contribution": 0.0}, "72286893138": {"distance": 16186.0, "latitude": 33.822, "longitude": -116.504, "useCount": 0, "id": "72286893138", "name": "PALM SPRINGS ASOS, CA US", "quality": 100, "contribution": 0.0}, "72068799999": {"distance": 61298.0, "latitude": 33.733, "longitude": -117.017, "useCount": 0, "id": "72068799999", "name": "HEMET RYAN, CA US", "quality": 98, "contribution": 0.0}, "D0742": {"distance": 5980.0, "latitude": 33.698, "longitude": -116.384, "useCount": 0, "id": "D0742", "name": "DW0742 Palm Desert CA US", "quality": 0, "contribution": 0.0}}}