{"queryCost": 1, "latitude": 34.721, "longitude": -92.237, "resolvedAddress": "34.72100,-92.23700", "address": "34.72100,-92.23700", "timezone": "America/Chicago", "tzoffset": -5.0, "days": [{"datetime": "2020-06-27", "datetimeEpoch": 1593234000, "tempmax": 89.1, "tempmin": 70.1, "temp": 80.2, "feelslikemax": 97.3, "feelslikemin": 70.1, "feelslike": 83.3, "dew": 71.7, "humidity": 76.7, "precip": 0.0, "precipprob": 0.0, "precipcover": 0.0, "preciptype": null, "snow": 0.0, "snowdepth": 0.0, "windgust": 25.3, "windspeed": 16.1, "winddir": 207.5, "pressure": 1015.0, "cloudcover": 69.9, "visibility": 5.1, "solarradiation": 276.5, "solarenergy": 24.0, "uvindex": 9.0, "sunrise": "05:58:08", "sunriseEpoch": 1593255488, "sunset": "20:26:09", "sunsetEpoch": 1593307569, "moonphase": 0.2, "conditions": "Partially cloudy", "description": "Partly cloudy throughout the day.", "icon": "partly-cloudy-day", "stations": ["72340503930", "72341613925", "72340313963", "KLRF", "KSGT", "D8400", "KLIT"], "source": "obs"}], "stations": {"72340503930": {"distance": 23191.0, "latitude": 34.917, "longitude": -92.15, "useCount": 0, "id": "72340503930", "name": "LITTLE ROCK AFB, AR US", "quality": 99, "contribution": 0.0}, "72341613925": {"distance": 62140.0, "latitude": 34.6, "longitude": -91.574, "useCount": 0, "id": "72341613925", "name": "STUTTGART MUNICIPAL AIRPORT, AR US", "quality": 99, "contribution": 0.0}, "72340313963": {"distance": 723.0, "latitude": 34.727, "longitude": -92.239, "useCount": 0, "id": "72340313963", "name": "LITTLE ROCK AIRPORT ADAMS FIELD, AR US", "quality": 100, "contribution": 0.0}, "KLRF": {"distance": 23536.0, "latitude": 34.92, "longitude": -92.15, "useCount": 0, "id": "KLRF", "name": "KLRF", "quality": 100, "contribution": 0.0}, "KSGT": {"distance": 62541.0, "latitude": 34.6, "longitude": -91.57, "useCount": 0, "id": "KSGT", "name": "STUTTGART, AR", "quality": 100, "contribution": 0.0}, "D8400": {"distance": 17380.0, "latitude": 34.869, "longitude": -92.177, "useCount": 0, "id": "D8400", "name": "DW8400 Jacksonville AR US", "quality": 0, "contribution": 0.0}, "KLIT": {"distance": 650.0, "latitude": 34.72, "longitude": -92.23, "useCount": 0, "id": "KLIT", "name": "KLIT", "quality": 100, "contribution": 0.0}}}