{"queryCost": 1, "latitude": 39.718, "longitude": -84.143, "resolvedAddress": "39.71800,-84.14300", "address": "39.71800,-84.14300", "timezone": "America/New_York", "tzoffset": -4.0, "days": [{"datetime": "2020-06-28", "datetimeEpoch": 1593316800, "tempmax": 83.4, "tempmin": 69.4, "temp": 75.2, "feelslikemax": 86.5, "feelslikemin": 69.4, "feelslike": 75.8, "dew": 68.4, "humidity": 80.68, "precip": 0.0, "precipprob": null, "precipcover": 0.0, "preciptype": null, "snow": 0.0, "snowdepth": 0.0, "windgust": null, "windspeed": 7.8, "winddir": 238.0, "pressure": 1010.4, "cloudcover": 62.8, "visibility": 9.3, "solarradiation": 209.1, "solarenergy": 12.0, "uvindex": 5.0, "sunrise": "06:11:20", "sunriseEpoch": 1593339080, "sunset": "21:08:33", "sunsetEpoch": 1593392913, "moonphase": 0.26, "conditions": "Partially cloudy", "description": "Partly cloudy throughout the day.", "icon": "partly-cloudy-day", "stations": ["72429093815", "F5222", "KDAY", "74570013840", "KMGY", "KFFO", "72427653859"], "source": "obs"}], "stations": {"72429093815": {"distance": 21944.0, "latitude": 39.906, "longitude": -84.218, "useCount": 0, "id": "72429093815", "name": "DAYTON INTERNATIONAL AIRPORT, OH US", "quality": 100, "contribution": 0.0}, "F5222": {"distance": 11027.0, "latitude": 39.636, "longitude": -84.071, "useCount": 0, "id": "F5222", "name": "FW5222 Bellbrook OH US", "quality": 0, "contribution": 0.0}, "KDAY": {"distance": 20838.0, "latitude": 39.9, "longitude": -84.2, "useCount": 0, "id": "KDAY", "name": "KDAY", "quality": 100, "contribution": 0.0}, "74570013840": {"distance": 15101.0, "latitude": 39.833, "longitude": -84.05, "useCount": 0, "id": "74570013840", "name": "DAYTON WRIGHT PATTERSON AFB, OH US", "quality": 100, "contribution": 0.0}, "KMGY": {"distance": 15104.0, "latitude": 39.6, "longitude": -84.23, "useCount": 0, "id": "KMGY", "name": "KMGY", "quality": 100, "contribution": 0.0}, "KFFO": {"distance": 14790.0, "latitude": 39.83, "longitude": -84.05, "useCount": 0, "id": "KFFO", "name": "KFFO", "quality": 100, "contribution": 0.0}, "72427653859": {"distance": 15584.0, "latitude": 39.594, "longitude": -84.226, "useCount": 0, "id": "72427653859", "name": "DAYTON WRIGHT BROTHERS AIRPORT, OH US", "quality": 100, "contribution": 0.0}}}