{"queryCost": 1, "latitude": 29.96, "longitude": -95.429, "resolvedAddress": "29.96000,-95.42900", "address": "29.96000,-95.42900", "timezone": "America/Chicago", "tzoffset": -5.0, "days": [{"datetime": "2020-07-07", "datetimeEpoch": 1594098000, "tempmax": 92.7, "tempmin": 80.2, "temp": 84.5, "feelslikemax": 103.0, "feelslikemin": 85.4, "feelslike": 92.6, "dew": 75.4, "humidity": 75.3, "precip": 0.46, "precipprob": 100.0, "precipcover": 8.33, "preciptype": ["rain"], "snow": 0.0, "snowdepth": 0.0, "windgust": 28.9, "windspeed": 10.2, "winddir": 158.3, "pressure": 1013.5, "cloudcover": 58.9, "visibility": 9.8, "solarradiation": 145.3, "solarenergy": 12.7, "uvindex": 6.0, "sunrise": "06:27:14", "sunriseEpoch": 1594121234, "sunset": "20:26:10", "sunsetEpoch": 1594171570, "moonphase": 0.53, "conditions": "Rain, Partially cloudy", "description": "Partly cloudy throughout the day with afternoon rain.", "icon": "rain", "stations": ["72059400188", "72242953910", "E8324", "KIAH", "KDWH", "72243012960"], "source": "obs"}], "stations": {"72059400188": {"distance": 27413.0, "latitude": 29.717, "longitude": -95.383, "useCount": 0, "id": "72059400188", "name": "HOUSTON DUNN HELISTOP, TX US", "quality": 100, "contribution": 0.0}, "72242953910": {"distance": 17126.0, "latitude": 30.068, "longitude": -95.556, "useCount": 0, "id": "72242953910", "name": "HOUSTON HOOKS MEMORIAL AIRPORT, TX US", "quality": 100, "contribution": 0.0}, "E8324": {"distance": 9646.0, "latitude": 30.046, "longitude": -95.443, "useCount": 0, "id": "E8324", "name": "EW8324 Spring TX US", "quality": 0, "contribution": 0.0}, "KIAH": {"distance": 7700.0, "latitude": 29.97, "longitude": -95.35, "useCount": 0, "id": "KIAH", "name": "KIAH", "quality": 100, "contribution": 0.0}, "KDWH": {"distance": 16911.0, "latitude": 30.07, "longitude": -95.55, "useCount": 0, "id": "KDWH", "name": "KDWH", "quality": 100, "contribution": 0.0}, "72243012960": {"distance": 7017.0, "latitude": 29.98, "longitude": -95.36, "useCount": 0, "id": "72243012960", "name": "HOUSTON INTERCONTINENTAL AIRPORT, TX US", "quality": 100, "contribution": 0.0}}}