{"queryCost": 1, "latitude": 41.523, "longitude": -76.684, "resolvedAddress": "41.52300,-76.68400", "address": "41.52300,-76.68400", "timezone": "America/New_York", "tzoffset": -4.0, "days": [{"datetime": "2020-07-10", "datetimeEpoch": 1594353600, "tempmax": 82.5, "tempmin": 72.0, "temp": 76.2, "feelslikemax": 85.3, "feelslikemin": 72.0, "feelslike": 76.9, "dew": 69.2, "humidity": 79.8, "precip": 0.09, "precipprob": 100.0, "precipcover": 25.0, "preciptype": ["rain"], "snow": 0.0, "snowdepth": 0.0, "windgust": 24.2, "windspeed": 9.3, "winddir": 137.7, "pressure": 1011.2, "cloudcover": 27.6, "visibility": 9.5, "solarradiation": 122.7, "solarenergy": 10.5, "uvindex": 6.0, "sunrise": "05:42:34", "sunriseEpoch": 1594374154, "sunset": "20:41:32", "sunsetEpoch": 1594428092, "moonphase": 0.64, "conditions": "Rain, Partially cloudy", "description": "Partly cloudy throughout the day with rain.", "icon": "rain", "stations": ["KIPT", "72514014778", "72510514770", "KELM", "72515614748", "KSEG", "ROAP1"], "source": "obs"}], "stations": {"KIPT": {"distance": 36222.0, "latitude": 41.25, "longitude": -76.92, "useCount": 0, "id": "KIPT", "name": "KIPT", "quality": 100, "contribution": 0.0}, "72514014778": {"distance": 36927.0, "latitude": 41.243, "longitude": -76.922, "useCount": 0, "id": "72514014778", "name": "WILLIAMSPORT REGIONAL AIRPORT, PA US", "quality": 100, "contribution": 0.0}, "72510514770": {"distance": 79635.0, "latitude": 40.821, "longitude": -76.864, "useCount": 0, "id": "72510514770", "name": "SELINSGROVE PENN VALLEY AIRPORT, PA US", "quality": 100, "contribution": 0.0}, "KELM": {"distance": 74218.0, "latitude": 42.17, "longitude": -76.9, "useCount": 0, "id": "KELM", "name": "KELM", "quality": 100, "contribution": 0.0}, "72515614748": {"distance": 72912.0, "latitude": 42.159, "longitude": -76.892, "useCount": 0, "id": "72515614748", "name": "ELMIRA CORNING REGIONAL AIRPORT, NY US", "quality": 100, "contribution": 0.0}, "KSEG": {"distance": 79635.0, "latitude": 40.82, "longitude": -76.86, "useCount": 0, "id": "KSEG", "name": "KSEG", "quality": 100, "contribution": 0.0}, "ROAP1": {"distance": 32527.0, "latitude": 41.647, "longitude": -76.33, "useCount": 0, "id": "ROAP1", "name": "RIENZE PA US", "quality": 0, "contribution": 0.0}}}