{"queryCost": 1, "latitude": 34.9, "longitude": -82.436, "resolvedAddress": "34.90000,-82.43600", "address": "34.90000,-82.43600", "timezone": "America/New_York", "tzoffset": -4.0, "days": [{"datetime": "2020-07-11", "datetimeEpoch": 1594440000, "tempmax": 92.1, "tempmin": 72.2, "temp": 81.9, "feelslikemax": 92.6, "feelslikemin": 72.2, "feelslike": 82.4, "dew": 65.1, "humidity": 60.0, "precip": 0.0, "precipprob": 0.0, "precipcover": 0.0, "preciptype": null, "snow": 0.0, "snowdepth": 0.0, "windgust": null, "windspeed": 11.2, "winddir": 152.5, "pressure": 1011.2, "cloudcover": 11.1, "visibility": 9.8, "solarradiation": 283.0, "solarenergy": 24.6, "uvindex": 10.0, "sunrise": "06:25:17", "sunriseEpoch": 1594463117, "sunset": "20:45:11", "sunsetEpoch": 1594514711, "moonphase": 0.68, "conditions": "Clear", "description": "Clear conditions throughout the day.", "icon": "clear-day", "stations": ["72074400271", "1184W", "72311913886", "72312003870", "KGMU", "KLQK", "KGSP"], "source": "obs"}], "stations": {"72074400271": {"distance": 25825.0, "latitude": 34.817, "longitude": -82.7, "useCount": 0, "id": "72074400271", "name": "PICKENS CO AIRPORT, SC US", "quality": 100, "contribution": 0.0}, "1184W": {"distance": 5132.0, "latitude": 34.94, "longitude": -82.409, "useCount": 0, "id": "1184W", "name": "ETV Greenville SC US WEATHERSTEM", "quality": 0, "contribution": 0.0}, "72311913886": {"distance": 10169.0, "latitude": 34.846, "longitude": -82.346, "useCount": 0, "id": "72311913886", "name": "GREENVILLE DOWNTOWN AIRPORT, SC US", "quality": 100, "contribution": 0.0}, "72312003870": {"distance": 20416.0, "latitude": 34.906, "longitude": -82.212, "useCount": 0, "id": "72312003870", "name": "GRNVL SPART INTERNATIONAL AIRPORT, SC US", "quality": 100, "contribution": 0.0}, "KGMU": {"distance": 9626.0, "latitude": 34.85, "longitude": -82.35, "useCount": 0, "id": "KGMU", "name": "KGMU", "quality": 100, "contribution": 0.0}, "KLQK": {"distance": 26114.0, "latitude": 34.81, "longitude": -82.7, "useCount": 0, "id": "KLQK", "name": "KLQK", "quality": 99, "contribution": 0.0}, "KGSP": {"distance": 19721.0, "latitude": 34.9, "longitude": -82.22, "useCount": 0, "id": "KGSP", "name": "KGSP", "quality": 100, "contribution": 0.0}}}