{"queryCost": 1, "latitude": 41.503, "longitude": -87.623, "resolvedAddress": "41.50300,-87.62300", "address": "41.50300,-87.62300", "timezone": "America/Chicago", "tzoffset": -5.0, "days": [{"datetime": "2020-07-18", "datetimeEpoch": 1595048400, "tempmax": 88.8, "tempmin": 72.0, "temp": 80.5, "feelslikemax": 101.9, "feelslikemin": 72.0, "feelslike": 86.4, "dew": 73.7, "humidity": 80.2, "precip": 0.0, "precipprob": 0.0, "precipcover": 0.0, "preciptype": null, "snow": 0.0, "snowdepth": 0.0, "windgust": 29.8, "windspeed": 16.0, "winddir": 196.3, "pressure": 1013.1, "cloudcover": 16.7, "visibility": 9.9, "solarradiation": 228.5, "solarenergy": 19.8, "uvindex": 9.0, "sunrise": "05:32:45", "sunriseEpoch": 1595068365, "sunset": "20:20:23", "sunsetEpoch": 1595121623, "moonphase": 0.98, "conditions": "Clear", "description": "Clear conditions throughout the day.", "icon": "clear-day", "stations": ["0735W", "72534014819", "72212604879", "72534804831", "KMDW", "KIGQ"], "source": "obs"}], "stations": {"0735W": {"distance": 11024.0, "latitude": 41.601, "longitude": -87.604, "useCount": 0, "id": "0735W", "name": "Coolidge Middle School IL US WEATHERSTEM", "quality": 0, "contribution": 0.0}, "72534014819": {"distance": 33297.0, "latitude": 41.786, "longitude": -87.752, "useCount": 0, "id": "72534014819", "name": "CHICAGO MIDWAY AIRPORT, IL US", "quality": 100, "contribution": 0.0}, "72212604879": {"distance": 8622.0, "latitude": 41.54, "longitude": -87.532, "useCount": 0, "id": "72212604879", "name": "CHICAGO LANSING MUNICIPAL AIRPORT, IL US", "quality": 100, "contribution": 0.0}, "72534804831": {"distance": 40098.0, "latitude": 41.604, "longitude": -88.085, "useCount": 0, "id": "72534804831", "name": "ROMEOVILLE WEATHER FORECAST OFFICE, IL US", "quality": 100, "contribution": 0.0}, "KMDW": {"distance": 32595.0, "latitude": 41.78, "longitude": -87.75, "useCount": 0, "id": "KMDW", "name": "KMDW", "quality": 100, "contribution": 0.0}, "KIGQ": {"distance": 8778.0, "latitude": 41.54, "longitude": -87.53, "useCount": 0, "id": "KIGQ", "name": "KIGQ", "quality": 100, "contribution": 0.0}}}