{"queryCost": 1, "latitude": 35.377, "longitude": -97.548, "resolvedAddress": "35.37700,-97.54800", "address": "35.37700,-97.54800", "timezone": "America/Chicago", "tzoffset": -5.0, "days": [{"datetime": "2020-07-21", "datetimeEpoch": 1595307600, "tempmax": 89.1, "tempmin": 72.3, "temp": 80.0, "feelslikemax": 94.5, "feelslikemin": 72.3, "feelslike": 82.2, "dew": 69.8, "humidity": 72.1, "precip": 0.08, "precipprob": 100.0, "precipcover": 4.17, "preciptype": ["rain"], "snow": 0.0, "snowdepth": 0.0, "windgust": null, "windspeed": 12.0, "winddir": 148.9, "pressure": 1013.3, "cloudcover": 55.2, "visibility": 9.9, "solarradiation": 155.7, "solarenergy": 13.3, "uvindex": 7.0, "sunrise": "06:31:09", "sunriseEpoch": 1595331069, "sunset": "20:41:48", "sunsetEpoch": 1595382108, "moonphase": 0.0, "conditions": "Rain, Partially cloudy", "description": "Partly cloudy throughout the day with late afternoon rain.", "icon": "rain", "stations": ["72354013919", "72353013967", "KTIK", "KPWA", "KOKC", "72354403954", "F1504"], "source": "obs"}], "stations": {"72354013919": {"distance": 15585.0, "latitude": 35.417, "longitude": -97.383, "useCount": 0, "id": "72354013919", "name": "OKLAHOMA CITY TINKER AFB, OK US", "quality": 99, "contribution": 0.0}, "72353013967": {"distance": 4954.0, "latitude": 35.389, "longitude": -97.601, "useCount": 0, "id": "72353013967", "name": "OKLAHOMA CITY WILL ROGERS WORLD AIRPORT, OK US", "quality": 100, "contribution": 0.0}, "KTIK": {"distance": 15978.0, "latitude": 35.42, "longitude": -97.38, "useCount": 0, "id": "KTIK", "name": "KTIK", "quality": 100, "contribution": 0.0}, "KPWA": {"distance": 19381.0, "latitude": 35.53, "longitude": -97.65, "useCount": 0, "id": "KPWA", "name": "KPWA", "quality": 100, "contribution": 0.0}, "KOKC": {"distance": 5369.0, "latitude": 35.4, "longitude": -97.6, "useCount": 0, "id": "KOKC", "name": "KOKC", "quality": 100, "contribution": 0.0}, "72354403954": {"distance": 19664.0, "latitude": 35.534, "longitude": -97.647, "useCount": 0, "id": "72354403954", "name": "OKLAHOMA CITY WILEY POST AIRPORT, OK US", "quality": 100, "contribution": 0.0}, "F1504": {"distance": 16417.0, "latitude": 35.256, "longitude": -97.445, "useCount": 0, "id": "F1504", "name": "FW1504 Norman OK US", "quality": 0, "contribution": 0.0}}}