{"queryCost": 1, "latitude": 35.536, "longitude": -82.814, "resolvedAddress": "35.53600,-82.81400", "address": "35.53600,-82.81400", "timezone": "America/New_York", "tzoffset": -4.0, "days": [{"datetime": "2020-07-28", "datetimeEpoch": 1595908800, "tempmax": 84.6, "tempmin": 63.0, "temp": 72.3, "feelslikemax": 87.3, "feelslikemin": 63.0, "feelslike": 72.8, "dew": 66.7, "humidity": 84.2, "precip": 0.05, "precipprob": 100.0, "precipcover": 4.17, "preciptype": ["rain"], "snow": 0.0, "snowdepth": 0.0, "windgust": 18.3, "windspeed": 6.5, "winddir": 166.7, "pressure": 1016.0, "cloudcover": 6.5, "visibility": 9.5, "solarradiation": 194.9, "solarenergy": 16.9, "uvindex": 8.0, "sunrise": "06:36:57", "sunriseEpoch": 1595932617, "sunset": "20:38:08", "sunsetEpoch": 1595983088, "moonphase": 0.31, "conditions": "Rain", "description": "Clear conditions throughout the day with afternoon rain.", "icon": "rain", "stations": ["72315003812", "F2588", "99999953877", "99999953878", "KAVL"], "source": "obs"}], "stations": {"F2588": {"distance": 9923.0, "latitude": 35.553, "longitude": -82.706, "useCount": 0, "id": "F2588", "name": "FW2588 Candler NC US", "quality": 0, "contribution": 0.0}, "99999953877": {"distance": 18684.0, "latitude": 35.495, "longitude": -82.614, "useCount": 0, "id": "99999953877", "name": "ASHEVILLE 8 SSW, NC US", "quality": 100, "contribution": 0.0}, "99999953878": {"distance": 26742.0, "latitude": 35.419, "longitude": -82.557, "useCount": 0, "id": "99999953878", "name": "ASHEVILLE 13 S, NC US", "quality": 100, "contribution": 0.0}, "72315003812": {"distance": 27613.0, "latitude": 35.432, "longitude": -82.537, "useCount": 0, "id": "72315003812", "name": "ASHEVILLE AIRPORT, NC US", "quality": 100, "contribution": 0.0}, "KAVL": {"distance": 26682.0, "latitude": 35.43, "longitude": -82.55, "useCount": 0, "id": "KAVL", "name": "KAVL", "quality": 100, "contribution": 0.0}}}