{"queryCost": 1, "latitude": 42.381, "longitude": -83.168, "resolvedAddress": "42.38100,-83.16800", "address": "42.38100,-83.16800", "timezone": "America/Detroit", "tzoffset": -4.0, "days": [{"datetime": "2020-07-30", "datetimeEpoch": 1596081600, "tempmax": 80.4, "tempmin": 68.4, "temp": 74.2, "feelslikemax": 81.2, "feelslikemin": 68.4, "feelslike": 74.2, "dew": 62.8, "humidity": 68.5, "precip": 0.0, "precipprob": 0.0, "precipcover": 0.0, "preciptype": null, "snow": 0.0, "snowdepth": 0.0, "windgust": null, "windspeed": 9.4, "winddir": 119.0, "pressure": 1012.9, "cloudcover": 42.0, "visibility": 9.8, "solarradiation": 121.2, "solarenergy": 10.4, "uvindex": 5.0, "sunrise": "06:23:41", "sunriseEpoch": 1596104621, "sunset": "20:53:54", "sunsetEpoch": 1596156834, "moonphase": 0.41, "conditions": "Partially cloudy", "description": "Partly cloudy throughout the day.", "icon": "partly-cloudy-day", "stations": ["71538099999", "72537094847", "KONZ", "F5336", "KDET", "72537514822", "KDTW"], "source": "obs"}], "stations": {"71538099999": {"distance": 21053.0, "latitude": 42.276, "longitude": -82.956, "useCount": 0, "id": "71538099999", "name": "WINDSOR, CA", "quality": 100, "contribution": 0.0}, "72537094847": {"distance": 21386.0, "latitude": 42.231, "longitude": -83.331, "useCount": 0, "id": "72537094847", "name": "DETROIT METRO AIRPORT, MI US", "quality": 100, "contribution": 0.0}, "KONZ": {"distance": 31288.0, "latitude": 42.1, "longitude": -83.16, "useCount": 0, "id": "KONZ", "name": "KONZ", "quality": 100, "contribution": 0.0}, "F5336": {"distance": 14632.0, "latitude": 42.254, "longitude": -83.211, "useCount": 0, "id": "F5336", "name": "FW5336 Allen Park MI US", "quality": 0, "contribution": 0.0}, "KDET": {"distance": 12918.0, "latitude": 42.42, "longitude": -83.02, "useCount": 0, "id": "KDET", "name": "KDET", "quality": 100, "contribution": 0.0}, "72537514822": {"distance": 13363.0, "latitude": 42.409, "longitude": -83.01, "useCount": 0, "id": "72537514822", "name": "DETROIT CITY AIRPORT, MI US", "quality": 100, "contribution": 0.0}, "KDTW": {"distance": 21458.0, "latitude": 42.23, "longitude": -83.33, "useCount": 0, "id": "KDTW", "name": "KDTW", "quality": 100, "contribution": 0.0}}}