{"queryCost": 1, "latitude": 36.001, "longitude": -84.305, "resolvedAddress": "36.00100,-84.30500", "address": "36.00100,-84.30500", "timezone": "America/New_York", "tzoffset": -4.0, "days": [{"datetime": "2020-08-15", "datetimeEpoch": 1597464000, "tempmax": 80.7, "tempmin": 73.1, "temp": 75.5, "feelslikemax": 84.1, "feelslikemin": 73.1, "feelslike": 76.0, "dew": 70.6, "humidity": 85.2, "precip": 0.37, "precipprob": 100.0, "precipcover": 37.5, "preciptype": ["rain"], "snow": 0.0, "snowdepth": 0.0, "windgust": null, "windspeed": 5.5, "winddir": 130.0, "pressure": 1011.5, "cloudcover": 66.4, "visibility": 9.3, "solarradiation": 140.6, "solarenergy": 12.1, "uvindex": 7.0, "sunrise": "06:56:04", "sunriseEpoch": 1597488964, "sunset": "20:26:32", "sunsetEpoch": 1597537592, "moonphase": 0.93, "conditions": "Rain, Partially cloudy", "description": "Partly cloudy throughout the day with rain.", "icon": "rain", "stations": ["KTYS", "72326013891", "72427053868", "KOQT", "72090799999", "F7749"], "source": "obs"}], "stations": {"KTYS": {"distance": 35561.0, "latitude": 35.82, "longitude": -83.98, "useCount": 0, "id": "KTYS", "name": "KTYS", "quality": 100, "contribution": 0.0}, "72326013891": {"distance": 35254.0, "latitude": 35.818, "longitude": -83.986, "useCount": 0, "id": "72326013891", "name": "KNOXVILLE AIRPORT, TN US", "quality": 100, "contribution": 0.0}, "72427053868": {"distance": 6871.0, "latitude": 36.023, "longitude": -84.234, "useCount": 0, "id": "72427053868", "name": "OAK RIDGE ASOS, TN US", "quality": 100, "contribution": 0.0}, "KOQT": {"distance": 7077.0, "latitude": 36.02, "longitude": -84.23, "useCount": 0, "id": "KOQT", "name": "KOQT", "quality": 100, "contribution": 0.0}, "72090799999": {"distance": 39288.0, "latitude": 36.335, "longitude": -84.162, "useCount": 0, "id": "72090799999", "name": "CAMPBELL CO, TN US", "quality": 100, "contribution": 0.0}, "F7749": {"distance": 8552.0, "latitude": 36.023, "longitude": -84.214, "useCount": 0, "id": "F7749", "name": "FW7749 Oak Ridge TN US", "quality": 0, "contribution": 0.0}}}