{"queryCost": 1, "latitude": 36.329, "longitude": -95.791, "resolvedAddress": "36.32900,-95.79100", "address": "36.32900,-95.79100", "timezone": "America/Chicago", "tzoffset": -5.0, "days": [{"datetime": "2020-08-11", "datetimeEpoch": 1597122000, "tempmax": 82.7, "tempmin": 72.7, "temp": 77.1, "feelslikemax": 87.1, "feelslikemin": 72.7, "feelslike": 77.6, "dew": 68.8, "humidity": 76.1, "precip": 0.24, "precipprob": 100.0, "precipcover": 8.33, "preciptype": ["rain"], "snow": 0.0, "snowdepth": 0.0, "windgust": 19.7, "windspeed": 10.7, "winddir": 104.5, "pressure": 1013.5, "cloudcover": 51.0, "visibility": 9.8, "solarradiation": 97.1, "solarenergy": 8.3, "uvindex": 5.0, "sunrise": "06:38:17", "sunriseEpoch": 1597145897, "sunset": "20:17:41", "sunsetEpoch": 1597195061, "moonphase": 0.74, "conditions": "Rain, Partially cloudy", "description": "Partly cloudy throughout the day with rain.", "icon": "rain", "stations": ["72209153940", "72356453908", "KTUL", "KGCM", "KRVS", "72356013968", "C4535"], "source": "obs"}], "stations": {"72209153940": {"distance": 28218.0, "latitude": 36.294, "longitude": -95.479, "useCount": 0, "id": "72209153940", "name": "CLAREMORE REGIONAL AIRPORT, OK US", "quality": 99, "contribution": 0.0}, "72356453908": {"distance": 36623.0, "latitude": 36.039, "longitude": -95.984, "useCount": 0, "id": "72356453908", "name": "TULSA RICHARD L JONES JR AIRPORT, OK US", "quality": 100, "contribution": 0.0}, "KTUL": {"distance": 17376.0, "latitude": 36.2, "longitude": -95.9, "useCount": 0, "id": "KTUL", "name": "KTUL", "quality": 100, "contribution": 0.0}, "KGCM": {"distance": 28234.0, "latitude": 36.29, "longitude": -95.48, "useCount": 0, "id": "KGCM", "name": "KGCM", "quality": 99, "contribution": 0.0}, "KRVS": {"distance": 36378.0, "latitude": 36.04, "longitude": -95.98, "useCount": 0, "id": "KRVS", "name": "KRVS", "quality": 100, "contribution": 0.0}, "72356013968": {"distance": 16814.0, "latitude": 36.199, "longitude": -95.887, "useCount": 0, "id": "72356013968", "name": "TULSA INTERNATIONAL AIRPORT, OK US", "quality": 100, "contribution": 0.0}, "C4535": {"distance": 20571.0, "latitude": 36.157, "longitude": -95.874, "useCount": 0, "id": "C4535", "name": "CW4535 Tulsa OK US", "quality": 0, "contribution": 0.0}}}