{"queryCost": 1, "latitude": 37.292, "longitude": -79.995, "resolvedAddress": "37.29200,-79.99500", "address": "37.29200,-79.99500", "timezone": "America/New_York", "tzoffset": -4.0, "days": [{"datetime": "2020-06-25", "datetimeEpoch": 1593057600, "tempmax": 83.9, "tempmin": 64.1, "temp": 74.6, "feelslikemax": 85.3, "feelslikemin": 64.1, "feelslike": 74.9, "dew": 60.0, "humidity": 61.8, "precip": 0.0, "precipprob": 0.0, "precipcover": 0.0, "preciptype": null, "snow": 0.0, "snowdepth": 0.0, "windgust": null, "windspeed": 10.2, "winddir": 195.6, "pressure": 1015.5, "cloudcover": 27.5, "visibility": 9.9, "solarradiation": 160.6, "solarenergy": 13.8, "uvindex": 8.0, "sunrise": "06:01:07", "sunriseEpoch": 1593079267, "sunset": "20:44:25", "sunsetEpoch": 1593132265, "moonphase": 0.1, "conditions": "Partially cloudy", "description": "Partly cloudy throughout the day.", "icon": "partly-cloudy-day", "stations": ["F6574", "72411013741", "72410013733", "KBCB", "KROA", "72411353881"], "source": "obs"}], "stations": {"F6574": {"distance": 9271.0, "latitude": 37.367, "longitude": -80.04, "useCount": 0, "id": "F6574", "name": "FW6574 Salem VA US", "quality": 0, "contribution": 0.0}, "72411013741": {"distance": 3333.0, "latitude": 37.317, "longitude": -79.974, "useCount": 0, "id": "72411013741", "name": "ROANOKE INTERNATIONAL AIRPORT, VA US", "quality": 100, "contribution": 0.0}, "72410013733": {"distance": 69873.0, "latitude": 37.321, "longitude": -79.207, "useCount": 0, "id": "72410013733", "name": "LYNCHBURG INTERNATIONAL AIRPORT, VA US", "quality": 100, "contribution": 0.0}, "KBCB": {"distance": 38500.0, "latitude": 37.22, "longitude": -80.42, "useCount": 0, "id": "KBCB", "name": "KBCB", "quality": 99, "contribution": 0.0}, "KROA": {"distance": 3823.0, "latitude": 37.32, "longitude": -79.97, "useCount": 0, "id": "KROA", "name": "KROA", "quality": 100, "contribution": 0.0}, "72411353881": {"distance": 37769.0, "latitude": 37.208, "longitude": -80.408, "useCount": 0, "id": "72411353881", "name": "BLACKSBURG VIRGINIA TECH AIRPORT, VA US", "quality": 100, "contribution": 0.0}}}