{"queryCost": 1, "latitude": 33.877, "longitude": -84.293, "resolvedAddress": "33.87700,-84.29300", "address": "33.87700,-84.29300", "timezone": "America/New_York", "tzoffset": -4.0, "days": [{"datetime": "2020-07-12", "datetimeEpoch": 1594526400, "tempmax": 87.2, "tempmin": 65.0, "temp": 76.6, "feelslikemax": 91.5, "feelslikemin": 65.0, "feelslike": 77.9, "dew": 66.0, "humidity": 71.0, "precip": 0.0, "precipprob": 0.0, "precipcover": 0.0, "preciptype": null, "snow": 0.0, "snowdepth": 0.0, "windgust": null, "windspeed": 10.3, "winddir": 211.3, "pressure": 1010.5, "cloudcover": 2.7, "visibility": 9.9, "solarradiation": 201.3, "solarenergy": 17.3, "uvindex": 8.0, "sunrise": "06:35:54", "sunriseEpoch": 1594550154, "sunset": "20:49:41", "sunsetEpoch": 1594601381, "moonphase": 0.73, "conditions": "Clear", "description": "Clear conditions throughout the day.", "icon": "clear-day", "stations": ["0536W", "KMGE", "KFTY", "72227013864", "72219653863", "72219503888", "KPDK"], "source": "obs"}], "stations": {"0536W": {"distance": 9044.0, "latitude": 33.8, "longitude": -84.324, "useCount": 0, "id": "0536W", "name": "Emory Druid Hills GA US WEATHERSTEM", "quality": 0, "contribution": 0.0}, "KMGE": {"distance": 21514.0, "latitude": 33.92, "longitude": -84.52, "useCount": 0, "id": "KMGE", "name": "KMGE", "quality": 100, "contribution": 0.0}, "KFTY": {"distance": 23606.0, "latitude": 33.78, "longitude": -84.52, "useCount": 0, "id": "KFTY", "name": "KFTY", "quality": 100, "contribution": 0.0}, "72227013864": {"distance": 21137.0, "latitude": 33.917, "longitude": -84.517, "useCount": 0, "id": "72227013864", "name": "MARIETTA DOBBINS AFB, GA US", "quality": 99, "contribution": 0.0}, "72219653863": {"distance": 879.0, "latitude": 33.875, "longitude": -84.302, "useCount": 0, "id": "72219653863", "name": "ATLANTA DEKALB PEACHTREE AIRPORT, GA US", "quality": 100, "contribution": 0.0}, "72219503888": {"distance": 23762.0, "latitude": 33.779, "longitude": -84.521, "useCount": 0, "id": "72219503888", "name": "ATLANTA FULTON CO AIRPORT, GA US", "quality": 100, "contribution": 0.0}, "KPDK": {"distance": 728.0, "latitude": 33.88, "longitude": -84.3, "useCount": 0, "id": "KPDK", "name": "KPDK", "quality": 100, "contribution": 0.0}}}