{"queryCost": 1, "latitude": 44.796, "longitude": -93.595, "resolvedAddress": "44.79600,-93.59500", "address": "44.79600,-93.59500", "timezone": "America/Chicago", "tzoffset": -5.0, "days": [{"datetime": "2020-07-13", "datetimeEpoch": 1594616400, "tempmax": 84.8, "tempmin": 64.0, "temp": 75.7, "feelslikemax": 86.8, "feelslikemin": 64.0, "feelslike": 76.4, "dew": 63.4, "humidity": 67.23, "precip": 0.0, "precipprob": null, "precipcover": 0.0, "preciptype": null, "snow": 0.0, "snowdepth": 0.0, "windgust": 31.5, "windspeed": 20.2, "winddir": 123.5, "pressure": 1011.2, "cloudcover": 29.4, "visibility": 9.9, "solarradiation": 343.0, "solarenergy": 24.7, "uvindex": 8.0, "sunrise": "05:41:32", "sunriseEpoch": 1594636892, "sunset": "20:58:30", "sunsetEpoch": 1594691910, "moonphase": 0.78, "conditions": "Partially cloudy", "description": "Becoming cloudy in the afternoon.", "icon": "partly-cloudy-day", "stations": ["72657994963", "HPN03", "KFCM", "72656204943", "KLVN", "72658014922", "KMSP"], "source": "obs"}], "stations": {"72657994963": {"distance": 10621.0, "latitude": 44.832, "longitude": -93.47, "useCount": 0, "id": "72657994963", "name": "MINNEAPOLIS FLYING CLOUD AIRPORT, MN US", "quality": 100, "contribution": 0.0}, "HPN03": {"distance": 6423.0, "latitude": 44.849, "longitude": -93.564, "useCount": 0, "id": "HPN03", "name": "Chanhassen MN US", "quality": 0, "contribution": 0.0}, "KFCM": {"distance": 12060.0, "latitude": 44.83, "longitude": -93.45, "useCount": 0, "id": "KFCM", "name": "KFCM", "quality": 100, "contribution": 0.0}, "72656204943": {"distance": 34541.0, "latitude": 44.628, "longitude": -93.228, "useCount": 0, "id": "72656204943", "name": "MINNEAPOLIS AIRLAKE AIRPORT, MN US", "quality": 99, "contribution": 0.0}, "KLVN": {"distance": 34281.0, "latitude": 44.63, "longitude": -93.23, "useCount": 0, "id": "KLVN", "name": "KLVN", "quality": 100, "contribution": 0.0}, "72658014922": {"distance": 30481.0, "latitude": 44.883, "longitude": -93.229, "useCount": 0, "id": "72658014922", "name": "MINNEAPOLIS ST. PAUL INTERNATIONAL AIRPORT, MN US", "quality": 100, "contribution": 0.0}, "KMSP": {"distance": 31043.0, "latitude": 44.88, "longitude": -93.22, "useCount": 0, "id": "KMSP", "name": "KMSP", "quality": 100, "contribution": 0.0}}}