{"queryCost": 1, "latitude": 38.005, "longitude": -85.718, "resolvedAddress": "38.00500,-85.71800", "address": "38.00500,-85.71800", "timezone": "America/New_York", "tzoffset": -4.0, "days": [{"datetime": "2020-07-15", "datetimeEpoch": 1594785600, "tempmax": 91.3, "tempmin": 68.4, "temp": 80.7, "feelslikemax": 93.4, "feelslikemin": 68.4, "feelslike": 81.8, "dew": 64.9, "humidity": 61.4, "precip": 0.0, "precipprob": 0.0, "precipcover": 0.0, "preciptype": null, "snow": 0.0, "snowdepth": 0.0, "windgust": 23.0, "windspeed": 12.4, "winddir": 133.0, "pressure": 1016.4, "cloudcover": 28.6, "visibility": 9.9, "solarradiation": 226.8, "solarenergy": 19.5, "uvindex": 9.0, "sunrise": "06:32:48", "sunriseEpoch": 1594809168, "sunset": "21:04:44", "sunsetEpoch": 1594861484, "moonphase": 0.87, "conditions": "Partially cloudy", "description": "Partly cloudy throughout the day.", "icon": "partly-cloudy-day", "stations": ["KFTK", "KLOU", "KSDF", "72423093821", "72424013807", "C0238", "72423513810"], "source": "obs"}], "stations": {"KFTK": {"distance": 25018.0, "latitude": 37.9, "longitude": -85.97, "useCount": 0, "id": "KFTK", "name": "KFTK", "quality": 100, "contribution": 0.0}, "KLOU": {"distance": 24300.0, "latitude": 38.22, "longitude": -85.67, "useCount": 0, "id": "KLOU", "name": "KLOU", "quality": 100, "contribution": 0.0}, "KSDF": {"distance": 19509.0, "latitude": 38.18, "longitude": -85.73, "useCount": 0, "id": "KSDF", "name": "KSDF", "quality": 100, "contribution": 0.0}, "72423093821": {"distance": 19690.0, "latitude": 38.181, "longitude": -85.739, "useCount": 0, "id": "72423093821", "name": "LOUISVILLE INTERNATIONAL AIRPORT, KY US", "quality": 100, "contribution": 0.0}, "72424013807": {"distance": 24763.0, "latitude": 37.9, "longitude": -85.967, "useCount": 0, "id": "72424013807", "name": "FORT KNOX GODMAN ARMY AIR FIELD, KY US", "quality": 99, "contribution": 0.0}, "C0238": {"distance": 13170.0, "latitude": 38.117, "longitude": -85.767, "useCount": 0, "id": "C0238", "name": "CW0238 Fairdale KY US", "quality": 0, "contribution": 0.0}, "72423513810": {"distance": 25288.0, "latitude": 38.228, "longitude": -85.664, "useCount": 0, "id": "72423513810", "name": "LOUISVILLE BOWMAN FIELD, KY US", "quality": 100, "contribution": 0.0}}}