{"queryCost": 1, "latitude": 34.027, "longitude": -118.388, "resolvedAddress": "34.02700,-118.38800", "address": "34.02700,-118.38800", "timezone": "America/Los_Angeles", "tzoffset": -7.0, "days": [{"datetime": "2020-08-03", "datetimeEpoch": 1596438000, "tempmax": 73.6, "tempmin": 65.8, "temp": 69.1, "feelslikemax": 73.6, "feelslikemin": 65.8, "feelslike": 69.1, "dew": 62.1, "humidity": 78.9, "precip": 0.0, "precipprob": 0.0, "precipcover": 0.0, "preciptype": null, "snow": 0.0, "snowdepth": 0.0, "windgust": null, "windspeed": 10.0, "winddir": 216.4, "pressure": 1013.5, "cloudcover": 35.0, "visibility": 6.7, "solarradiation": 203.8, "solarenergy": 17.8, "uvindex": 6.0, "sunrise": "06:06:51", "sunriseEpoch": 1596460011, "sunset": "19:52:04", "sunsetEpoch": 1596509524, "moonphase": 0.5, "conditions": "Partially cloudy", "description": "Partly cloudy throughout the day.", "icon": "partly-cloudy-day", "stations": ["72288593197", "72295023174", "KCQT", "KSMO", "SE428", "KLAX", "72287493134"], "source": "obs"}], "stations": {"72288593197": {"distance": 5945.0, "latitude": 34.016, "longitude": -118.451, "useCount": 0, "id": "72288593197", "name": "SANTA MONICA MUNICIPAL AIRPORT, CA US", "quality": 100, "contribution": 0.0}, "72295023174": {"distance": 9908.0, "latitude": 33.938, "longitude": -118.389, "useCount": 0, "id": "72295023174", "name": "LOS ANGELES INTERNATIONAL AIRPORT, CA US", "quality": 100, "contribution": 0.0}, "KCQT": {"distance": 9995.0, "latitude": 34.02, "longitude": -118.28, "useCount": 0, "id": "KCQT", "name": "KCQT", "quality": 100, "contribution": 0.0}, "KSMO": {"distance": 5773.0, "latitude": 34.02, "longitude": -118.45, "useCount": 0, "id": "KSMO", "name": "KSMO", "quality": 97, "contribution": 0.0}, "SE428": {"distance": 2369.0, "latitude": 34.007, "longitude": -118.378, "useCount": 0, "id": "SE428", "name": "SCE Baldwin Hills CA US SC-EDISON", "quality": 0, "contribution": 0.0}, "KLAX": {"distance": 10855.0, "latitude": 33.93, "longitude": -118.4, "useCount": 0, "id": "KLAX", "name": "KLAX", "quality": 100, "contribution": 0.0}, "72287493134": {"distance": 8957.0, "latitude": 34.024, "longitude": -118.291, "useCount": 0, "id": "72287493134", "name": "LOS ANGELES DOWNTOWN USC, CA US", "quality": 100, "contribution": 0.0}}}