{"queryCost": 1, "latitude": 35.026, "longitude": -92.072, "resolvedAddress": "35.02600,-92.07200", "address": "35.02600,-92.07200", "timezone": "America/Chicago", "tzoffset": -5.0, "days": [{"datetime": "2020-08-20", "datetimeEpoch": 1597899600, "tempmax": 87.6, "tempmin": 62.8, "temp": 75.2, "feelslikemax": 88.4, "feelslikemin": 62.8, "feelslike": 75.6, "dew": 62.9, "humidity": 68.08, "precip": 0.0, "precipprob": null, "precipcover": 0.0, "preciptype": null, "snow": 0.0, "snowdepth": 0.0, "windgust": 16.1, "windspeed": 10.9, "winddir": 100.6, "pressure": 1013.2, "cloudcover": 17.8, "visibility": 9.9, "solarradiation": 301.3, "solarenergy": 20.6, "uvindex": 9.0, "sunrise": "06:32:26", "sunriseEpoch": 1597923146, "sunset": "19:50:03", "sunsetEpoch": 1597971003, "moonphase": 0.01, "conditions": "Clear", "description": "Clear conditions throughout the day.", "icon": "clear-day", "stations": ["72340503930", "72340313963", "KLRF", "D8400", "KSRC", "72218853985", "KLIT", "LNKA4"], "source": "obs"}], "stations": {"72340503930": {"distance": 14095.0, "latitude": 34.917, "longitude": -92.15, "useCount": 0, "id": "72340503930", "name": "LITTLE ROCK AFB, AR US", "quality": 99, "contribution": 0.0}, "72340313963": {"distance": 36578.0, "latitude": 34.727, "longitude": -92.239, "useCount": 0, "id": "72340313963", "name": "LITTLE ROCK AIRPORT ADAMS FIELD, AR US", "quality": 100, "contribution": 0.0}, "KLRF": {"distance": 13779.0, "latitude": 34.92, "longitude": -92.15, "useCount": 0, "id": "KLRF", "name": "KLRF", "quality": 100, "contribution": 0.0}, "D8400": {"distance": 19920.0, "latitude": 34.869, "longitude": -92.177, "useCount": 0, "id": "D8400", "name": "DW8400 Jacksonville AR US", "quality": 0, "contribution": 0.0}, "KSRC": {"distance": 36516.0, "latitude": 35.21, "longitude": -91.74, "useCount": 0, "id": "KSRC", "name": "SEARCY MUNI ARPT, AR", "quality": 100, "contribution": 0.0}, "72218853985": {"distance": 36868.0, "latitude": 35.212, "longitude": -91.737, "useCount": 0, "id": "72218853985", "name": "SEARCY MUNICIPAL AIRPORT, AR US", "quality": 99, "contribution": 0.0}, "KLIT": {"distance": 36994.0, "latitude": 34.72, "longitude": -92.23, "useCount": 0, "id": "KLIT", "name": "KLIT", "quality": 100, "contribution": 0.0}, "LNKA4": {"distance": 26084.0, "latitude": 34.85, "longitude": -91.883, "useCount": 0, "id": "LNKA4", "name": "UAPB-LONOKE FARM AR US SCAN", "quality": 0, "contribution": 0.0}}}