{"queryCost": 1, "latitude": 48.839, "longitude": -99.745, "resolvedAddress": "48.83900,-99.74500", "address": "48.83900,-99.74500", "timezone": "America/Chicago", "tzoffset": -5.0, "days": [{"datetime": "2020-08-22", "datetimeEpoch": 1598072400, "tempmax": 80.7, "tempmin": 54.7, "temp": 66.9, "feelslikemax": 81.4, "feelslikemin": 54.7, "feelslike": 66.9, "dew": 61.6, "humidity": 86.2, "precip": 0.0, "precipprob": 0.0, "precipcover": 0.0, "preciptype": null, "snow": 0.0, "snowdepth": 0.0, "windgust": 16.1, "windspeed": 10.2, "winddir": 266.7, "pressure": 1011.6, "cloudcover": 23.5, "visibility": 10.5, "solarradiation": 259.8, "solarenergy": 22.4, "uvindex": 8.0, "sunrise": "06:42:24", "sunriseEpoch": 1598096544, "sunset": "20:40:01", "sunsetEpoch": 1598146801, "moonphase": 0.08, "conditions": "Partially cloudy", "description": "Clearing in the afternoon.", "icon": "partly-cloudy-day", "stations": ["K06D", "TMTN8", "72085300281", "CWPO", "72085800285", "71148099999", "72086700293"], "source": "obs"}], "stations": {"K06D": {"distance": 10229.0, "latitude": 48.88, "longitude": -99.62, "useCount": 0, "id": "K06D", "name": "K06D", "quality": 49, "contribution": 0.0}, "TMTN8": {"distance": 7608.0, "latitude": 48.809, "longitude": -99.838, "useCount": 0, "id": "TMTN8", "name": "TURTLE MOUNTAIN ND US", "quality": 0, "contribution": 0.0}, "72085300281": {"distance": 10371.0, "latitude": 48.884, "longitude": -99.621, "useCount": 0, "id": "72085300281", "name": "ROLLA MUNICIPAL AIRPORT, ND US", "quality": 50, "contribution": 0.0}, "CWPO": {"distance": 73622.0, "latitude": 49.2, "longitude": -98.9, "useCount": 0, "id": "CWPO", "name": "CWPO", "quality": 100, "contribution": 0.0}, "72085800285": {"distance": 54753.0, "latitude": 48.48, "longitude": -99.236, "useCount": 0, "id": "72085800285", "name": "CANDO MUNICIPAL AIRPORT, ND US", "quality": 50, "contribution": 0.0}, "71148099999": {"distance": 72633.0, "latitude": 49.183, "longitude": -98.9, "useCount": 0, "id": "71148099999", "name": "PILOT MOUND AUT, CA", "quality": 100, "contribution": 0.0}, "72086700293": {"distance": 54036.0, "latitude": 48.39, "longitude": -100.024, "useCount": 0, "id": "72086700293", "name": "RUGBY MUNICIPAL AIRPORT, ND US", "quality": 50, "contribution": 0.0}}}