{"queryCost": 1, "latitude": 36.94, "longitude": -83.978, "resolvedAddress": "36.94000,-83.97800", "address": "36.94000,-83.97800", "timezone": "America/New_York", "tzoffset": -4.0, "days": [{"datetime": "2020-08-25", "datetimeEpoch": 1598328000, "tempmax": 87.5, "tempmin": 66.6, "temp": 76.3, "feelslikemax": 90.4, "feelslikemin": 66.6, "feelslike": 77.5, "dew": 68.3, "humidity": 79.33, "precip": 0.0, "precipprob": null, "precipcover": 0.0, "preciptype": null, "snow": 0.0, "snowdepth": 0.0, "windgust": null, "windspeed": 5.0, "winddir": 85.4, "pressure": 1019.0, "cloudcover": 21.6, "visibility": 7.4, "solarradiation": 440.3, "solarenergy": 22.2, "uvindex": 10.0, "sunrise": "07:01:28", "sunriseEpoch": 1598353288, "sunset": "20:13:35", "sunsetEpoch": 1598400815, "moonphase": 0.24, "conditions": "Partially cloudy", "description": "Partly cloudy throughout the day.", "icon": "partly-cloudy-day", "stations": ["72046599999", "72035363875", "72424303849", "C7412", "K1A6", "KLOZ"], "source": "obs"}], "stations": {"72046599999": {"distance": 25174.0, "latitude": 36.8, "longitude": -84.2, "useCount": 0, "id": "72046599999", "name": "WILLIAMSBURG WHITLEY CO ARPT, KY US", "quality": 99, "contribution": 0.0}, "72035363875": {"distance": 42479.0, "latitude": 36.611, "longitude": -83.737, "useCount": 0, "id": "72035363875", "name": "MIDDLESBORO BELL CO AIRPORT, KY US", "quality": 100, "contribution": 0.0}, "72424303849": {"distance": 18595.0, "latitude": 37.087, "longitude": -84.077, "useCount": 0, "id": "72424303849", "name": "LONDON CORBIN AIRPORT, KY US", "quality": 100, "contribution": 0.0}, "C7412": {"distance": 23768.0, "latitude": 36.841, "longitude": -84.214, "useCount": 0, "id": "C7412", "name": "CW7412 Williamsburg KY US", "quality": 0, "contribution": 0.0}, "K1A6": {"distance": 42425.0, "latitude": 36.61, "longitude": -83.74, "useCount": 0, "id": "K1A6", "name": "K1A6", "quality": 99, "contribution": 0.0}, "KLOZ": {"distance": 18030.0, "latitude": 37.08, "longitude": -84.08, "useCount": 0, "id": "KLOZ", "name": "KLOZ", "quality": 100, "contribution": 0.0}}}