{"queryCost": 1, "latitude": 40.747, "longitude": -111.892, "resolvedAddress": "40.74700,-111.89200", "address": "40.74700,-111.89200", "timezone": "America/Denver", "tzoffset": -6.0, "days": [{"datetime": "2020-08-27", "datetimeEpoch": 1598508000, "tempmax": 91.8, "tempmin": 78.0, "temp": 84.6, "feelslikemax": 87.9, "feelslikemin": 78.0, "feelslike": 82.6, "dew": 42.4, "humidity": 23.4, "precip": 0.0, "precipprob": 0.0, "precipcover": 0.0, "preciptype": null, "snow": 0.0, "snowdepth": 0.0, "windgust": 51.7, "windspeed": 17.2, "winddir": 215.8, "pressure": 1004.1, "cloudcover": 20.3, "visibility": 9.9, "solarradiation": 356.3, "solarenergy": 30.8, "uvindex": 10.0, "sunrise": "06:50:11", "sunriseEpoch": 1598532611, "sunset": "20:06:53", "sunsetEpoch": 1598580413, "moonphase": 0.35, "conditions": "Partially cloudy", "description": "Partly cloudy throughout the day.", "icon": "partly-cloudy-day", "stations": ["QHW", "72572024127", "72575524101", "KHIF", "A0002804116", "72057299999", "KSLC"], "source": "obs"}], "stations": {"QHW": {"distance": 2194.0, "latitude": 40.734, "longitude": -111.872, "useCount": 0, "id": "QHW", "name": "Hawthorne UT US AQ", "quality": 0, "contribution": 0.0}, "72572024127": {"distance": 7358.0, "latitude": 40.778, "longitude": -111.969, "useCount": 0, "id": "72572024127", "name": "SALT LAKE CITY INTERNATIONAL AIRPORT, UT US", "quality": 100, "contribution": 0.0}, "72575524101": {"distance": 41635.0, "latitude": 41.117, "longitude": -111.967, "useCount": 0, "id": "72575524101", "name": "OGDEN HILL AFB, UT US", "quality": 96, "contribution": 0.0}, "KHIF": {"distance": 42037.0, "latitude": 41.12, "longitude": -111.97, "useCount": 0, "id": "KHIF", "name": "KHIF", "quality": 100, "contribution": 0.0}, "A0002804116": {"distance": 16567.0, "latitude": 40.619, "longitude": -111.993, "useCount": 0, "id": "A0002804116", "name": "SALT LAKE CITY MUNICIPAL AIRPORT 2, UT US", "quality": 98, "contribution": 0.0}, "72057299999": {"distance": 41549.0, "latitude": 40.612, "longitude": -112.351, "useCount": 0, "id": "72057299999", "name": "BOLINDER FIELD TOOELE VALLEY, UT US", "quality": 100, "contribution": 0.0}, "KSLC": {"distance": 7533.0, "latitude": 40.78, "longitude": -111.97, "useCount": 0, "id": "KSLC", "name": "KSLC", "quality": 100, "contribution": 0.0}}}