{"queryCost": 1, "latitude": 33.936, "longitude": -118.296, "resolvedAddress": "33.93600,-118.29600", "address": "33.93600,-118.29600", "timezone": "America/Los_Angeles", "tzoffset": -7.0, "days": [{"datetime": "2020-08-31", "datetimeEpoch": 1598857200, "tempmax": 74.0, "tempmin": 65.6, "temp": 68.2, "feelslikemax": 74.0, "feelslikemin": 65.6, "feelslike": 68.2, "dew": 58.1, "humidity": 70.6, "precip": 0.0, "precipprob": 0.0, "precipcover": 0.0, "preciptype": null, "snow": 0.0, "snowdepth": 0.0, "windgust": null, "windspeed": 12.7, "winddir": 271.1, "pressure": 1010.9, "cloudcover": 56.5, "visibility": 9.4, "solarradiation": 234.9, "solarenergy": 20.1, "uvindex": 8.0, "sunrise": "06:26:32", "sunriseEpoch": 1598880392, "sunset": "19:19:29", "sunsetEpoch": 1598926769, "moonphase": 0.49, "conditions": "Partially cloudy", "description": "Clearing in the afternoon.", "icon": "partly-cloudy-day", "stations": ["C2234", "KHHR", "72295023174", "KCQT", "72295603167", "KLAX", "72287493134"], "source": "obs"}], "stations": {"C2234": {"distance": 8249.0, "latitude": 33.872, "longitude": -118.341, "useCount": 0, "id": "C2234", "name": "CW2234 Torrance CA US", "quality": 0, "contribution": 0.0}, "KHHR": {"distance": 3610.0, "latitude": 33.92, "longitude": -118.33, "useCount": 0, "id": "KHHR", "name": "KHHR", "quality": 100, "contribution": 0.0}, "72295023174": {"distance": 8592.0, "latitude": 33.938, "longitude": -118.389, "useCount": 0, "id": "72295023174", "name": "LOS ANGELES INTERNATIONAL AIRPORT, CA US", "quality": 100, "contribution": 0.0}, "KCQT": {"distance": 9467.0, "latitude": 34.02, "longitude": -118.28, "useCount": 0, "id": "KCQT", "name": "KCQT", "quality": 100, "contribution": 0.0}, "72295603167": {"distance": 3805.0, "latitude": 33.923, "longitude": -118.334, "useCount": 0, "id": "72295603167", "name": "HAWTHORNE MUNICIPAL AIRPORT, CA US", "quality": 100, "contribution": 0.0}, "KLAX": {"distance": 9629.0, "latitude": 33.93, "longitude": -118.4, "useCount": 0, "id": "KLAX", "name": "KLAX", "quality": 100, "contribution": 0.0}, "72287493134": {"distance": 9763.0, "latitude": 34.024, "longitude": -118.291, "useCount": 0, "id": "72287493134", "name": "LOS ANGELES DOWNTOWN USC, CA US", "quality": 100, "contribution": 0.0}}}