{"queryCost": 1, "latitude": 33.84, "longitude": -117.879, "resolvedAddress": "33.84000,-117.87900", "address": "33.84000,-117.87900", "timezone": "America/Los_Angeles", "tzoffset": -7.0, "days": [{"datetime": "2020-08-29", "datetimeEpoch": 1598684400, "tempmax": 81.7, "tempmin": 65.2, "temp": 71.4, "feelslikemax": 81.9, "feelslikemin": 65.2, "feelslike": 71.6, "dew": 58.9, "humidity": 66.0, "precip": 0.0, "precipprob": 0.0, "precipcover": 0.0, "preciptype": null, "snow": 0.0, "snowdepth": 0.0, "windgust": null, "windspeed": 10.1, "winddir": 256.2, "pressure": 1011.2, "cloudcover": 27.6, "visibility": 8.8, "solarradiation": 262.5, "solarenergy": 22.6, "uvindex": 9.0, "sunrise": "06:23:34", "sunriseEpoch": 1598707414, "sunset": "19:20:21", "sunsetEpoch": 1598754021, "moonphase": 0.43, "conditions": "Partially cloudy", "description": "Clearing in the afternoon.", "icon": "partly-cloudy-day", "stations": ["KFUL", "F0063", "72297793184", "KSLI", "KSNA", "72297603166", "72297023129"], "source": "obs"}], "stations": {"KFUL": {"distance": 9599.0, "latitude": 33.86, "longitude": -117.98, "useCount": 0, "id": "KFUL", "name": "KFUL", "quality": 100, "contribution": 0.0}, "F0063": {"distance": 4532.0, "latitude": 33.881, "longitude": -117.884, "useCount": 0, "id": "F0063", "name": "FW0063 Fullerton CSU CA US SGXWFO", "quality": 0, "contribution": 0.0}, "72297793184": {"distance": 17852.0, "latitude": 33.68, "longitude": -117.866, "useCount": 0, "id": "72297793184", "name": "SANTA ANA JOHN WAYNE AIRPORT, CA US", "quality": 100, "contribution": 0.0}, "KSLI": {"distance": 17169.0, "latitude": 33.78, "longitude": -118.05, "useCount": 0, "id": "KSLI", "name": "KSLI", "quality": 93, "contribution": 0.0}, "KSNA": {"distance": 17831.0, "latitude": 33.68, "longitude": -117.87, "useCount": 0, "id": "KSNA", "name": "KSNA", "quality": 100, "contribution": 0.0}, "72297603166": {"distance": 9903.0, "latitude": 33.872, "longitude": -117.979, "useCount": 0, "id": "72297603166", "name": "FULLERTON MUNICIPAL AIRPORT, CA US", "quality": 100, "contribution": 0.0}, "72297023129": {"distance": 24893.0, "latitude": 33.812, "longitude": -118.146, "useCount": 0, "id": "72297023129", "name": "LONG BEACH DAUGHERTY AIRPORT, CA US", "quality": 100, "contribution": 0.0}}}