{"queryCost": 1, "latitude": 39.369, "longitude": -74.428, "resolvedAddress": "39.36900,-74.42800", "address": "39.36900,-74.42800", "timezone": "America/New_York", "tzoffset": -4.0, "days": [{"datetime": "2015-07-07", "datetimeEpoch": 1436241600, "tempmax": 78.0, "tempmin": 74.7, "temp": 76.3, "feelslikemax": 78.0, "feelslikemin": 74.7, "feelslike": 76.3, "dew": 72.9, "humidity": 89.5, "precip": 0.0, "precipprob": 0.0, "precipcover": 0.0, "preciptype": null, "snow": 0.0, "snowdepth": 0.0, "windgust": 21.6, "windspeed": 0.7, "winddir": 198.4, "pressure": 1016.4, "cloudcover": 2.0, "visibility": 9.5, "solarradiation": 324.7, "solarenergy": 28.0, "uvindex": 9.0, "sunrise": "05:37:46", "sunriseEpoch": 1436261866, "sunset": "20:27:11", "sunsetEpoch": 1436315231, "moonphase": 0.68, "conditions": "Clear", "description": "Clear conditions throughout the day.", "icon": "clear-day", "stations": ["99727099999", "72407513735", "KWWD", "KMIV", "72407093730", "KACY"], "source": "obs"}], "stations": {"99727099999": {"distance": 2224.0, "latitude": 39.35, "longitude": -74.42, "useCount": 0, "id": "99727099999", "name": "ATLANTIC CITY, NJ US", "quality": 48, "contribution": 0.0}, "72407513735": {"distance": 55923.0, "latitude": 39.366, "longitude": -75.078, "useCount": 0, "id": "72407513735", "name": "MILLVILLE MUNICIPAL AIRPORT, NJ US", "quality": 100, "contribution": 0.0}, "KWWD": {"distance": 57542.0, "latitude": 39.02, "longitude": -74.92, "useCount": 0, "id": "KWWD", "name": "WILDWOOD, NJ", "quality": 100, "contribution": 0.0}, "KMIV": {"distance": 54402.0, "latitude": 39.36, "longitude": -75.06, "useCount": 0, "id": "KMIV", "name": "KMIV", "quality": 100, "contribution": 0.0}, "72407093730": {"distance": 15109.0, "latitude": 39.452, "longitude": -74.567, "useCount": 0, "id": "72407093730", "name": "ATLANTIC CITY INTERNATIONAL AIRPORT, NJ US", "quality": 100, "contribution": 0.0}, "KACY": {"distance": 14498.0, "latitude": 39.45, "longitude": -74.56, "useCount": 0, "id": "KACY", "name": "KACY", "quality": 98, "contribution": 0.0}}}