{"queryCost": 1, "latitude": 39.742, "longitude": -105.036, "resolvedAddress": "39.74200,-105.03600", "address": "39.74200,-105.03600", "timezone": "America/Denver", "tzoffset": -6.0, "days": [{"datetime": "2020-09-12", "datetimeEpoch": 1599890400, "tempmax": 79.1, "tempmin": 49.0, "temp": 63.7, "feelslikemax": 79.1, "feelslikemin": 46.2, "feelslike": 63.5, "dew": 32.9, "humidity": 35.7, "precip": 0.0, "precipprob": 0.0, "precipcover": 0.0, "preciptype": null, "snow": 0.0, "snowdepth": 0.0, "windgust": 25.3, "windspeed": 12.4, "winddir": 162.1, "pressure": 1016.1, "cloudcover": 16.8, "visibility": 9.9, "solarradiation": 234.6, "solarenergy": 20.2, "uvindex": 8.0, "sunrise": "06:38:54", "sunriseEpoch": 1599914334, "sunset": "19:12:48", "sunsetEpoch": 1599959568, "moonphase": 0.86, "conditions": "Clear", "description": "Clear conditions throughout the day.", "icon": "clear-day", "stations": ["KBKF", "KDEN", "72469523036", "KAPA", "E7168", "72565003017", "72466693067"], "source": "obs"}], "stations": {"KBKF": {"distance": 24607.0, "latitude": 39.72, "longitude": -104.75, "useCount": 0, "id": "KBKF", "name": "KBKF", "quality": 100, "contribution": 0.0}, "KDEN": {"distance": 33946.0, "latitude": 39.86, "longitude": -104.67, "useCount": 0, "id": "KDEN", "name": "KDEN", "quality": 100, "contribution": 0.0}, "72469523036": {"distance": 24647.0, "latitude": 39.717, "longitude": -104.75, "useCount": 0, "id": "72469523036", "name": "AURORA BUCKLEY FIELD ANGB, CO US", "quality": 100, "contribution": 0.0}, "KAPA": {"distance": 24914.0, "latitude": 39.57, "longitude": -104.85, "useCount": 0, "id": "KAPA", "name": "KAPA", "quality": 100, "contribution": 0.0}, "E7168": {"distance": 6598.0, "latitude": 39.685, "longitude": -105.058, "useCount": 0, "id": "E7168", "name": "EW7168 Golden CO US", "quality": 0, "contribution": 0.0}, "72565003017": {"distance": 33877.0, "latitude": 39.833, "longitude": -104.658, "useCount": 0, "id": "72565003017", "name": "DENVER INTERNATIONAL AIRPORT, CO US", "quality": 100, "contribution": 0.0}, "72466693067": {"distance": 24943.0, "latitude": 39.57, "longitude": -104.849, "useCount": 0, "id": "72466693067", "name": "DENVER CENTENNIAL AIRPORT, CO US", "quality": 100, "contribution": 0.0}}}