{"queryCost": 1, "latitude": 35.033, "longitude": -79.035, "resolvedAddress": "35.03300,-79.03500", "address": "35.03300,-79.03500", "timezone": "America/New_York", "tzoffset": -4.0, "days": [{"datetime": "2020-09-10", "datetimeEpoch": 1599710400, "tempmax": 87.9, "tempmin": 75.1, "temp": 79.3, "feelslikemax": 96.2, "feelslikemin": 75.1, "feelslike": 81.8, "dew": 74.7, "humidity": 87.0, "precip": 0.0, "precipprob": null, "precipcover": 0.0, "preciptype": null, "snow": 0.0, "snowdepth": 0.0, "windgust": null, "windspeed": 7.3, "winddir": 66.6, "pressure": 1020.0, "cloudcover": 64.2, "visibility": 9.2, "solarradiation": 268.1, "solarenergy": 13.5, "uvindex": 7.0, "sunrise": "06:55:42", "sunriseEpoch": 1599735342, "sunset": "19:29:34", "sunsetEpoch": 1599780574, "moonphase": 0.76, "conditions": "Partially cloudy", "description": "Partly cloudy throughout the day.", "icon": "partly-cloudy-day", "stations": ["KFAY", "72303593740", "KFBG", "74693093737", "72303013714", "KPOB", "F6592"], "source": "obs"}], "stations": {"KFAY": {"distance": 15778.0, "latitude": 34.97, "longitude": -78.88, "useCount": 0, "id": "KFAY", "name": "KFAY", "quality": 100, "contribution": 0.0}, "72303593740": {"distance": 14845.0, "latitude": 34.991, "longitude": -78.88, "useCount": 0, "id": "72303593740", "name": "FAYETTEVILLE REGIONAL AIRPORT GRANNIS FIELD, NC US", "quality": 100, "contribution": 0.0}, "KFBG": {"distance": 14425.0, "latitude": 35.13, "longitude": -78.93, "useCount": 0, "id": "KFBG", "name": "KFBG", "quality": 100, "contribution": 0.0}, "74693093737": {"distance": 14508.0, "latitude": 35.133, "longitude": -78.933, "useCount": 0, "id": "74693093737", "name": "FORT BRAGG SIMMONS ARMY AIR FIELD, NC US", "quality": 99, "contribution": 0.0}, "72303013714": {"distance": 15864.0, "latitude": 35.174, "longitude": -79.009, "useCount": 0, "id": "72303013714", "name": "FAYETTEVILLE POPE AFB, NC US", "quality": 100, "contribution": 0.0}, "KPOB": {"distance": 13222.0, "latitude": 35.15, "longitude": -79.01, "useCount": 0, "id": "KPOB", "name": "KPOB", "quality": 100, "contribution": 0.0}, "F6592": {"distance": 5617.0, "latitude": 35.002, "longitude": -79.084, "useCount": 0, "id": "F6592", "name": "FW6592 Raeford NC US", "quality": 0, "contribution": 0.0}}}