{"queryCost": 1, "latitude": 31.365, "longitude": -110.782, "resolvedAddress": "31.36500,-110.78200", "address": "31.36500,-110.78200", "timezone": "America/Phoenix", "tzoffset": -7.0, "days": [{"datetime": "2020-09-21", "datetimeEpoch": 1600671600, "tempmax": 93.3, "tempmin": 66.3, "temp": 78.8, "feelslikemax": 89.5, "feelslikemin": 66.3, "feelslike": 77.6, "dew": 47.9, "humidity": 35.6, "precip": 0.0, "precipprob": 0.0, "precipcover": 0.0, "preciptype": null, "snow": 0.0, "snowdepth": 0.0, "windgust": 28.9, "windspeed": 18.5, "winddir": 140.8, "pressure": 1011.7, "cloudcover": 12.8, "visibility": 9.9, "solarradiation": 193.6, "solarenergy": 16.7, "uvindex": 8.0, "sunrise": "06:11:06", "sunriseEpoch": 1600693866, "sunset": "18:20:21", "sunsetEpoch": 1600737621, "moonphase": 0.11, "conditions": "Clear", "description": "Clear conditions throughout the day.", "icon": "clear-day", "stations": ["E2851", "KALK", "72281353146", "KOLS", "72272803196", "QHPA3", "99999953132"], "source": "obs"}], "stations": {"E2851": {"distance": 32328.0, "latitude": 31.425, "longitude": -110.449, "useCount": 0, "id": "E2851", "name": "EW2851 Parker Canyon lake AZ US", "quality": 0, "contribution": 0.0}, "KALK": {"distance": 43190.0, "latitude": 31.6, "longitude": -110.42, "useCount": 0, "id": "KALK", "name": "KALK", "quality": 99, "contribution": 0.0}, "72281353146": {"distance": 43084.0, "latitude": 31.607, "longitude": -110.428, "useCount": 0, "id": "72281353146", "name": "FORT HUACHUCA PIONEER AIRFIELD, AZ US", "quality": 100, "contribution": 0.0}, "KOLS": {"distance": 8902.0, "latitude": 31.42, "longitude": -110.85, "useCount": 0, "id": "KOLS", "name": "KOLS", "quality": 100, "contribution": 0.0}, "72272803196": {"distance": 8693.0, "latitude": 31.421, "longitude": -110.846, "useCount": 0, "id": "72272803196", "name": "NOGALES INTERNATIONAL AIRPORT, AZ US", "quality": 100, "contribution": 0.0}, "QHPA3": {"distance": 35772.0, "latitude": 31.675, "longitude": -110.88, "useCount": 0, "id": "QHPA3", "name": "HOPKINS AZ US", "quality": 0, "contribution": 0.0}, "99999953132": {"distance": 36097.0, "latitude": 31.591, "longitude": -110.509, "useCount": 0, "id": "99999953132", "name": "ELGIN 5 S, AZ US", "quality": 100, "contribution": 0.0}}}