{"queryCost": 1, "latitude": 33.716, "longitude": -84.368, "resolvedAddress": "33.71600,-84.36800", "address": "33.71600,-84.36800", "timezone": "America/New_York", "tzoffset": -4.0, "days": [{"datetime": "2020-09-21", "datetimeEpoch": 1600660800, "tempmax": 71.1, "tempmin": 53.7, "temp": 61.6, "feelslikemax": 71.1, "feelslikemin": 53.7, "feelslike": 61.6, "dew": 45.5, "humidity": 57.5, "precip": 0.0, "precipprob": 0.0, "precipcover": 0.0, "preciptype": null, "snow": 0.0, "snowdepth": 0.0, "windgust": 30.5, "windspeed": 18.7, "winddir": 77.5, "pressure": 1027.1, "cloudcover": 22.9, "visibility": 9.9, "solarradiation": 238.9, "solarenergy": 20.7, "uvindex": 8.0, "sunrise": "07:25:12", "sunriseEpoch": 1600687512, "sunset": "19:34:56", "sunsetEpoch": 1600731296, "moonphase": 0.11, "conditions": "Partially cloudy", "description": "Partly cloudy throughout the day.", "icon": "partly-cloudy-day", "stations": ["KFTY", "0349W", "72219013874", "KATL", "72219503888", "72219653863", "KPDK"], "source": "obs"}], "stations": {"KFTY": {"distance": 15770.0, "latitude": 33.78, "longitude": -84.52, "useCount": 0, "id": "KFTY", "name": "KFTY", "quality": 100, "contribution": 0.0}, "0349W": {"distance": 6674.0, "latitude": 33.772, "longitude": -84.393, "useCount": 0, "id": "0349W", "name": "Georgia Tech Bobby Dodd Stadium GA US WEATHERSTEM", "quality": 0, "contribution": 0.0}, "72219013874": {"distance": 11755.0, "latitude": 33.63, "longitude": -84.442, "useCount": 0, "id": "72219013874", "name": "ATLANTA HARTSFIELD INTERNATIONAL AIRPORT, GA US", "quality": 100, "contribution": 0.0}, "KATL": {"distance": 8785.0, "latitude": 33.65, "longitude": -84.42, "useCount": 0, "id": "KATL", "name": "KATL", "quality": 100, "contribution": 0.0}, "72219503888": {"distance": 15846.0, "latitude": 33.779, "longitude": -84.521, "useCount": 0, "id": "72219503888", "name": "ATLANTA FULTON CO AIRPORT, GA US", "quality": 100, "contribution": 0.0}, "72219653863": {"distance": 18717.0, "latitude": 33.875, "longitude": -84.302, "useCount": 0, "id": "72219653863", "name": "ATLANTA DEKALB PEACHTREE AIRPORT, GA US", "quality": 100, "contribution": 0.0}, "KPDK": {"distance": 19310.0, "latitude": 33.88, "longitude": -84.3, "useCount": 0, "id": "KPDK", "name": "KPDK", "quality": 100, "contribution": 0.0}}}