{"queryCost": 1, "latitude": 47.68, "longitude": -122.127, "resolvedAddress": "47.68000,-122.12700", "address": "47.68000,-122.12700", "timezone": "America/Los_Angeles", "tzoffset": -7.0, "days": [{"datetime": "2020-09-20", "datetimeEpoch": 1600585200, "tempmax": 70.5, "tempmin": 59.0, "temp": 63.1, "feelslikemax": 70.5, "feelslikemin": 59.0, "feelslike": 63.1, "dew": 55.6, "humidity": 77.6, "precip": 0.0, "precipprob": 0.0, "precipcover": 0.0, "preciptype": null, "snow": 0.0, "snowdepth": 0.0, "windgust": null, "windspeed": 6.7, "winddir": 174.2, "pressure": 1018.3, "cloudcover": 51.5, "visibility": 8.7, "solarradiation": 101.1, "solarenergy": 8.6, "uvindex": 4.0, "sunrise": "06:53:21", "sunriseEpoch": 1600610001, "sunset": "19:09:09", "sunsetEpoch": 1600654149, "moonphase": 0.07, "conditions": "Partially cloudy", "description": "Partly cloudy throughout the day.", "icon": "partly-cloudy-day", "stations": ["D3422", "KSEA", "KBFI", "72793524234", "72793494248", "72793724222", "KRNT"], "source": "obs"}], "stations": {"D3422": {"distance": 5784.0, "latitude": 47.706, "longitude": -122.194, "useCount": 0, "id": "D3422", "name": "DW3422 Kirkland WA US", "quality": 0, "contribution": 0.0}, "KSEA": {"distance": 28712.0, "latitude": 47.45, "longitude": -122.3, "useCount": 0, "id": "KSEA", "name": "KSEA", "quality": 100, "contribution": 0.0}, "KBFI": {"distance": 21152.0, "latitude": 47.53, "longitude": -122.3, "useCount": 0, "id": "KBFI", "name": "KBFI", "quality": 100, "contribution": 0.0}, "72793524234": {"distance": 21172.0, "latitude": 47.53, "longitude": -122.301, "useCount": 0, "id": "72793524234", "name": "SEATTLE BOEING FIELD, WA US", "quality": 100, "contribution": 0.0}, "72793494248": {"distance": 21786.0, "latitude": 47.493, "longitude": -122.214, "useCount": 0, "id": "72793494248", "name": "RENTON MUNICIPAL AIRPORT, WA US", "quality": 100, "contribution": 0.0}, "72793724222": {"distance": 27820.0, "latitude": 47.908, "longitude": -122.28, "useCount": 0, "id": "72793724222", "name": "EVERETT SNOHOMISH CO AIRPORT, WA US", "quality": 100, "contribution": 0.0}, "KRNT": {"distance": 21219.0, "latitude": 47.5, "longitude": -122.22, "useCount": 0, "id": "KRNT", "name": "KRNT", "quality": 100, "contribution": 0.0}}}