{"queryCost": 1, "latitude": 29.448, "longitude": -98.597, "resolvedAddress": "29.44800,-98.59700", "address": "29.44800,-98.59700", "timezone": "America/Chicago", "tzoffset": -5.0, "days": [{"datetime": "2020-09-22", "datetimeEpoch": 1600750800, "tempmax": 82.3, "tempmin": 69.8, "temp": 74.4, "feelslikemax": 85.7, "feelslikemin": 69.8, "feelslike": 74.9, "dew": 66.9, "humidity": 77.9, "precip": 0.01, "precipprob": 100.0, "precipcover": 4.17, "preciptype": ["rain"], "snow": 0.0, "snowdepth": 0.0, "windgust": 26.4, "windspeed": 18.5, "winddir": 167.4, "pressure": 1012.7, "cloudcover": 77.5, "visibility": 9.3, "solarradiation": 147.4, "solarenergy": 12.6, "uvindex": 6.0, "sunrise": "07:23:01", "sunriseEpoch": 1600777381, "sunset": "19:30:18", "sunsetEpoch": 1600821018, "moonphase": 0.16, "conditions": "Rain, Partially cloudy", "description": "Partly cloudy throughout the day with early morning rain.", "icon": "rain", "stations": ["KSKF", "KSAT", "KSSF", "72253012921", "F6098", "72252312970", "72253512909"], "source": "obs"}], "stations": {"KSKF": {"distance": 7747.0, "latitude": 29.38, "longitude": -98.58, "useCount": 0, "id": "KSKF", "name": "KSKF", "quality": 100, "contribution": 0.0}, "KSAT": {"distance": 15322.0, "latitude": 29.53, "longitude": -98.47, "useCount": 0, "id": "KSAT", "name": "KSAT", "quality": 100, "contribution": 0.0}, "KSSF": {"distance": 18008.0, "latitude": 29.33, "longitude": -98.47, "useCount": 0, "id": "KSSF", "name": "KSSF", "quality": 100, "contribution": 0.0}, "72253012921": {"distance": 15330.0, "latitude": 29.544, "longitude": -98.484, "useCount": 0, "id": "72253012921", "name": "SAN ANTONIO INTERNATIONAL AIRPORT, TX US", "quality": 100, "contribution": 0.0}, "F6098": {"distance": 6632.0, "latitude": 29.505, "longitude": -98.575, "useCount": 0, "id": "F6098", "name": "FW6098 San Antonio TX US", "quality": 0, "contribution": 0.0}, "72252312970": {"distance": 17161.0, "latitude": 29.339, "longitude": -98.472, "useCount": 0, "id": "72252312970", "name": "SAN ANTONIO STINSON MUNICIPAL AIRPORT, TX US", "quality": 100, "contribution": 0.0}, "72253512909": {"distance": 7324.0, "latitude": 29.383, "longitude": -98.583, "useCount": 0, "id": "72253512909", "name": "SAN ANTONIO KELLY FIELD AFB, TX US", "quality": 98, "contribution": 0.0}}}