{"queryCost": 1, "latitude": 34.07, "longitude": -117.174, "resolvedAddress": "34.07000,-117.17400", "address": "34.07000,-117.17400", "timezone": "America/Los_Angeles", "tzoffset": -7.0, "days": [{"datetime": "2020-09-18", "datetimeEpoch": 1600412400, "tempmax": 96.3, "tempmin": 62.2, "temp": 77.7, "feelslikemax": 91.5, "feelslikemin": 62.2, "feelslike": 76.0, "dew": 35.9, "humidity": 24.2, "precip": 0.0, "precipprob": 0.0, "precipcover": 0.0, "preciptype": null, "snow": 0.0, "snowdepth": 0.0, "windgust": 25.3, "windspeed": 14.0, "winddir": 182.5, "pressure": 1010.9, "cloudcover": 3.5, "visibility": 9.9, "solarradiation": 248.5, "solarenergy": 21.5, "uvindex": 8.0, "sunrise": "06:34:22", "sunriseEpoch": 1600436062, "sunset": "18:50:17", "sunsetEpoch": 1600480217, "moonphase": 0.01, "conditions": "Clear", "description": "Clear conditions throughout the day.", "icon": "clear-day", "stations": ["KL35", "KRAL", "SE159", "72286023119", "KRIV", "A0685400115", "72286903171"], "source": "obs"}], "stations": {"KL35": {"distance": 35831.0, "latitude": 34.26, "longitude": -116.86, "useCount": 0, "id": "KL35", "name": "KL35", "quality": 100, "contribution": 0.0}, "KRAL": {"distance": 28759.0, "latitude": 33.95, "longitude": -117.45, "useCount": 0, "id": "KRAL", "name": "KRAL", "quality": 100, "contribution": 0.0}, "SE159": {"distance": 4068.0, "latitude": 34.106, "longitude": -117.168, "useCount": 0, "id": "SE159", "name": "SCE East Highlands CA US SC-EDISON", "quality": 0, "contribution": 0.0}, "72286023119": {"distance": 20183.0, "latitude": 33.9, "longitude": -117.25, "useCount": 0, "id": "72286023119", "name": "MARCH AFB, CA US", "quality": 97, "contribution": 0.0}, "KRIV": {"distance": 22932.0, "latitude": 33.88, "longitude": -117.27, "useCount": 0, "id": "KRIV", "name": "KRIV", "quality": 100, "contribution": 0.0}, "A0685400115": {"distance": 36539.0, "latitude": 34.264, "longitude": -116.854, "useCount": 0, "id": "A0685400115", "name": "BIG BEAR CITY AIRPORT, CA US", "quality": 100, "contribution": 0.0}, "72286903171": {"distance": 27763.0, "latitude": 33.952, "longitude": -117.439, "useCount": 0, "id": "72286903171", "name": "RIVERSIDE MUNICIPAL AIRPORT, CA US", "quality": 100, "contribution": 0.0}}}