{"queryCost": 1, "latitude": 31.883, "longitude": -102.5, "resolvedAddress": "31.88300,-102.50000", "address": "31.88300,-102.50000", "timezone": "America/Chicago", "tzoffset": -5.0, "days": [{"datetime": "2020-09-18", "datetimeEpoch": 1600405200, "tempmax": 82.9, "tempmin": 60.1, "temp": 71.6, "feelslikemax": 81.3, "feelslikemin": 60.1, "feelslike": 71.3, "dew": 53.6, "humidity": 56.6, "precip": 0.0, "precipprob": 0.0, "precipcover": 0.0, "preciptype": null, "snow": 0.0, "snowdepth": 0.0, "windgust": 21.5, "windspeed": 15.5, "winddir": 73.9, "pressure": 1019.0, "cloudcover": 17.1, "visibility": 9.2, "solarradiation": 223.7, "solarenergy": 19.2, "uvindex": 8.0, "sunrise": "07:36:05", "sunriseEpoch": 1600432565, "sunset": "19:51:15", "sunsetEpoch": 1600476675, "moonphase": 0.01, "conditions": "Clear", "description": "Clear conditions throughout the day.", "icon": "clear-day", "stations": ["MNDT2", "KMAF", "72265023023", "99999903047", "KODO", "72264803031"], "source": "obs"}], "stations": {"MNDT2": {"distance": 30047.0, "latitude": 31.943, "longitude": -102.19, "useCount": 0, "id": "MNDT2", "name": "MIDLAND TX US", "quality": 0, "contribution": 0.0}, "KMAF": {"distance": 31143.0, "latitude": 31.95, "longitude": -102.18, "useCount": 0, "id": "KMAF", "name": "KMAF", "quality": 100, "contribution": 0.0}, "72265023023": {"distance": 28419.0, "latitude": 31.948, "longitude": -102.209, "useCount": 0, "id": "72265023023", "name": "MIDLAND INTERNATIONAL AIRPORT, TX US", "quality": 100, "contribution": 0.0}, "99999903047": {"distance": 41101.0, "latitude": 31.622, "longitude": -102.807, "useCount": 0, "id": "99999903047", "name": "MONAHANS 6 ENE, TX US", "quality": 100, "contribution": 0.0}, "KODO": {"distance": 11182.0, "latitude": 31.92, "longitude": -102.39, "useCount": 0, "id": "KODO", "name": "KODO", "quality": 100, "contribution": 0.0}, "72264803031": {"distance": 11470.0, "latitude": 31.921, "longitude": -102.387, "useCount": 0, "id": "72264803031", "name": "ODESSA SCHLEMEYER FIELD, TX US", "quality": 100, "contribution": 0.0}}}