{"queryCost": 1, "latitude": 42.322, "longitude": -83.176, "resolvedAddress": "42.32200,-83.17600", "address": "42.32200,-83.17600", "timezone": "America/Detroit", "tzoffset": -4.0, "days": [{"datetime": "2020-09-27", "datetimeEpoch": 1601179200, "tempmax": 78.5, "tempmin": 63.6, "temp": 70.3, "feelslikemax": 78.5, "feelslikemin": 63.6, "feelslike": 70.3, "dew": 61.1, "humidity": 73.0, "precip": 0.0, "precipprob": 0.0, "precipcover": 0.0, "preciptype": null, "snow": 0.0, "snowdepth": 0.0, "windgust": 27.5, "windspeed": 16.5, "winddir": 222.0, "pressure": 1007.6, "cloudcover": 44.7, "visibility": 9.6, "solarradiation": 90.5, "solarenergy": 7.7, "uvindex": 4.0, "sunrise": "07:25:57", "sunriseEpoch": 1601205957, "sunset": "19:20:19", "sunsetEpoch": 1601248819, "moonphase": 0.41, "conditions": "Partially cloudy", "description": "Partly cloudy throughout the day.", "icon": "partly-cloudy-day", "stations": ["72537094847", "71538099999", "KONZ", "F5336", "KDET", "72537514822", "KDTW"], "source": "obs"}], "stations": {"72537094847": {"distance": 16264.0, "latitude": 42.231, "longitude": -83.331, "useCount": 0, "id": "72537094847", "name": "DETROIT METRO AIRPORT, MI US", "quality": 100, "contribution": 0.0}, "71538099999": {"distance": 18868.0, "latitude": 42.276, "longitude": -82.956, "useCount": 0, "id": "71538099999", "name": "WINDSOR, CA", "quality": 100, "contribution": 0.0}, "KONZ": {"distance": 24748.0, "latitude": 42.1, "longitude": -83.16, "useCount": 0, "id": "KONZ", "name": "KONZ", "quality": 100, "contribution": 0.0}, "F5336": {"distance": 8158.0, "latitude": 42.254, "longitude": -83.211, "useCount": 0, "id": "F5336", "name": "FW5336 Allen Park MI US", "quality": 0, "contribution": 0.0}, "KDET": {"distance": 16841.0, "latitude": 42.42, "longitude": -83.02, "useCount": 0, "id": "KDET", "name": "KDET", "quality": 100, "contribution": 0.0}, "72537514822": {"distance": 16752.0, "latitude": 42.409, "longitude": -83.01, "useCount": 0, "id": "72537514822", "name": "DETROIT CITY AIRPORT, MI US", "quality": 100, "contribution": 0.0}, "KDTW": {"distance": 16303.0, "latitude": 42.23, "longitude": -83.33, "useCount": 0, "id": "KDTW", "name": "KDTW", "quality": 100, "contribution": 0.0}}}