{"queryCost": 1, "latitude": 47.644, "longitude": -117.539, "resolvedAddress": "47.64400,-117.53900", "address": "47.64400,-117.53900", "timezone": "America/Los_Angeles", "tzoffset": -7.0, "days": [{"datetime": "2020-09-24", "datetimeEpoch": 1600930800, "tempmax": 66.0, "tempmin": 53.1, "temp": 58.4, "feelslikemax": 66.0, "feelslikemin": 53.1, "feelslike": 58.4, "dew": 46.1, "humidity": 66.6, "precip": 0.17, "precipprob": 100.0, "precipcover": 12.5, "preciptype": ["rain"], "snow": 0.0, "snowdepth": 0.0, "windgust": 39.8, "windspeed": 25.1, "winddir": 215.0, "pressure": 1012.1, "cloudcover": 54.9, "visibility": 9.7, "solarradiation": 105.6, "solarenergy": 9.1, "uvindex": 6.0, "sunrise": "06:40:25", "sunriseEpoch": 1600954825, "sunset": "18:42:36", "sunsetEpoch": 1600998156, "moonphase": 0.27, "conditions": "Rain, Partially cloudy", "description": "Partly cloudy throughout the day with early morning rain.", "icon": "rain", "stations": ["F4353", "72785524114", "72785694176", "72785024157", "KSFF", "KGEG", "KSKA"], "source": "obs"}], "stations": {"F4353": {"distance": 7316.0, "latitude": 47.668, "longitude": -117.448, "useCount": 0, "id": "F4353", "name": "FW4353 Spokane WA US", "quality": 0, "contribution": 0.0}, "72785524114": {"distance": 8411.0, "latitude": 47.633, "longitude": -117.65, "useCount": 0, "id": "72785524114", "name": "FAIRCHILD AFB, WA US", "quality": 96, "contribution": 0.0}, "72785694176": {"distance": 16913.0, "latitude": 47.683, "longitude": -117.321, "useCount": 0, "id": "72785694176", "name": "SPOKANE FELTS FIELD, WA US", "quality": 100, "contribution": 0.0}, "72785024157": {"distance": 2627.0, "latitude": 47.622, "longitude": -117.528, "useCount": 0, "id": "72785024157", "name": "SPOKANE INTERNATIONAL AIRPORT, WA US", "quality": 100, "contribution": 0.0}, "KSFF": {"distance": 16901.0, "latitude": 47.68, "longitude": -117.32, "useCount": 0, "id": "KSFF", "name": "KSFF", "quality": 100, "contribution": 0.0}, "KGEG": {"distance": 1698.0, "latitude": 47.63, "longitude": -117.53, "useCount": 0, "id": "KGEG", "name": "KGEG", "quality": 100, "contribution": 0.0}, "KSKA": {"distance": 8745.0, "latitude": 47.62, "longitude": -117.65, "useCount": 0, "id": "KSKA", "name": "KSKA", "quality": 100, "contribution": 0.0}}}