{"queryCost": 1, "latitude": 40.851, "longitude": -73.933, "resolvedAddress": "40.85100,-73.93300", "address": "40.85100,-73.93300", "timezone": "America/New_York", "tzoffset": -4.0, "days": [{"datetime": "2020-10-08", "datetimeEpoch": 1602129600, "tempmax": 63.4, "tempmin": 54.4, "temp": 59.2, "feelslikemax": 63.4, "feelslikemin": 54.4, "feelslike": 59.2, "dew": 39.4, "humidity": 48.37, "precip": 0.0, "precipprob": null, "precipcover": 0.0, "preciptype": null, "snow": 0.0, "snowdepth": 0.0, "windgust": 28.8, "windspeed": 16.7, "winddir": 303.0, "pressure": 1014.1, "cloudcover": 11.3, "visibility": 9.9, "solarradiation": 358.2, "solarenergy": 16.8, "uvindex": 7.0, "sunrise": "07:00:02", "sunriseEpoch": 1602154802, "sunset": "18:25:32", "sunsetEpoch": 1602195932, "moonphase": 0.68, "conditions": "Clear", "description": "Clear conditions throughout the day.", "icon": "clear-day", "stations": ["D9152", "72502594741", "72505394728", "KTEB", "KLGA", "KNYC", "72503014732"], "source": "obs"}], "stations": {"D9152": {"distance": 11895.0, "latitude": 40.751, "longitude": -73.882, "useCount": 0, "id": "D9152", "name": "DW9152 Jackson Heights NY US", "quality": 0, "contribution": 0.0}, "72502594741": {"distance": 10812.0, "latitude": 40.85, "longitude": -74.061, "useCount": 0, "id": "72502594741", "name": "TETERBORO AIRPORT, NJ US", "quality": 100, "contribution": 0.0}, "72505394728": {"distance": 8579.0, "latitude": 40.779, "longitude": -73.969, "useCount": 0, "id": "72505394728", "name": "NY CITY CENTRAL PARK, NY US", "quality": 100, "contribution": 0.0}, "KTEB": {"distance": 10695.0, "latitude": 40.85, "longitude": -74.06, "useCount": 0, "id": "KTEB", "name": "KTEB", "quality": 100, "contribution": 0.0}, "KLGA": {"distance": 9436.0, "latitude": 40.77, "longitude": -73.9, "useCount": 0, "id": "KLGA", "name": "KLGA", "quality": 100, "contribution": 0.0}, "KNYC": {"distance": 9848.0, "latitude": 40.77, "longitude": -73.98, "useCount": 0, "id": "KNYC", "name": "KNYC", "quality": 100, "contribution": 0.0}, "72503014732": {"distance": 9124.0, "latitude": 40.779, "longitude": -73.88, "useCount": 0, "id": "72503014732", "name": "LAGUARDIA AIRPORT, NY US", "quality": 100, "contribution": 0.0}}}