{"queryCost": 1, "latitude": 32.32, "longitude": -106.764, "resolvedAddress": "32.32000,-106.76400", "address": "32.32000,-106.76400", "timezone": "America/Denver", "tzoffset": -6.0, "days": [{"datetime": "2020-10-04", "datetimeEpoch": 1601791200, "tempmax": 84.5, "tempmin": 50.5, "temp": 68.6, "feelslikemax": 81.5, "feelslikemin": 50.5, "feelslike": 68.1, "dew": 31.9, "humidity": 26.97, "precip": 0.0, "precipprob": null, "precipcover": 0.0, "preciptype": null, "snow": 0.0, "snowdepth": 0.0, "windgust": null, "windspeed": 8.8, "winddir": 170.9, "pressure": null, "cloudcover": 0.0, "visibility": 9.9, "solarradiation": 436.8, "solarenergy": 20.4, "uvindex": 8.0, "sunrise": "07:03:24", "sunriseEpoch": 1601816604, "sunset": "18:47:15", "sunsetEpoch": 1601858835, "moonphase": 0.53, "conditions": "Clear", "description": "Clear conditions throughout the day.", "icon": "clear-day", "stations": ["99999903074", "NMC07", "KLRU", "72364099999", "72269593041", "F0536"], "source": "obs"}], "stations": {"99999903074": {"distance": 32766.0, "latitude": 32.614, "longitude": -106.741, "useCount": 0, "id": "99999903074", "name": "LAS CRUCES 20 N, NM US", "quality": 100, "contribution": 0.0}, "NMC07": {"distance": 4225.0, "latitude": 32.282, "longitude": -106.76, "useCount": 0, "id": "NMC07", "name": "NMSU Main Campus NM US NMCC", "quality": 0, "contribution": 0.0}, "KLRU": {"distance": 15339.0, "latitude": 32.28, "longitude": -106.92, "useCount": 0, "id": "KLRU", "name": "KLRU", "quality": 100, "contribution": 0.0}, "72364099999": {"distance": 49273.0, "latitude": 31.88, "longitude": -106.703, "useCount": 0, "id": "72364099999", "name": "DONA ANA CO INTERNATIONAL JETPORT ARPT SANTA TERESA, NM US", "quality": 100, "contribution": 0.0}, "72269593041": {"distance": 14965.0, "latitude": 32.283, "longitude": -106.917, "useCount": 0, "id": "72269593041", "name": "LAS CRUCES MUNICIPAL AIRPORT, NM US", "quality": 100, "contribution": 0.0}, "F0536": {"distance": 2088.0, "latitude": 32.338, "longitude": -106.771, "useCount": 0, "id": "F0536", "name": "FW0536 Las Cruces NM US", "quality": 0, "contribution": 0.0}}}