{"queryCost": 1, "latitude": 27.186, "longitude": -80.3, "resolvedAddress": "27.18600,-80.30000", "address": "27.18600,-80.30000", "timezone": "America/New_York", "tzoffset": -4.0, "days": [{"datetime": "2020-10-08", "datetimeEpoch": 1602129600, "tempmax": 87.6, "tempmin": 73.7, "temp": 81.1, "feelslikemax": 94.1, "feelslikemin": 73.7, "feelslike": 84.8, "dew": 72.5, "humidity": 76.1, "precip": 0.0, "precipprob": 0.0, "precipcover": 0.0, "preciptype": null, "snow": 0.0, "snowdepth": 0.0, "windgust": null, "windspeed": 13.2, "winddir": 77.3, "pressure": 1016.2, "cloudcover": 27.5, "visibility": 9.3, "solarradiation": 198.8, "solarenergy": 17.2, "uvindex": 8.0, "sunrise": "07:17:29", "sunriseEpoch": 1602155849, "sunset": "18:59:15", "sunsetEpoch": 1602197955, "moonphase": 0.68, "conditions": "Partially cloudy", "description": "Partly cloudy throughout the day.", "icon": "partly-cloudy-day", "stations": ["KOBE", "KSUA", "72210312895", "KVRB", "0202W", "KFPR", "74793012843"], "source": "obs"}], "stations": {"KOBE": {"distance": 54085.0, "latitude": 27.26, "longitude": -80.84, "useCount": 0, "id": "KOBE", "name": "KOBE", "quality": 99, "contribution": 0.0}, "KSUA": {"distance": 7950.0, "latitude": 27.18, "longitude": -80.22, "useCount": 0, "id": "KSUA", "name": "KSUA", "quality": 77, "contribution": 0.0}, "72210312895": {"distance": 35561.0, "latitude": 27.498, "longitude": -80.377, "useCount": 0, "id": "72210312895", "name": "FORT PIERCE ST LUCIE CO INTERNATIONAL AIRPORT, FL US", "quality": 100, "contribution": 0.0}, "KVRB": {"distance": 52996.0, "latitude": 27.65, "longitude": -80.42, "useCount": 0, "id": "KVRB", "name": "KVRB", "quality": 99, "contribution": 0.0}, "0202W": {"distance": 9117.0, "latitude": 27.268, "longitude": -80.3, "useCount": 0, "id": "0202W", "name": "Southport Middle School FL US WEATHERSTEM", "quality": 0, "contribution": 0.0}, "KFPR": {"distance": 35633.0, "latitude": 27.5, "longitude": -80.37, "useCount": 0, "id": "KFPR", "name": "KFPR", "quality": 100, "contribution": 0.0}, "74793012843": {"distance": 53102.0, "latitude": 27.651, "longitude": -80.42, "useCount": 0, "id": "74793012843", "name": "VERO BEACH INTERNATIONAL AIRPORT, FL US", "quality": 100, "contribution": 0.0}}}