{"queryCost": 1, "latitude": 33.597, "longitude": -112.1, "resolvedAddress": "33.59700,-112.10000", "address": "33.59700,-112.10000", "timezone": "America/Phoenix", "tzoffset": -7.0, "days": [{"datetime": "2015-07-09", "datetimeEpoch": 1436425200, "tempmax": 98.7, "tempmin": 76.8, "temp": 89.0, "feelslikemax": 94.0, "feelslikemin": 76.8, "feelslike": 85.8, "dew": 34.6, "humidity": 15.2, "precip": 0.0, "precipprob": 0.0, "precipcover": 0.0, "preciptype": null, "snow": 0.0, "snowdepth": 0.0, "windgust": 27.2, "windspeed": 18.4, "winddir": 180.8, "pressure": 1006.0, "cloudcover": 10.8, "visibility": 9.9, "solarradiation": 296.6, "solarenergy": 25.6, "uvindex": 10.0, "sunrise": "05:25:42", "sunriseEpoch": 1436444742, "sunset": "19:41:19", "sunsetEpoch": 1436496079, "moonphase": 0.79, "conditions": "Clear", "description": "Clear conditions throughout the day.", "icon": "clear-day", "stations": ["72278403184", "72278903192", "KSDL", "KDVT", "72278023183", "KPHX"], "source": "obs"}], "stations": {"72278403184": {"distance": 10299.0, "latitude": 33.688, "longitude": -112.082, "useCount": 0, "id": "72278403184", "name": "PHOENIX DEER VALLEY MUNICIPAL AIRPORT, AZ US", "quality": 100, "contribution": 0.0}, "72278903192": {"distance": 17756.0, "latitude": 33.623, "longitude": -111.911, "useCount": 0, "id": "72278903192", "name": "SCOTTSDALE MUNICIPAL AIRPORT, AZ US", "quality": 100, "contribution": 0.0}, "KSDL": {"distance": 16752.0, "latitude": 33.61, "longitude": -111.92, "useCount": 0, "id": "KSDL", "name": "KSDL", "quality": 100, "contribution": 0.0}, "KDVT": {"distance": 9649.0, "latitude": 33.68, "longitude": -112.07, "useCount": 0, "id": "KDVT", "name": "KDVT", "quality": 100, "contribution": 0.0}, "72278023183": {"distance": 20847.0, "latitude": 33.428, "longitude": -112.004, "useCount": 0, "id": "72278023183", "name": "PHOENIX AIRPORT, AZ US", "quality": 100, "contribution": 0.0}, "KPHX": {"distance": 20018.0, "latitude": 33.43, "longitude": -112.02, "useCount": 0, "id": "KPHX", "name": "KPHX", "quality": 100, "contribution": 0.0}}}