{"queryCost": 1, "latitude": 27.746, "longitude": -81.531, "resolvedAddress": "27.74600,-81.53100", "address": "27.74600,-81.53100", "timezone": "America/New_York", "tzoffset": -4.0, "days": [{"datetime": "2020-10-14", "datetimeEpoch": 1602648000, "tempmax": 88.8, "tempmin": 71.0, "temp": 79.0, "feelslikemax": 91.2, "feelslikemin": 71.0, "feelslike": 80.4, "dew": 68.9, "humidity": 73.9, "precip": 0.0, "precipprob": 0.0, "precipcover": 0.0, "preciptype": null, "snow": 0.0, "snowdepth": 0.0, "windgust": null, "windspeed": 9.9, "winddir": 146.8, "pressure": 1015.3, "cloudcover": 12.1, "visibility": 9.7, "solarradiation": 215.0, "solarenergy": 18.6, "uvindex": 8.0, "sunrise": "07:26:00", "sunriseEpoch": 1602674760, "sunset": "18:57:34", "sunsetEpoch": 1602716254, "moonphase": 0.96, "conditions": "Clear", "description": "Clear conditions throughout the day.", "icon": "clear-day", "stations": ["74793112876", "74904599999", "TT601", "72201192813", "KGIF", "KISM"], "source": "obs"}], "stations": {"74793112876": {"distance": 41486.0, "latitude": 28.062, "longitude": -81.754, "useCount": 0, "id": "74793112876", "name": "WINTER HAVEN GILBERT AIRPORT, FL US", "quality": 100, "contribution": 0.0}, "74904599999": {"distance": 37222.0, "latitude": 27.456, "longitude": -81.342, "useCount": 0, "id": "74904599999", "name": "SEBRING REGIONAL, FL US", "quality": 100, "contribution": 0.0}, "TT601": {"distance": 21058.0, "latitude": 27.69, "longitude": -81.327, "useCount": 0, "id": "TT601", "name": "AVON PARK AFR NORTH FL US", "quality": 0, "contribution": 0.0}, "72201192813": {"distance": 61227.0, "latitude": 28.29, "longitude": -81.437, "useCount": 0, "id": "72201192813", "name": "ORLANDO KISSIMMEE MUNICIPAL AIRPORT, FL US", "quality": 99, "contribution": 0.0}, "KGIF": {"distance": 40118.0, "latitude": 28.05, "longitude": -81.75, "useCount": 0, "id": "KGIF", "name": "KGIF", "quality": 100, "contribution": 0.0}, "KISM": {"distance": 61215.0, "latitude": 28.29, "longitude": -81.44, "useCount": 0, "id": "KISM", "name": "KISSIMMEE AIRPORT, FL", "quality": 100, "contribution": 0.0}}}