{"queryCost": 1, "latitude": 39.215, "longitude": -81.436, "resolvedAddress": "39.21500,-81.43600", "address": "39.21500,-81.43600", "timezone": "America/New_York", "tzoffset": -4.0, "days": [{"datetime": "2020-10-17", "datetimeEpoch": 1602907200, "tempmax": 60.2, "tempmin": 29.9, "temp": 44.5, "feelslikemax": 60.2, "feelslikemin": 29.9, "feelslike": 44.3, "dew": 29.7, "humidity": 62.91, "precip": 0.0, "precipprob": null, "precipcover": 0.0, "preciptype": null, "snow": 0.0, "snowdepth": 0.0, "windgust": 18.3, "windspeed": 10.2, "winddir": 81.0, "pressure": 1026.8, "cloudcover": 0.0, "visibility": 9.9, "solarradiation": 197.3, "solarenergy": 8.5, "uvindex": 4.0, "sunrise": "07:38:00", "sunriseEpoch": 1602934680, "sunset": "18:43:20", "sunsetEpoch": 1602974600, "moonphase": 0.0, "conditions": "Clear", "description": "Clear conditions throughout the day.", "icon": "clear-day", "stations": ["72039700131", "72427303804", "AV631", "KUNI", "KPKB"], "source": "obs"}], "stations": {"72039700131": {"distance": 68739.0, "latitude": 39.217, "longitude": -82.233, "useCount": 0, "id": "72039700131", "name": "OHIO UNIVERSITY AIRPORT SNYDER FIELD, OH US", "quality": 100, "contribution": 0.0}, "72427303804": {"distance": 13876.0, "latitude": 39.34, "longitude": -81.444, "useCount": 0, "id": "72427303804", "name": "PARKERSBURG AIRPORT, WV US", "quality": 99, "contribution": 0.0}, "AV631": {"distance": 11732.0, "latitude": 39.276, "longitude": -81.547, "useCount": 0, "id": "AV631", "name": "N8POB Parkersburg WV US", "quality": 0, "contribution": 0.0}, "KUNI": {"distance": 68485.0, "latitude": 39.21, "longitude": -82.23, "useCount": 0, "id": "KUNI", "name": "KUNI", "quality": 95, "contribution": 0.0}, "KPKB": {"distance": 15037.0, "latitude": 39.35, "longitude": -81.43, "useCount": 0, "id": "KPKB", "name": "KPKB", "quality": 100, "contribution": 0.0}}}