{"queryCost": 1, "latitude": 41.5, "longitude": -90.568, "resolvedAddress": "41.50000,-90.56800", "address": "41.50000,-90.56800", "timezone": "America/Chicago", "tzoffset": -5.0, "days": [{"datetime": "2020-10-16", "datetimeEpoch": 1602824400, "tempmax": 55.4, "tempmin": 35.0, "temp": 43.2, "feelslikemax": 55.4, "feelslikemin": 29.7, "feelslike": 41.0, "dew": 26.6, "humidity": 53.2, "precip": 0.0, "precipprob": 0.0, "precipcover": 0.0, "preciptype": null, "snow": 0.0, "snowdepth": 0.0, "windgust": 35.1, "windspeed": 21.6, "winddir": 253.8, "pressure": 1021.7, "cloudcover": 27.4, "visibility": 9.9, "solarradiation": 131.8, "solarenergy": 11.3, "uvindex": 6.0, "sunrise": "07:15:56", "sunriseEpoch": 1602850556, "sunset": "18:18:48", "sunsetEpoch": 1602890328, "moonphase": 1.0, "conditions": "Partially cloudy", "description": "Partly cloudy throughout the day.", "icon": "partly-cloudy-day", "stations": ["KDVN", "72547394979", "TT595", "KCWI", "72544014923", "KMLI", "74455094982"], "source": "obs"}], "stations": {"KDVN": {"distance": 12286.0, "latitude": 41.61, "longitude": -90.58, "useCount": 0, "id": "KDVN", "name": "KDVN", "quality": 100, "contribution": 0.0}, "72547394979": {"distance": 41923.0, "latitude": 41.833, "longitude": -90.333, "useCount": 0, "id": "72547394979", "name": "CLINTON MUNICIPAL AIRPORT, IA US", "quality": 99, "contribution": 0.0}, "TT595": {"distance": 57775.0, "latitude": 41.415, "longitude": -91.251, "useCount": 0, "id": "TT595", "name": "CEDAR RIVER TNC SWAMP IA US", "quality": 0, "contribution": 0.0}, "KCWI": {"distance": 41728.0, "latitude": 41.83, "longitude": -90.33, "useCount": 0, "id": "KCWI", "name": "CLINTON MUNI, IA", "quality": 100, "contribution": 0.0}, "72544014923": {"distance": 5368.0, "latitude": 41.465, "longitude": -90.523, "useCount": 0, "id": "72544014923", "name": "MOLINE QUAD CITY INTERNATIONAL AIRPORT, IL US", "quality": 100, "contribution": 0.0}, "KMLI": {"distance": 6856.0, "latitude": 41.45, "longitude": -90.52, "useCount": 0, "id": "KMLI", "name": "KMLI", "quality": 100, "contribution": 0.0}, "74455094982": {"distance": 12828.0, "latitude": 41.614, "longitude": -90.591, "useCount": 0, "id": "74455094982", "name": "DAVENPORT MUNICIPAL AIRPORT, IA US", "quality": 100, "contribution": 0.0}}}