{"queryCost": 1, "latitude": 30.298, "longitude": -87.426, "resolvedAddress": "30.29800,-87.42600", "address": "30.29800,-87.42600", "timezone": "America/Chicago", "tzoffset": -5.0, "days": [{"datetime": "2020-10-20", "datetimeEpoch": 1603170000, "tempmax": 85.0, "tempmin": 68.9, "temp": 76.0, "feelslikemax": 87.6, "feelslikemin": 68.9, "feelslike": 76.8, "dew": 66.1, "humidity": 72.11, "precip": 0.0, "precipprob": null, "precipcover": 0.0, "preciptype": null, "snow": 0.0, "snowdepth": 0.0, "windgust": null, "windspeed": 12.0, "winddir": 66.5, "pressure": 1017.9, "cloudcover": 34.6, "visibility": 9.9, "solarradiation": 338.0, "solarenergy": 14.6, "uvindex": 7.0, "sunrise": "06:55:32", "sunriseEpoch": 1603194932, "sunset": "18:12:47", "sunsetEpoch": 1603235567, "moonphase": 0.09, "conditions": "Partially cloudy", "description": "Partly cloudy throughout the day.", "icon": "partly-cloudy-day", "stations": ["72222503855", "C1231", "72222313899", "KNPA", "KPNS", "E8541"], "source": "obs"}], "stations": {"72222503855": {"distance": 11992.0, "latitude": 30.35, "longitude": -87.317, "useCount": 0, "id": "72222503855", "name": "PENSACOLA FOREST SHERMAN NAS, FL US", "quality": 92, "contribution": 0.0}, "C1231": {"distance": 9976.0, "latitude": 30.376, "longitude": -87.476, "useCount": 0, "id": "C1231", "name": "CW1231 Lillian AL US", "quality": 0, "contribution": 0.0}, "72222313899": {"distance": 30481.0, "latitude": 30.478, "longitude": -87.187, "useCount": 0, "id": "72222313899", "name": "PENSACOLA REGIONAL AIRPORT, FL US", "quality": 100, "contribution": 0.0}, "KNPA": {"distance": 11715.0, "latitude": 30.35, "longitude": -87.32, "useCount": 0, "id": "KNPA", "name": "KNPA", "quality": 93, "contribution": 0.0}, "KPNS": {"distance": 31120.0, "latitude": 30.48, "longitude": -87.18, "useCount": 0, "id": "KPNS", "name": "KPNS", "quality": 100, "contribution": 0.0}, "E8541": {"distance": 10395.0, "latitude": 30.388, "longitude": -87.398, "useCount": 0, "id": "E8541", "name": "EW8541 Huntington Beach CA US", "quality": 0, "contribution": 0.0}}}