{"queryCost": 1, "latitude": 40.509, "longitude": -112.017, "resolvedAddress": "40.50900,-112.01700", "address": "40.50900,-112.01700", "timezone": "America/Denver", "tzoffset": -6.0, "days": [{"datetime": "2020-10-27", "datetimeEpoch": 1603778400, "tempmax": 42.3, "tempmin": 23.5, "temp": 32.1, "feelslikemax": 37.2, "feelslikemin": 16.6, "feelslike": 28.3, "dew": 17.3, "humidity": 55.13, "precip": 0.0, "precipprob": null, "precipcover": 0.0, "preciptype": null, "snow": 0.0, "snowdepth": 3.15, "windgust": null, "windspeed": 10.1, "winddir": 193.0, "pressure": 1026.7, "cloudcover": 16.2, "visibility": 9.9, "solarradiation": 169.5, "solarenergy": 13.4, "uvindex": 6.0, "sunrise": "07:52:58", "sunriseEpoch": 1603806778, "sunset": "18:30:11", "sunsetEpoch": 1603845011, "moonphase": 0.43, "conditions": "Clear", "description": "Clear conditions throughout the day.", "icon": "clear-day", "stations": ["UTJUN", "72572024127", "KPVU", "72057299999", "A0002804116", "KSLC", "72572424174"], "source": "obs"}], "stations": {"UTJUN": {"distance": 3208.0, "latitude": 40.486, "longitude": -111.994, "useCount": 0, "id": "UTJUN", "name": "SR-85 @ Juniper UT US UTAH DOT", "quality": 0, "contribution": 0.0}, "72572024127": {"distance": 30229.0, "latitude": 40.778, "longitude": -111.969, "useCount": 0, "id": "72572024127", "name": "SALT LAKE CITY INTERNATIONAL AIRPORT, UT US", "quality": 100, "contribution": 0.0}, "KPVU": {"distance": 40861.0, "latitude": 40.22, "longitude": -111.72, "useCount": 0, "id": "KPVU", "name": "PROVO, UT", "quality": 100, "contribution": 0.0}, "72057299999": {"distance": 30498.0, "latitude": 40.612, "longitude": -112.351, "useCount": 0, "id": "72057299999", "name": "BOLINDER FIELD TOOELE VALLEY, UT US", "quality": 100, "contribution": 0.0}, "A0002804116": {"distance": 12456.0, "latitude": 40.619, "longitude": -111.993, "useCount": 0, "id": "A0002804116", "name": "SALT LAKE CITY MUNICIPAL AIRPORT 2, UT US", "quality": 98, "contribution": 0.0}, "KSLC": {"distance": 30428.0, "latitude": 40.78, "longitude": -111.97, "useCount": 0, "id": "KSLC", "name": "KSLC", "quality": 100, "contribution": 0.0}, "72572424174": {"distance": 40801.0, "latitude": 40.219, "longitude": -111.723, "useCount": 0, "id": "72572424174", "name": "PROVO AIRPORT, UT US", "quality": 100, "contribution": 0.0}}}