{"queryCost": 1, "latitude": 38.494, "longitude": -121.519, "resolvedAddress": "38.49400,-121.51900", "address": "38.49400,-121.51900", "timezone": "America/Los_Angeles", "tzoffset": -8.0, "days": [{"datetime": "2020-11-04", "datetimeEpoch": 1604476800, "tempmax": 79.1, "tempmin": 44.0, "temp": 58.7, "feelslikemax": 79.1, "feelslikemin": 41.5, "feelslike": 58.5, "dew": 42.3, "humidity": 60.5, "precip": 0.0, "precipprob": 0.0, "precipcover": 0.0, "preciptype": null, "snow": 0.0, "snowdepth": 0.0, "windgust": null, "windspeed": 6.9, "winddir": 152.2, "pressure": 1021.7, "cloudcover": 0.2, "visibility": 9.9, "solarradiation": 24.6, "solarenergy": 2.1, "uvindex": 1.0, "sunrise": "06:36:32", "sunriseEpoch": 1604500592, "sunset": "17:02:17", "sunsetEpoch": 1604538137, "moonphase": 0.57, "conditions": "Clear", "description": "Clear conditions throughout the day.", "icon": "clear-day", "stations": ["KSMF", "TS388", "TS389", "72482893241", "72483023232", "72483993225", "KEDU", "KSAC"], "source": "obs"}], "stations": {"KSMF": {"distance": 23538.0, "latitude": 38.7, "longitude": -121.58, "useCount": 0, "id": "KSMF", "name": "SACRAMENTO METRO, CA", "quality": 100, "contribution": 0.0}, "TS388": {"distance": 7509.0, "latitude": 38.561, "longitude": -121.507, "useCount": 0, "id": "TS388", "name": "ARB3 PORTABLE CA US", "quality": 0, "contribution": 0.0}, "TS389": {"distance": 8597.0, "latitude": 38.569, "longitude": -121.493, "useCount": 0, "id": "TS389", "name": "ARB4 PORTABLE CA US", "quality": 0, "contribution": 0.0}, "72482893241": {"distance": 40334.0, "latitude": 38.378, "longitude": -121.957, "useCount": 0, "id": "72482893241", "name": "VACAVILLE NUT TREE AIRPORT, CA US", "quality": 100, "contribution": 0.0}, "72483023232": {"distance": 2537.0, "latitude": 38.507, "longitude": -121.495, "useCount": 0, "id": "72483023232", "name": "SACRAMENTO EXECUTIVE AIRPORT, CA US", "quality": 100, "contribution": 0.0}, "72483993225": {"distance": 23277.0, "latitude": 38.696, "longitude": -121.59, "useCount": 0, "id": "72483993225", "name": "SACRAMENTO METROPOLITAN AIRPORT, CA US", "quality": 100, "contribution": 0.0}, "KEDU": {"distance": 23943.0, "latitude": 38.53, "longitude": -121.79, "useCount": 0, "id": "KEDU", "name": "KEDU", "quality": 97, "contribution": 0.0}, "KSAC": {"distance": 3334.0, "latitude": 38.52, "longitude": -121.5, "useCount": 0, "id": "KSAC", "name": "KSAC", "quality": 100, "contribution": 0.0}}}