{"queryCost": 1, "latitude": 39.991, "longitude": -75.121, "resolvedAddress": "39.99100,-75.12100", "address": "39.99100,-75.12100", "timezone": "America/New_York", "tzoffset": -5.0, "days": [{"datetime": "2020-11-12", "datetimeEpoch": 1605157200, "tempmax": 66.9, "tempmin": 47.3, "temp": 56.5, "feelslikemax": 66.9, "feelslikemin": 43.0, "feelslike": 55.5, "dew": 53.3, "humidity": 89.19, "precip": 0.51, "precipprob": null, "precipcover": 54.17, "preciptype": null, "snow": 0.0, "snowdepth": 0.0, "windgust": 24.8, "windspeed": 14.5, "winddir": 144.5, "pressure": 1015.3, "cloudcover": 98.2, "visibility": 7.8, "solarradiation": 29.9, "solarenergy": 1.3, "uvindex": 1.0, "sunrise": "06:42:47", "sunriseEpoch": 1605181367, "sunset": "16:46:11", "sunsetEpoch": 1605217571, "moonphase": 0.95, "conditions": "Rain, Overcast", "description": "Cloudy skies throughout the day with a chance of rain throughout the day.", "icon": "rain", "stations": ["F6990", "72408594732", "72408013739", "72030464752", "E8199", "KPHL", "D8567", "1338W", "KLOM", "KPNE"], "source": "obs"}], "stations": {"F6990": {"distance": 10916.0, "latitude": 39.914, "longitude": -75.042, "useCount": 0, "id": "F6990", "name": "FW6990 Haddon Township NJ US", "quality": 0, "contribution": 0.0}, "72408594732": {"distance": 13411.0, "latitude": 40.079, "longitude": -75.013, "useCount": 0, "id": "72408594732", "name": "NORTHEAST PHILADELPHIA AIRPORT, PA US", "quality": 100, "contribution": 0.0}, "72408013739": {"distance": 15913.0, "latitude": 39.873, "longitude": -75.227, "useCount": 0, "id": "72408013739", "name": "PHILADELPHIA INTERNATIONAL AIRPORT, PA US", "quality": 100, "contribution": 0.0}, "72030464752": {"distance": 17361.0, "latitude": 40.1, "longitude": -75.267, "useCount": 0, "id": "72030464752", "name": "WINGS FIELD, PA US", "quality": 100, "contribution": 0.0}, "E8199": {"distance": 5855.0, "latitude": 39.944, "longitude": -75.151, "useCount": 0, "id": "E8199", "name": "EW8199 Phildelphia PA US", "quality": 0, "contribution": 0.0}, "KPHL": {"distance": 16551.0, "latitude": 39.88, "longitude": -75.25, "useCount": 0, "id": "KPHL", "name": "KPHL", "quality": 100, "contribution": 0.0}, "D8567": {"distance": 10466.0, "latitude": 40.043, "longitude": -75.018, "useCount": 0, "id": "D8567", "name": "DW8567 Philadelphia PA US", "quality": 0, "contribution": 0.0}, "1338W": {"distance": 29394.0, "latitude": 39.761, "longitude": -75.291, "useCount": 0, "id": "1338W", "name": "Kingsway Regional School Distric NJ US WEATHERSTEM", "quality": 0, "contribution": 0.0}, "KLOM": {"distance": 20887.0, "latitude": 40.14, "longitude": -75.27, "useCount": 0, "id": "KLOM", "name": "KLOM", "quality": 100, "contribution": 0.0}, "KPNE": {"distance": 13699.0, "latitude": 40.08, "longitude": -75.01, "useCount": 0, "id": "KPNE", "name": "KPNE", "quality": 100, "contribution": 0.0}}}