{"queryCost": 1, "latitude": 43.658, "longitude": -71.5, "resolvedAddress": "43.65800,-71.50000", "address": "43.65800,-71.50000", "timezone": "America/New_York", "tzoffset": -5.0, "days": [{"datetime": "2020-11-15", "datetimeEpoch": 1605416400, "tempmax": 50.7, "tempmin": 23.5, "temp": 35.9, "feelslikemax": 50.7, "feelslikemin": 20.5, "feelslike": 33.7, "dew": 29.0, "humidity": 76.79, "precip": 0.37, "precipprob": null, "precipcover": 25.0, "preciptype": null, "snow": 5.66, "snowdepth": 5.66, "windgust": 46.1, "windspeed": 9.5, "winddir": 91.7, "pressure": 1019.5, "cloudcover": 49.6, "visibility": 9.3, "solarradiation": 63.6, "solarenergy": 4.8, "uvindex": 3.0, "sunrise": "06:40:47", "sunriseEpoch": 1605440447, "sunset": "16:20:09", "sunsetEpoch": 1605475209, "moonphase": 0.0, "conditions": "Snow, Partially cloudy", "description": "Becoming cloudy in the afternoon with late afternoon snow.", "icon": "snow", "stations": ["74207864773", "HUBN3", "72615554736", "KLCI", "KCON", "K1P1", "72605014745", "F2297"], "source": "obs"}], "stations": {"74207864773": {"distance": 24461.0, "latitude": 43.779, "longitude": -71.754, "useCount": 0, "id": "74207864773", "name": "PLYMOUTH MUNICIPAL AIRPORT, NH US", "quality": 100, "contribution": 0.0}, "HUBN3": {"distance": 35247.0, "latitude": 43.933, "longitude": -71.717, "useCount": 0, "id": "HUBN3", "name": "HUBBARD BROOK NH US SCAN", "quality": 0, "contribution": 0.0}, "72615554736": {"distance": 11498.0, "latitude": 43.567, "longitude": -71.433, "useCount": 0, "id": "72615554736", "name": "LACONIA, NH US", "quality": 100, "contribution": 0.0}, "KLCI": {"distance": 11728.0, "latitude": 43.57, "longitude": -71.42, "useCount": 0, "id": "KLCI", "name": "LACONIA, NH", "quality": 100, "contribution": 0.0}, "KCON": {"distance": 50984.0, "latitude": 43.2, "longitude": -71.5, "useCount": 0, "id": "KCON", "name": "KCON", "quality": 100, "contribution": 0.0}, "K1P1": {"distance": 24269.0, "latitude": 43.78, "longitude": -71.75, "useCount": 0, "id": "K1P1", "name": "K1P1", "quality": 99, "contribution": 0.0}, "72605014745": {"distance": 50439.0, "latitude": 43.205, "longitude": -71.503, "useCount": 0, "id": "72605014745", "name": "CONCORD ASOS, NH US", "quality": 100, "contribution": 0.0}, "F2297": {"distance": 15866.0, "latitude": 43.746, "longitude": -71.655, "useCount": 0, "id": "F2297", "name": "FW2297 Ashland NH US", "quality": 0, "contribution": 0.0}}}