{"queryCost": 1, "latitude": 30.442, "longitude": -87.235, "resolvedAddress": "30.44200,-87.23500", "address": "30.44200,-87.23500", "timezone": "America/Chicago", "tzoffset": -6.0, "days": [{"datetime": "2020-11-14", "datetimeEpoch": 1605333600, "tempmax": 76.4, "tempmin": 57.2, "temp": 68.5, "feelslikemax": 76.4, "feelslikemin": 57.2, "feelslike": 68.5, "dew": 58.5, "humidity": 71.5, "precip": 0.0, "precipprob": 0.0, "precipcover": 0.0, "preciptype": null, "snow": 0.0, "snowdepth": 0.0, "windgust": null, "windspeed": 12.7, "winddir": 101.7, "pressure": 1018.5, "cloudcover": 7.3, "visibility": 9.9, "solarradiation": 338.7, "solarenergy": 29.4, "uvindex": 6.0, "sunrise": "06:14:27", "sunriseEpoch": 1605356067, "sunset": "16:52:11", "sunsetEpoch": 1605394331, "moonphase": 1.0, "conditions": "Clear", "description": "Clear conditions throughout the day.", "icon": "clear-day", "stations": ["72222503855", "72222313899", "72038353847", "A0002453848", "KNPA", "KPNS", "1201W", "1199W"], "source": "obs"}], "stations": {"72222503855": {"distance": 12901.0, "latitude": 30.35, "longitude": -87.317, "useCount": 0, "id": "72222503855", "name": "PENSACOLA FOREST SHERMAN NAS, FL US", "quality": 92, "contribution": 0.0}, "72222313899": {"distance": 6120.0, "latitude": 30.478, "longitude": -87.187, "useCount": 0, "id": "72222313899", "name": "PENSACOLA REGIONAL AIRPORT, FL US", "quality": 100, "contribution": 0.0}, "72038353847": {"distance": 35577.0, "latitude": 30.704, "longitude": -87.023, "useCount": 0, "id": "72038353847", "name": "WHITING FIELD NAS SOUTH, FL US", "quality": 100, "contribution": 0.0}, "A0002453848": {"distance": 27383.0, "latitude": 30.507, "longitude": -86.96, "useCount": 0, "id": "A0002453848", "name": "CHOCTAW NAVAL OUTLYING FIELD MILTON, FL US", "quality": 99, "contribution": 0.0}, "KNPA": {"distance": 13096.0, "latitude": 30.35, "longitude": -87.32, "useCount": 0, "id": "KNPA", "name": "KNPA", "quality": 93, "contribution": 0.0}, "KPNS": {"distance": 6764.0, "latitude": 30.48, "longitude": -87.18, "useCount": 0, "id": "KPNS", "name": "KPNS", "quality": 100, "contribution": 0.0}, "1201W": {"distance": 5198.0, "latitude": 30.484, "longitude": -87.212, "useCount": 0, "id": "1201W", "name": "Booker T. Washington High School FL US WEATHERSTEM", "quality": 0, "contribution": 0.0}, "1199W": {"distance": 1280.0, "latitude": 30.435, "longitude": -87.225, "useCount": 0, "id": "1199W", "name": "Pensacola High School FL US WEATHERSTEM", "quality": 0, "contribution": 0.0}}}