{"queryCost": 1, "latitude": 32.337, "longitude": -95.285, "resolvedAddress": "32.33700,-95.28500", "address": "32.33700,-95.28500", "timezone": "America/Chicago", "tzoffset": -6.0, "days": [{"datetime": "2020-11-18", "datetimeEpoch": 1605679200, "tempmax": 74.8, "tempmin": 47.3, "temp": 59.6, "feelslikemax": 74.8, "feelslikemin": 44.4, "feelslike": 59.2, "dew": 33.8, "humidity": 41.0, "precip": 0.0, "precipprob": null, "precipcover": 0.0, "preciptype": null, "snow": 0.0, "snowdepth": 0.0, "windgust": null, "windspeed": 12.2, "winddir": 139.5, "pressure": 1028.5, "cloudcover": 0.0, "visibility": 9.9, "solarradiation": 307.4, "solarenergy": 13.3, "uvindex": 6.0, "sunrise": "06:53:43", "sunriseEpoch": 1605704023, "sunset": "17:18:54", "sunsetEpoch": 1605741534, "moonphase": 0.07, "conditions": "Clear", "description": "Clear conditions throughout the day.", "icon": "clear-day", "stations": ["KTYR", "72244813972", "AR229", "HDRT2", "72057700175", "KRFI", "KJDD", "72204253978"], "source": "obs"}], "stations": {"KTYR": {"distance": 10912.0, "latitude": 32.35, "longitude": -95.4, "useCount": 0, "id": "KTYR", "name": "KTYR", "quality": 100, "contribution": 0.0}, "72244813972": {"distance": 11215.0, "latitude": 32.354, "longitude": -95.402, "useCount": 0, "id": "72244813972", "name": "TYLER POUNDS FIELD, TX US", "quality": 100, "contribution": 0.0}, "AR229": {"distance": 5231.0, "latitude": 32.291, "longitude": -95.293, "useCount": 0, "id": "AR229", "name": "NM5I Tyler TX US", "quality": 0, "contribution": 0.0}, "HDRT2": {"distance": 46850.0, "latitude": 32.137, "longitude": -94.847, "useCount": 0, "id": "HDRT2", "name": "HENDERSON TX US", "quality": 0, "contribution": 0.0}, "72057700175": {"distance": 45943.0, "latitude": 32.15, "longitude": -94.85, "useCount": 0, "id": "72057700175", "name": "RUSK CO AIRPORT, TX US", "quality": 100, "contribution": 0.0}, "KRFI": {"distance": 46460.0, "latitude": 32.14, "longitude": -94.85, "useCount": 0, "id": "KRFI", "name": "KRFI", "quality": 98, "contribution": 0.0}, "KJDD": {"distance": 49190.0, "latitude": 32.74, "longitude": -95.5, "useCount": 0, "id": "KJDD", "name": "KJDD", "quality": 100, "contribution": 0.0}, "72204253978": {"distance": 49277.0, "latitude": 32.742, "longitude": -95.496, "useCount": 0, "id": "72204253978", "name": "MINEOLA WOOD CO AIRPORT, TX US", "quality": 100, "contribution": 0.0}}}