{"queryCost": 1, "latitude": 41.881, "longitude": -87.815, "resolvedAddress": "41.88100,-87.81500", "address": "41.88100,-87.81500", "timezone": "America/Chicago", "tzoffset": -5.0, "days": [{"datetime": "2015-07-12", "datetimeEpoch": 1436677200, "tempmax": 82.4, "tempmin": 69.0, "temp": 74.9, "feelslikemax": 84.5, "feelslikemin": 69.0, "feelslike": 75.3, "dew": 65.9, "humidity": 74.8, "precip": 0.04, "precipprob": 100.0, "precipcover": 8.33, "preciptype": ["rain"], "snow": 0.0, "snowdepth": 0.0, "windgust": null, "windspeed": 10.1, "winddir": 88.7, "pressure": 1014.3, "cloudcover": 78.0, "visibility": 8.1, "solarradiation": 292.1, "solarenergy": 25.3, "uvindex": 8.0, "sunrise": "05:26:50", "sunriseEpoch": 1436696810, "sunset": "20:26:33", "sunsetEpoch": 1436750793, "moonphase": 0.94, "conditions": "Rain, Partially cloudy", "description": "Partly cloudy throughout the day with early morning rain.", "icon": "rain", "stations": ["72534014819", "KORD", "KMDW", "72530094846", "74466504838", "KPWK"], "source": "obs"}], "stations": {"72534014819": {"distance": 11779.0, "latitude": 41.786, "longitude": -87.752, "useCount": 0, "id": "72534014819", "name": "CHICAGO MIDWAY AIRPORT, IL US", "quality": 100, "contribution": 0.0}, "KORD": {"distance": 13077.0, "latitude": 41.98, "longitude": -87.9, "useCount": 0, "id": "KORD", "name": "KORD", "quality": 100, "contribution": 0.0}, "KMDW": {"distance": 12469.0, "latitude": 41.78, "longitude": -87.75, "useCount": 0, "id": "KMDW", "name": "KMDW", "quality": 100, "contribution": 0.0}, "72530094846": {"distance": 13077.0, "latitude": 41.96, "longitude": -87.932, "useCount": 0, "id": "72530094846", "name": "CHICAGO OHARE INTERNATIONAL AIRPORT, IL US", "quality": 100, "contribution": 0.0}, "74466504838": {"distance": 27707.0, "latitude": 42.121, "longitude": -87.905, "useCount": 0, "id": "74466504838", "name": "CHICAGO PALWAUKEE AIRPORT, IL US", "quality": 100, "contribution": 0.0}, "KPWK": {"distance": 27987.0, "latitude": 42.12, "longitude": -87.92, "useCount": 0, "id": "KPWK", "name": "KPWK", "quality": 100, "contribution": 0.0}}}