{"queryCost": 1, "latitude": 39.968, "longitude": -75.273, "resolvedAddress": "39.96800,-75.27300", "address": "39.96800,-75.27300", "timezone": "America/New_York", "tzoffset": -5.0, "days": [{"datetime": "2020-11-20", "datetimeEpoch": 1605848400, "tempmax": 63.1, "tempmin": 42.0, "temp": 51.0, "feelslikemax": 63.1, "feelslikemin": 37.3, "feelslike": 49.1, "dew": 34.9, "humidity": 55.25, "precip": 0.0, "precipprob": null, "precipcover": 0.0, "preciptype": null, "snow": 0.0, "snowdepth": 0.0, "windgust": null, "windspeed": 13.2, "winddir": 216.3, "pressure": 1028.1, "cloudcover": 27.2, "visibility": 9.9, "solarradiation": 243.3, "solarenergy": 10.5, "uvindex": 5.0, "sunrise": "06:52:29", "sunriseEpoch": 1605873149, "sunset": "16:40:54", "sunsetEpoch": 1605908454, "moonphase": 0.17, "conditions": "Partially cloudy", "description": "Partly cloudy throughout the day.", "icon": "partly-cloudy-day", "stations": ["C8212", "72408013739", "72408594732", "72030464752", "E8199", "KPHL", "KLOM", "DE045", "KPNE"], "source": "obs"}], "stations": {"C8212": {"distance": 11805.0, "latitude": 40.046, "longitude": -75.367, "useCount": 0, "id": "C8212", "name": "CW8212 Saint Davids PA US", "quality": 0, "contribution": 0.0}, "72408013739": {"distance": 11256.0, "latitude": 39.873, "longitude": -75.227, "useCount": 0, "id": "72408013739", "name": "PHILADELPHIA INTERNATIONAL AIRPORT, PA US", "quality": 100, "contribution": 0.0}, "72408594732": {"distance": 25341.0, "latitude": 40.079, "longitude": -75.013, "useCount": 0, "id": "72408594732", "name": "NORTHEAST PHILADELPHIA AIRPORT, PA US", "quality": 100, "contribution": 0.0}, "72030464752": {"distance": 14704.0, "latitude": 40.1, "longitude": -75.267, "useCount": 0, "id": "72030464752", "name": "WINGS FIELD, PA US", "quality": 100, "contribution": 0.0}, "E8199": {"distance": 10756.0, "latitude": 39.944, "longitude": -75.151, "useCount": 0, "id": "E8199", "name": "EW8199 Phildelphia PA US", "quality": 0, "contribution": 0.0}, "KPHL": {"distance": 9991.0, "latitude": 39.88, "longitude": -75.25, "useCount": 0, "id": "KPHL", "name": "KPHL", "quality": 100, "contribution": 0.0}, "KLOM": {"distance": 19149.0, "latitude": 40.14, "longitude": -75.27, "useCount": 0, "id": "KLOM", "name": "KLOM", "quality": 100, "contribution": 0.0}, "DE045": {"distance": 20457.0, "latitude": 40.068, "longitude": -75.474, "useCount": 0, "id": "DE045", "name": "Valley Creek Devault PA USA", "quality": 0, "contribution": 0.0}, "KPNE": {"distance": 25653.0, "latitude": 40.08, "longitude": -75.01, "useCount": 0, "id": "KPNE", "name": "KPNE", "quality": 100, "contribution": 0.0}}}