{"queryCost": 1, "latitude": 32.267, "longitude": -107.762, "resolvedAddress": "32.26700,-107.76200", "address": "32.26700,-107.76200", "timezone": "America/Denver", "tzoffset": -7.0, "days": [{"datetime": "2020-11-24", "datetimeEpoch": 1606201200, "tempmax": 62.0, "tempmin": 41.0, "temp": 54.0, "feelslikemax": 62.0, "feelslikemin": 36.3, "feelslike": 52.6, "dew": 22.2, "humidity": 30.09, "precip": 0.0, "precipprob": null, "precipcover": 0.0, "preciptype": null, "snow": 0.0, "snowdepth": 0.0, "windgust": 39.1, "windspeed": 27.7, "winddir": 268.8, "pressure": 1010.6, "cloudcover": 0.1, "visibility": 9.9, "solarradiation": 298.8, "solarenergy": 12.9, "uvindex": 7.0, "sunrise": "06:48:52", "sunriseEpoch": 1606225732, "sunset": "17:06:49", "sunsetEpoch": 1606262809, "moonphase": 0.36, "conditions": "Clear", "description": "Clear conditions throughout the day.", "icon": "clear-day", "stations": ["DT018", "72272523078", "C4691", "KSVC", "KLRU", "DT068", "KDMN", "72272193063"], "source": "obs"}], "stations": {"DT018": {"distance": 42778.0, "latitude": 32.647, "longitude": -107.829, "useCount": 0, "id": "DT018", "name": "Wood North NM US DTN", "quality": 0, "contribution": 0.0}, "72272523078": {"distance": 3896.0, "latitude": 32.262, "longitude": -107.721, "useCount": 0, "id": "72272523078", "name": "DEMING MUNICIPAL AIRPORT, NM US", "quality": 99, "contribution": 0.0}, "C4691": {"distance": 73326.0, "latitude": 32.775, "longitude": -108.259, "useCount": 0, "id": "C4691", "name": "CW4691 Silver City NM US", "quality": 0, "contribution": 0.0}, "KSVC": {"distance": 54418.0, "latitude": 32.63, "longitude": -108.15, "useCount": 0, "id": "KSVC", "name": "KSVC", "quality": 99, "contribution": 0.0}, "KLRU": {"distance": 79263.0, "latitude": 32.28, "longitude": -106.92, "useCount": 0, "id": "KLRU", "name": "KLRU", "quality": 100, "contribution": 0.0}, "DT068": {"distance": 73188.0, "latitude": 32.216, "longitude": -108.537, "useCount": 0, "id": "DT068", "name": "Muir Road 113 NM US DTN", "quality": 0, "contribution": 0.0}, "KDMN": {"distance": 3967.0, "latitude": 32.27, "longitude": -107.72, "useCount": 0, "id": "KDMN", "name": "KDMN", "quality": 98, "contribution": 0.0}, "72272193063": {"distance": 55768.0, "latitude": 32.633, "longitude": -108.167, "useCount": 0, "id": "72272193063", "name": "SILVER CITY GRANT CO AIRPORT, NM US", "quality": 100, "contribution": 0.0}}}