{"queryCost": 1, "latitude": 40.664, "longitude": -73.767, "resolvedAddress": "40.66400,-73.76700", "address": "40.66400,-73.76700", "timezone": "America/New_York", "tzoffset": -5.0, "days": [{"datetime": "2020-11-24", "datetimeEpoch": 1606194000, "tempmax": 49.9, "tempmin": 41.1, "temp": 44.0, "feelslikemax": 45.5, "feelslikemin": 33.2, "feelslike": 38.8, "dew": 29.4, "humidity": 57.15, "precip": 0.0, "precipprob": null, "precipcover": 0.0, "preciptype": null, "snow": 0.0, "snowdepth": 0.0, "windgust": 24.2, "windspeed": 16.1, "winddir": 256.3, "pressure": 1026.4, "cloudcover": 63.5, "visibility": 9.9, "solarradiation": 110.5, "solarenergy": 4.4, "uvindex": 3.0, "sunrise": "06:52:44", "sunriseEpoch": 1606218764, "sunset": "16:30:51", "sunsetEpoch": 1606253451, "moonphase": 0.36, "conditions": "Partially cloudy", "description": "Partly cloudy throughout the day.", "icon": "partly-cloudy-day", "stations": ["F3861", "72505394728", "KJFK", "74486094789", "KLGA", "KNYC", "72503014732"], "source": "obs"}], "stations": {"F3861": {"distance": 8795.0, "latitude": 40.63, "longitude": -73.673, "useCount": 0, "id": "F3861", "name": "FW3861 East Rockaway NY US", "quality": 0, "contribution": 0.0}, "72505394728": {"distance": 21335.0, "latitude": 40.779, "longitude": -73.969, "useCount": 0, "id": "72505394728", "name": "NY CITY CENTRAL PARK, NY US", "quality": 100, "contribution": 0.0}, "KJFK": {"distance": 1906.0, "latitude": 40.65, "longitude": -73.78, "useCount": 0, "id": "KJFK", "name": "KJFK", "quality": 100, "contribution": 0.0}, "74486094789": {"distance": 2783.0, "latitude": 40.639, "longitude": -73.764, "useCount": 0, "id": "74486094789", "name": "JFK INTERNATIONAL AIRPORT, NY US", "quality": 100, "contribution": 0.0}, "KLGA": {"distance": 16284.0, "latitude": 40.77, "longitude": -73.9, "useCount": 0, "id": "KLGA", "name": "KLGA", "quality": 100, "contribution": 0.0}, "KNYC": {"distance": 21499.0, "latitude": 40.77, "longitude": -73.98, "useCount": 0, "id": "KNYC", "name": "KNYC", "quality": 100, "contribution": 0.0}, "72503014732": {"distance": 16012.0, "latitude": 40.779, "longitude": -73.88, "useCount": 0, "id": "72503014732", "name": "LAGUARDIA AIRPORT, NY US", "quality": 100, "contribution": 0.0}}}