{"queryCost": 1, "latitude": 39.056, "longitude": -76.868, "resolvedAddress": "39.05600,-76.86800", "address": "39.05600,-76.86800", "timezone": "America/New_York", "tzoffset": -5.0, "days": [{"datetime": "2020-11-17", "datetimeEpoch": 1605589200, "tempmax": 56.7, "tempmin": 38.4, "temp": 45.5, "feelslikemax": 56.7, "feelslikemin": 29.8, "feelslike": 41.6, "dew": 24.7, "humidity": 44.3, "precip": 0.0, "precipprob": 0.0, "precipcover": 0.0, "preciptype": null, "snow": 0.0, "snowdepth": 0.0, "windgust": 42.3, "windspeed": 24.9, "winddir": 265.3, "pressure": 1018.8, "cloudcover": 39.0, "visibility": 9.9, "solarradiation": 97.1, "solarenergy": 8.3, "uvindex": 4.0, "sunrise": "06:53:20", "sunriseEpoch": 1605614000, "sunset": "16:51:25", "sunsetEpoch": 1605649885, "moonphase": 0.04, "conditions": "Partially cloudy", "description": "Partly cloudy throughout the day.", "icon": "partly-cloudy-day", "stations": ["KDCA", "72405013743", "PREM2", "72406093721", "KBWI", "KADW", "PWDM2", "74594013705"], "source": "obs"}], "stations": {"KDCA": {"distance": 26880.0, "latitude": 38.85, "longitude": -77.03, "useCount": 0, "id": "KDCA", "name": "KDCA", "quality": 100, "contribution": 0.0}, "72405013743": {"distance": 27350.0, "latitude": 38.847, "longitude": -77.034, "useCount": 0, "id": "72405013743", "name": "WASHINGTON REAGAN NATIONAL AIRPORT, VA US", "quality": 100, "contribution": 0.0}, "PREM2": {"distance": 3823.0, "latitude": 39.055, "longitude": -76.824, "useCount": 0, "id": "PREM2", "name": "PATUXENT MD US", "quality": 0, "contribution": 0.0}, "72406093721": {"distance": 20569.0, "latitude": 39.173, "longitude": -76.684, "useCount": 0, "id": "72406093721", "name": "BALTIMORE WASHINGTON INTERNATIONAL AIRPORT, MD US", "quality": 100, "contribution": 0.0}, "KBWI": {"distance": 21977.0, "latitude": 39.18, "longitude": -76.67, "useCount": 0, "id": "KBWI", "name": "KBWI", "quality": 100, "contribution": 0.0}, "KADW": {"distance": 26272.0, "latitude": 38.82, "longitude": -76.87, "useCount": 0, "id": "KADW", "name": "KADW", "quality": 100, "contribution": 0.0}, "PWDM2": {"distance": 4643.0, "latitude": 39.017, "longitude": -76.85, "useCount": 0, "id": "PWDM2", "name": "POWDER MILL MD US SCAN", "quality": 0, "contribution": 0.0}, "74594013705": {"distance": 26639.0, "latitude": 38.817, "longitude": -76.867, "useCount": 0, "id": "74594013705", "name": "CAMP SPRINGS ANDREWS AFB, MD US", "quality": 100, "contribution": 0.0}}}