{"queryCost": 1, "latitude": 41.587, "longitude": -80.761, "resolvedAddress": "41.58700,-80.76100", "address": "41.58700,-80.76100", "timezone": "America/New_York", "tzoffset": -5.0, "days": [{"datetime": "2020-11-10", "datetimeEpoch": 1604984400, "tempmax": 75.7, "tempmin": 57.3, "temp": 66.0, "feelslikemax": 75.7, "feelslikemin": 57.3, "feelslike": 66.0, "dew": 51.8, "humidity": 61.03, "precip": 0.0, "precipprob": null, "precipcover": 0.0, "preciptype": null, "snow": 0.0, "snowdepth": 0.0, "windgust": 26.4, "windspeed": 14.6, "winddir": 180.2, "pressure": 1016.4, "cloudcover": 8.2, "visibility": 9.9, "solarradiation": 234.4, "solarenergy": 10.1, "uvindex": 5.0, "sunrise": "07:06:32", "sunriseEpoch": 1605009992, "sunset": "17:07:01", "sunsetEpoch": 1605046021, "moonphase": 0.86, "conditions": "Clear", "description": "Clear conditions throughout the day.", "icon": "clear-day", "stations": ["72525604857", "72525014852", "KYNG", "KGKJ", "0497W", "E0520", "72510404843", "E0427", "KHZY"], "source": "obs"}], "stations": {"72525604857": {"distance": 21953.0, "latitude": 41.778, "longitude": -80.696, "useCount": 0, "id": "72525604857", "name": "ASHTABULA CO AIRPORT, OH US", "quality": 100, "contribution": 0.0}, "72525014852": {"distance": 37692.0, "latitude": 41.255, "longitude": -80.674, "useCount": 0, "id": "72525014852", "name": "YOUNGSTOWN WARREN REGIONAL AIRPORT, OH US", "quality": 100, "contribution": 0.0}, "KYNG": {"distance": 36096.0, "latitude": 41.27, "longitude": -80.67, "useCount": 0, "id": "KYNG", "name": "KYNG", "quality": 100, "contribution": 0.0}, "KGKJ": {"distance": 46939.0, "latitude": 41.63, "longitude": -80.2, "useCount": 0, "id": "KGKJ", "name": "KGKJ", "quality": 100, "contribution": 0.0}, "0497W": {"distance": 25884.0, "latitude": 41.623, "longitude": -80.454, "useCount": 0, "id": "0497W", "name": "Pymatuning Lab of Ecology PA US WEATHERSTEM", "quality": 0, "contribution": 0.0}, "E0520": {"distance": 49377.0, "latitude": 41.361, "longitude": -81.27, "useCount": 0, "id": "E0520", "name": "EW0520 Auburn OH US", "quality": 0, "contribution": 0.0}, "72510404843": {"distance": 45658.0, "latitude": 41.626, "longitude": -80.215, "useCount": 0, "id": "72510404843", "name": "MEADVILLE PORT MEADVILLE AIRPORT, PA US", "quality": 100, "contribution": 0.0}, "E0427": {"distance": 25874.0, "latitude": 41.583, "longitude": -81.072, "useCount": 0, "id": "E0427", "name": "EW0427 Montville OH US", "quality": 0, "contribution": 0.0}, "KHZY": {"distance": 22075.0, "latitude": 41.78, "longitude": -80.7, "useCount": 0, "id": "KHZY", "name": "KHZY", "quality": 100, "contribution": 0.0}}}