{"queryCost": 1, "latitude": 34.107, "longitude": -117.368, "resolvedAddress": "34.10700,-117.36800", "address": "34.10700,-117.36800", "timezone": "America/Los_Angeles", "tzoffset": -8.0, "days": [{"datetime": "2020-11-06", "datetimeEpoch": 1604649600, "tempmax": 80.2, "tempmin": 54.4, "temp": 67.1, "feelslikemax": 79.6, "feelslikemin": 54.4, "feelslike": 67.1, "dew": 43.9, "humidity": 46.7, "precip": 0.01, "precipprob": 100.0, "precipcover": 4.17, "preciptype": ["rain"], "snow": 0.0, "snowdepth": 0.0, "windgust": 23.0, "windspeed": 15.9, "winddir": 153.0, "pressure": 1004.8, "cloudcover": 45.2, "visibility": 9.6, "solarradiation": 150.7, "solarenergy": 12.9, "uvindex": 6.0, "sunrise": "06:14:18", "sunriseEpoch": 1604672058, "sunset": "16:51:32", "sunsetEpoch": 1604710292, "moonphase": 0.65, "conditions": "Rain, Partially cloudy", "description": "Partly cloudy throughout the day with late afternoon rain.", "icon": "rain", "stations": ["KRAL", "72286023119", "KRIV", "SE190", "KONT", "74704003102", "72286903171", "AU239"], "source": "obs"}], "stations": {"KRAL": {"distance": 19044.0, "latitude": 33.95, "longitude": -117.45, "useCount": 0, "id": "KRAL", "name": "KRAL", "quality": 100, "contribution": 0.0}, "72286023119": {"distance": 25487.0, "latitude": 33.9, "longitude": -117.25, "useCount": 0, "id": "72286023119", "name": "MARCH AFB, CA US", "quality": 97, "contribution": 0.0}, "KRIV": {"distance": 26840.0, "latitude": 33.88, "longitude": -117.27, "useCount": 0, "id": "KRIV", "name": "KRIV", "quality": 100, "contribution": 0.0}, "SE190": {"distance": 6733.0, "latitude": 34.163, "longitude": -117.341, "useCount": 0, "id": "SE190", "name": "SCE Cajon Blvd CA US SC-EDISON", "quality": 0, "contribution": 0.0}, "KONT": {"distance": 22655.0, "latitude": 34.04, "longitude": -117.6, "useCount": 0, "id": "KONT", "name": "KONT", "quality": 100, "contribution": 0.0}, "74704003102": {"distance": 22128.0, "latitude": 34.056, "longitude": -117.6, "useCount": 0, "id": "74704003102", "name": "ONTARIO INTERNATIONAL AIRPORT, CA US", "quality": 100, "contribution": 0.0}, "72286903171": {"distance": 18466.0, "latitude": 33.952, "longitude": -117.439, "useCount": 0, "id": "72286903171", "name": "RIVERSIDE MUNICIPAL AIRPORT, CA US", "quality": 100, "contribution": 0.0}, "AU239": {"distance": 3203.0, "latitude": 34.08, "longitude": -117.38, "useCount": 0, "id": "AU239", "name": "KB6HGN Rialto CA US", "quality": 0, "contribution": 0.0}}}