{"queryCost": 1, "latitude": 35.092, "longitude": -106.577, "resolvedAddress": "35.09200,-106.57700", "address": "35.09200,-106.57700", "timezone": "America/Denver", "tzoffset": -6.0, "days": [{"datetime": "2020-10-12", "datetimeEpoch": 1602482400, "tempmax": 74.9, "tempmin": 46.0, "temp": 61.9, "feelslikemax": 74.9, "feelslikemin": 43.0, "feelslike": 61.8, "dew": 14.4, "humidity": 16.32, "precip": 0.0, "precipprob": null, "precipcover": 0.0, "preciptype": null, "snow": 0.0, "snowdepth": 0.0, "windgust": 25.3, "windspeed": 12.5, "winddir": 225.7, "pressure": 1018.0, "cloudcover": 0.0, "visibility": 9.9, "solarradiation": 348.2, "solarenergy": 16.3, "uvindex": 8.0, "sunrise": "07:10:16", "sunriseEpoch": 1602508216, "sunset": "18:34:26", "sunsetEpoch": 1602549266, "moonphase": 0.88, "conditions": "Clear", "description": "Clear conditions throughout the day.", "icon": "clear-day", "stations": ["72365623049", "K0E0", "72072499999", "72365023050", "KABQ", "KSAF", "F3713"], "source": "obs"}], "stations": {"72365623049": {"distance": 73330.0, "latitude": 35.617, "longitude": -106.089, "useCount": 0, "id": "72365623049", "name": "SANTA FE CO MUNICIPAL AIRPORT, NM US", "quality": 100, "contribution": 0.0}, "K0E0": {"distance": 54320.0, "latitude": 34.97, "longitude": -106.0, "useCount": 0, "id": "K0E0", "name": "K0E0", "quality": 100, "contribution": 0.0}, "72072499999": {"distance": 55006.0, "latitude": 34.646, "longitude": -106.836, "useCount": 0, "id": "72072499999", "name": "BELEN REGIONAL AIRPORT, NM US", "quality": 92, "contribution": 0.0}, "72365023050": {"distance": 6613.0, "latitude": 35.042, "longitude": -106.616, "useCount": 0, "id": "72365023050", "name": "ALBUQUERQUE INTERNATIONAL AIRPORT, NM US", "quality": 100, "contribution": 0.0}, "KABQ": {"distance": 6990.0, "latitude": 35.04, "longitude": -106.62, "useCount": 0, "id": "KABQ", "name": "KABQ", "quality": 100, "contribution": 0.0}, "KSAF": {"distance": 73221.0, "latitude": 35.61, "longitude": -106.08, "useCount": 0, "id": "KSAF", "name": "KSAF", "quality": 100, "contribution": 0.0}, "F3713": {"distance": 3966.0, "latitude": 35.104, "longitude": -106.618, "useCount": 0, "id": "F3713", "name": "FW3713 Albuquerque NM US", "quality": 0, "contribution": 0.0}}}