{"queryCost": 1, "latitude": 32.703, "longitude": -117.118, "resolvedAddress": "32.70300,-117.11800", "address": "32.70300,-117.11800", "timezone": "America/Los_Angeles", "tzoffset": -7.0, "days": [{"datetime": "2020-10-19", "datetimeEpoch": 1603090800, "tempmax": 76.1, "tempmin": 65.9, "temp": 70.8, "feelslikemax": 76.1, "feelslikemin": 65.9, "feelslike": 70.8, "dew": 61.1, "humidity": 71.71, "precip": 0.0, "precipprob": null, "precipcover": 0.0, "preciptype": null, "snow": 0.0, "snowdepth": 0.0, "windgust": null, "windspeed": 11.1, "winddir": 238.5, "pressure": 1014.4, "cloudcover": 64.9, "visibility": 9.7, "solarradiation": 302.2, "solarenergy": 14.1, "uvindex": 6.0, "sunrise": "06:55:58", "sunriseEpoch": 1603115758, "sunset": "18:10:09", "sunsetEpoch": 1603156209, "moonphase": 0.05, "conditions": "Partially cloudy", "description": "Partly cloudy throughout the day.", "icon": "partly-cloudy-day", "stations": ["KNZY", "CI184", "KSAN", "72290693112", "72290023188", "KMYF", "72290303131"], "source": "obs"}], "stations": {"KNZY": {"distance": 9561.0, "latitude": 32.7, "longitude": -117.22, "useCount": 0, "id": "KNZY", "name": "KNZY", "quality": 100, "contribution": 0.0}, "CI184": {"distance": 3592.0, "latitude": 32.73, "longitude": -117.139, "useCount": 0, "id": "CI184", "name": "San Diego II CA US CIMIS", "quality": 0, "contribution": 0.0}, "KSAN": {"distance": 5723.0, "latitude": 32.73, "longitude": -117.17, "useCount": 0, "id": "KSAN", "name": "SAN DIEGO/LINDBE, CA", "quality": 100, "contribution": 0.0}, "72290693112": {"distance": 7689.0, "latitude": 32.7, "longitude": -117.2, "useCount": 0, "id": "72290693112", "name": "NORTH ISLAND NAS, CA US", "quality": 100, "contribution": 0.0}, "72290023188": {"distance": 6976.0, "latitude": 32.734, "longitude": -117.183, "useCount": 0, "id": "72290023188", "name": "SAN DIEGO INTERNATIONAL AIRPORT, CA US", "quality": 100, "contribution": 0.0}, "KMYF": {"distance": 13073.0, "latitude": 32.82, "longitude": -117.13, "useCount": 0, "id": "KMYF", "name": "KMYF", "quality": 100, "contribution": 0.0}, "72290303131": {"distance": 12710.0, "latitude": 32.816, "longitude": -117.139, "useCount": 0, "id": "72290303131", "name": "SAN DIEGO MONTGOMERY FIELD, CA US", "quality": 100, "contribution": 0.0}}}