{"queryCost": 1, "latitude": 34.886, "longitude": -117.017, "resolvedAddress": "34.88600,-117.01700", "address": "34.88600,-117.01700", "timezone": "America/Los_Angeles", "tzoffset": -7.0, "days": [{"datetime": "2020-10-22", "datetimeEpoch": 1603350000, "tempmax": 88.6, "tempmin": 58.1, "temp": 72.0, "feelslikemax": 84.7, "feelslikemin": 58.1, "feelslike": 71.1, "dew": 32.0, "humidity": 25.24, "precip": 0.0, "precipprob": null, "precipcover": 0.0, "preciptype": null, "snow": 0.0, "snowdepth": 0.0, "windgust": 17.2, "windspeed": 13.5, "winddir": 279.4, "pressure": 1007.3, "cloudcover": 0.0, "visibility": 9.4, "solarradiation": 302.7, "solarenergy": 14.2, "uvindex": 6.0, "sunrise": "07:00:23", "sunriseEpoch": 1603375223, "sunset": "18:03:58", "sunsetEpoch": 1603415038, "moonphase": 0.2, "conditions": "Clear", "description": "Clear conditions throughout the day.", "icon": "clear-day", "stations": ["KL35", "KBYS", "GNTC1", "KDAG", "A0685400115", "74611003182", "72381523161", "CI234"], "source": "obs"}], "stations": {"KL35": {"distance": 71156.0, "latitude": 34.26, "longitude": -116.86, "useCount": 0, "id": "KL35", "name": "KL35", "quality": 100, "contribution": 0.0}, "KBYS": {"distance": 56847.0, "latitude": 35.28, "longitude": -116.62, "useCount": 0, "id": "KBYS", "name": "KBYS", "quality": 97, "contribution": 0.0}, "GNTC1": {"distance": 35462.0, "latitude": 34.593, "longitude": -117.168, "useCount": 0, "id": "GNTC1", "name": "APPLE VALLEY 2 CA US", "quality": 0, "contribution": 0.0}, "KDAG": {"distance": 22014.0, "latitude": 34.85, "longitude": -116.78, "useCount": 0, "id": "KDAG", "name": "KDAG", "quality": 100, "contribution": 0.0}, "A0685400115": {"distance": 70834.0, "latitude": 34.264, "longitude": -116.854, "useCount": 0, "id": "A0685400115", "name": "BIG BEAR CITY AIRPORT, CA US", "quality": 100, "contribution": 0.0}, "74611003182": {"distance": 56388.0, "latitude": 35.283, "longitude": -116.633, "useCount": 0, "id": "74611003182", "name": "BICYCLE LAKE FORT IRWIN ARMY AIR FIELD, CA US", "quality": 96, "contribution": 0.0}, "72381523161": {"distance": 21404.0, "latitude": 34.854, "longitude": -116.786, "useCount": 0, "id": "72381523161", "name": "BARSTOW DAGGETT AIRPORT, CA US", "quality": 100, "contribution": 0.0}, "CI234": {"distance": 18904.0, "latitude": 34.884, "longitude": -116.81, "useCount": 0, "id": "CI234", "name": "Newberry Springs II CA US CIMIS", "quality": 0, "contribution": 0.0}}}