{"queryCost": 1, "latitude": 35.33, "longitude": -81.948, "resolvedAddress": "35.33000,-81.94800", "address": "35.33000,-81.94800", "timezone": "America/New_York", "tzoffset": -5.0, "days": [{"datetime": "2020-12-01", "datetimeEpoch": 1606798800, "tempmax": 41.4, "tempmin": 27.7, "temp": 35.6, "feelslikemax": 34.9, "feelslikemin": 23.0, "feelslike": 29.3, "dew": 21.0, "humidity": 55.7, "precip": 0.0, "precipprob": 0.0, "precipcover": 0.0, "preciptype": null, "snow": 0.0, "snowdepth": 0.0, "windgust": 23.0, "windspeed": 16.1, "winddir": 278.6, "pressure": null, "cloudcover": 25.6, "visibility": 9.9, "solarradiation": 68.3, "solarenergy": 5.9, "uvindex": 5.0, "sunrise": "07:18:47", "sunriseEpoch": 1606825127, "sunset": "17:15:12", "sunsetEpoch": 1606860912, "moonphase": 0.51, "conditions": "Partially cloudy", "description": "Partly cloudy throughout the day.", "icon": "partly-cloudy-day", "stations": ["72314453890", "72027763843", "RUTN7", "KEHO", "KSPA", "99999993804", "72312699999"], "source": "obs"}], "stations": {"72314453890": {"distance": 10984.0, "latitude": 35.428, "longitude": -81.935, "useCount": 0, "id": "72314453890", "name": "RUTHERFORD CO MARCHMAN FIELD AIRPORT, NC US", "quality": 91, "contribution": 0.0}, "72027763843": {"distance": 32589.0, "latitude": 35.256, "longitude": -81.601, "useCount": 0, "id": "72027763843", "name": "SHELBY MUNICIPAL AIRPORT, NC US", "quality": 100, "contribution": 0.0}, "RUTN7": {"distance": 11003.0, "latitude": 35.429, "longitude": -81.939, "useCount": 0, "id": "RUTN7", "name": "RUTHERFORD COUNTY NC US", "quality": 0, "contribution": 0.0}, "KEHO": {"distance": 33726.0, "latitude": 35.25, "longitude": -81.59, "useCount": 0, "id": "KEHO", "name": "KEHO", "quality": 95, "contribution": 0.0}, "KSPA": {"distance": 47868.0, "latitude": 34.9, "longitude": -81.95, "useCount": 0, "id": "KSPA", "name": "KSPA", "quality": 99, "contribution": 0.0}, "99999993804": {"distance": 46009.0, "latitude": 34.917, "longitude": -81.95, "useCount": 0, "id": "99999993804", "name": "SPARTANBURG, SC US", "quality": 99, "contribution": 0.0}, "72312699999": {"distance": 46126.0, "latitude": 34.916, "longitude": -81.956, "useCount": 0, "id": "72312699999", "name": "SPARTANBURG DOWNTOWN MEM, SC US", "quality": 100, "contribution": 0.0}}}