{"queryCost": 1, "latitude": 33.568, "longitude": -112.099, "resolvedAddress": "33.56800,-112.09900", "address": "33.56800,-112.09900", "timezone": "America/Phoenix", "tzoffset": -7.0, "days": [{"datetime": "2020-12-03", "datetimeEpoch": 1606978800, "tempmax": 64.1, "tempmin": 49.9, "temp": 56.1, "feelslikemax": 64.1, "feelslikemin": 45.7, "feelslike": 55.7, "dew": 11.2, "humidity": 16.94, "precip": 0.0, "precipprob": null, "precipcover": 0.0, "preciptype": null, "snow": 0.0, "snowdepth": 0.0, "windgust": 32.2, "windspeed": 19.6, "winddir": 72.8, "pressure": 1022.8, "cloudcover": 0.0, "visibility": 9.9, "solarradiation": 298.2, "solarenergy": 12.9, "uvindex": 6.0, "sunrise": "07:16:56", "sunriseEpoch": 1607005016, "sunset": "17:19:57", "sunsetEpoch": 1607041197, "moonphase": 0.55, "conditions": "Clear", "description": "Clear conditions throughout the day.", "icon": "clear-day", "stations": ["72278403184", "72278903192", "SRP29", "KSDL", "KDVT", "72278023183", "KPHX"], "source": "obs"}], "stations": {"72278403184": {"distance": 13484.0, "latitude": 33.688, "longitude": -112.082, "useCount": 0, "id": "72278403184", "name": "PHOENIX DEER VALLEY MUNICIPAL AIRPORT, AZ US", "quality": 100, "contribution": 0.0}, "72278903192": {"distance": 18469.0, "latitude": 33.623, "longitude": -111.911, "useCount": 0, "id": "72278903192", "name": "SCOTTSDALE MUNICIPAL AIRPORT, AZ US", "quality": 100, "contribution": 0.0}, "SRP29": {"distance": 1044.0, "latitude": 33.57, "longitude": -112.11, "useCount": 0, "id": "SRP29", "name": "Pringle AZ US SRP", "quality": 0, "contribution": 0.0}, "KSDL": {"distance": 17245.0, "latitude": 33.61, "longitude": -111.92, "useCount": 0, "id": "KSDL", "name": "KSDL", "quality": 100, "contribution": 0.0}, "KDVT": {"distance": 12754.0, "latitude": 33.68, "longitude": -112.07, "useCount": 0, "id": "KDVT", "name": "KDVT", "quality": 100, "contribution": 0.0}, "72278023183": {"distance": 17936.0, "latitude": 33.428, "longitude": -112.004, "useCount": 0, "id": "72278023183", "name": "PHOENIX AIRPORT, AZ US", "quality": 100, "contribution": 0.0}, "KPHX": {"distance": 17023.0, "latitude": 33.43, "longitude": -112.02, "useCount": 0, "id": "KPHX", "name": "KPHX", "quality": 100, "contribution": 0.0}}}