{"queryCost": 1, "latitude": 40.711, "longitude": -82.556, "resolvedAddress": "40.71100,-82.55600", "address": "40.71100,-82.55600", "timezone": "America/New_York", "tzoffset": -5.0, "days": [{"datetime": "2020-12-03", "datetimeEpoch": 1606971600, "tempmax": 37.6, "tempmin": 26.4, "temp": 33.2, "feelslikemax": 28.7, "feelslikemin": 16.9, "feelslike": 24.4, "dew": 22.5, "humidity": 64.8, "precip": 0.0, "precipprob": 0.0, "precipcover": 0.0, "preciptype": null, "snow": 0.0, "snowdepth": 3.0, "windgust": 21.7, "windspeed": 16.1, "winddir": 209.0, "pressure": 1022.3, "cloudcover": 32.6, "visibility": 9.8, "solarradiation": 46.7, "solarenergy": 4.0, "uvindex": 2.0, "sunrise": "07:37:31", "sunriseEpoch": 1606999051, "sunset": "17:02:55", "sunsetEpoch": 1607032975, "moonphase": 0.55, "conditions": "Partially cloudy", "description": "Becoming cloudy in the afternoon.", "icon": "partly-cloudy-day", "stations": ["K4I3", "KMNN", "72041400139", "KMFD", "72520804855", "D6062", "72420014891"], "source": "obs"}], "stations": {"K4I3": {"distance": 42522.0, "latitude": 40.33, "longitude": -82.52, "useCount": 0, "id": "K4I3", "name": "K4I3", "quality": 100, "contribution": 0.0}, "KMNN": {"distance": 44020.0, "latitude": 40.61, "longitude": -83.06, "useCount": 0, "id": "KMNN", "name": "KMNN", "quality": 99, "contribution": 0.0}, "72041400139": {"distance": 42208.0, "latitude": 40.333, "longitude": -82.517, "useCount": 0, "id": "72041400139", "name": "KNOX CO AIRPORT, OH US", "quality": 98, "contribution": 0.0}, "KMFD": {"distance": 12508.0, "latitude": 40.82, "longitude": -82.52, "useCount": 0, "id": "KMFD", "name": "KMFD", "quality": 100, "contribution": 0.0}, "72520804855": {"distance": 44145.0, "latitude": 40.616, "longitude": -83.064, "useCount": 0, "id": "72520804855", "name": "MARION MUNICIPAL AIRPORT, OH US", "quality": 99, "contribution": 0.0}, "D6062": {"distance": 21597.0, "latitude": 40.89, "longitude": -82.656, "useCount": 0, "id": "D6062", "name": "DW6062 Shelby OH US", "quality": 0, "contribution": 0.0}, "72420014891": {"distance": 12597.0, "latitude": 40.82, "longitude": -82.518, "useCount": 0, "id": "72420014891", "name": "MANSFIELD LAHM REGIONAL AIRPORT, OH US", "quality": 100, "contribution": 0.0}}}