{"queryCost": 1, "latitude": 42.384, "longitude": -82.968, "resolvedAddress": "42.38400,-82.96800", "address": "42.38400,-82.96800", "timezone": "America/Detroit", "tzoffset": -5.0, "days": [{"datetime": "2020-12-01", "datetimeEpoch": 1606798800, "tempmax": 35.0, "tempmin": 26.1, "temp": 29.9, "feelslikemax": 28.7, "feelslikemin": 15.1, "feelslike": 20.3, "dew": 23.0, "humidity": 75.62, "precip": 0.04, "precipprob": null, "precipcover": 45.83, "preciptype": null, "snow": 0.44, "snowdepth": 1.18, "windgust": 31.6, "windspeed": 15.1, "winddir": 308.5, "pressure": 1008.8, "cloudcover": 88.3, "visibility": 6.2, "solarradiation": 35.4, "solarenergy": 1.3, "uvindex": 1.0, "sunrise": "07:42:08", "sunriseEpoch": 1606826528, "sunset": "16:59:58", "sunsetEpoch": 1606859998, "moonphase": 0.51, "conditions": "Snow, Partially cloudy", "description": "Partly cloudy throughout the day with snow clearing later.", "icon": "snow", "stations": ["71538099999", "KMTC", "72537094847", "F6055", "AV524", "KDET", "72537514822", "KDTW"], "source": "obs"}], "stations": {"71538099999": {"distance": 12110.0, "latitude": 42.276, "longitude": -82.956, "useCount": 0, "id": "71538099999", "name": "WINDSOR, CA", "quality": 100, "contribution": 0.0}, "KMTC": {"distance": 28609.0, "latitude": 42.62, "longitude": -82.83, "useCount": 0, "id": "KMTC", "name": "KMTC", "quality": 100, "contribution": 0.0}, "72537094847": {"distance": 34366.0, "latitude": 42.231, "longitude": -83.331, "useCount": 0, "id": "72537094847", "name": "DETROIT METRO AIRPORT, MI US", "quality": 100, "contribution": 0.0}, "F6055": {"distance": 35761.0, "latitude": 42.355, "longitude": -83.401, "useCount": 0, "id": "F6055", "name": "FW6055 Livonia MI US", "quality": 0, "contribution": 0.0}, "AV524": {"distance": 33204.0, "latitude": 42.656, "longitude": -83.135, "useCount": 0, "id": "AV524", "name": "KC8C Rochester Hills MI US", "quality": 0, "contribution": 0.0}, "KDET": {"distance": 5859.0, "latitude": 42.42, "longitude": -83.02, "useCount": 0, "id": "KDET", "name": "KDET", "quality": 100, "contribution": 0.0}, "72537514822": {"distance": 4449.0, "latitude": 42.409, "longitude": -83.01, "useCount": 0, "id": "72537514822", "name": "DETROIT CITY AIRPORT, MI US", "quality": 100, "contribution": 0.0}, "KDTW": {"distance": 34381.0, "latitude": 42.23, "longitude": -83.33, "useCount": 0, "id": "KDTW", "name": "KDTW", "quality": 100, "contribution": 0.0}}}