{"queryCost": 1, "latitude": 41.487, "longitude": -87.47, "resolvedAddress": "41.48700,-87.47000", "address": "41.48700,-87.47000", "timezone": "America/Chicago", "tzoffset": -6.0, "days": [{"datetime": "2020-12-13", "datetimeEpoch": 1607839200, "tempmax": 36.8, "tempmin": 30.9, "temp": 33.1, "feelslikemax": 35.2, "feelslikemin": 20.4, "feelslike": 28.0, "dew": 27.8, "humidity": 80.9, "precip": 0.0, "precipprob": 0.0, "precipcover": 0.0, "preciptype": null, "snow": 0.0, "snowdepth": 0.0, "windgust": 24.1, "windspeed": 15.0, "winddir": 280.9, "pressure": 1020.7, "cloudcover": 76.9, "visibility": 9.9, "solarradiation": 55.1, "solarenergy": 4.7, "uvindex": 3.0, "sunrise": "07:08:17", "sunriseEpoch": 1607864897, "sunset": "16:20:27", "sunsetEpoch": 1607898027, "moonphase": 1.0, "conditions": "Partially cloudy", "description": "Partly cloudy throughout the day.", "icon": "partly-cloudy-day", "stations": ["72534014819", "72212604879", "KVPZ", "KMDW", "72532704846", "KIGQ", "E9197"], "source": "obs"}], "stations": {"72534014819": {"distance": 40741.0, "latitude": 41.786, "longitude": -87.752, "useCount": 0, "id": "72534014819", "name": "CHICAGO MIDWAY AIRPORT, IL US", "quality": 100, "contribution": 0.0}, "72212604879": {"distance": 7813.0, "latitude": 41.54, "longitude": -87.532, "useCount": 0, "id": "72212604879", "name": "CHICAGO LANSING MUNICIPAL AIRPORT, IL US", "quality": 100, "contribution": 0.0}, "KVPZ": {"distance": 39420.0, "latitude": 41.45, "longitude": -87.0, "useCount": 0, "id": "KVPZ", "name": "KVPZ", "quality": 99, "contribution": 0.0}, "KMDW": {"distance": 40082.0, "latitude": 41.78, "longitude": -87.75, "useCount": 0, "id": "KMDW", "name": "KMDW", "quality": 100, "contribution": 0.0}, "72532704846": {"distance": 38910.0, "latitude": 41.453, "longitude": -87.006, "useCount": 0, "id": "72532704846", "name": "VALPARAISO PORTER CO MUNICIPAL AIRPORT, IN US", "quality": 98, "contribution": 0.0}, "KIGQ": {"distance": 7735.0, "latitude": 41.54, "longitude": -87.53, "useCount": 0, "id": "KIGQ", "name": "KIGQ", "quality": 100, "contribution": 0.0}, "E9197": {"distance": 9634.0, "latitude": 41.568, "longitude": -87.511, "useCount": 0, "id": "E9197", "name": "EW9197 Munster IN US", "quality": 0, "contribution": 0.0}}}