{"queryCost": 1, "latitude": 38.599, "longitude": -77.319, "resolvedAddress": "38.59900,-77.31900", "address": "38.59900,-77.31900", "timezone": "America/New_York", "tzoffset": -5.0, "days": [{"datetime": "2020-12-10", "datetimeEpoch": 1607576400, "tempmax": 52.5, "tempmin": 28.3, "temp": 37.9, "feelslikemax": 52.5, "feelslikemin": 24.1, "feelslike": 36.3, "dew": 30.7, "humidity": 76.36, "precip": 0.0, "precipprob": null, "precipcover": 0.0, "preciptype": null, "snow": 0.0, "snowdepth": 0.0, "windgust": null, "windspeed": 6.4, "winddir": 207.1, "pressure": 1020.8, "cloudcover": 2.8, "visibility": 8.5, "solarradiation": 82.9, "solarenergy": 3.3, "uvindex": 2.0, "sunrise": "07:16:37", "sunriseEpoch": 1607602597, "sunset": "16:48:03", "sunsetEpoch": 1607636883, "moonphase": 0.89, "conditions": "Clear", "description": "Clear conditions throughout the day.", "icon": "clear-day", "stations": ["72403603710", "KNYG", "F7298", "72403793728", "72403513773", "KDAA", "F7022", "KHEF"], "source": "obs"}], "stations": {"72403603710": {"distance": 21836.0, "latitude": 38.721, "longitude": -77.515, "useCount": 0, "id": "72403603710", "name": "MANASSAS REGIONAL DAVIS FIELD AIRPORT, VA US", "quality": 100, "contribution": 0.0}, "KNYG": {"distance": 11144.0, "latitude": 38.5, "longitude": -77.3, "useCount": 0, "id": "KNYG", "name": "KNYG", "quality": 99, "contribution": 0.0}, "F7298": {"distance": 8514.0, "latitude": 38.675, "longitude": -77.312, "useCount": 0, "id": "F7298", "name": "FW7298 Woodbridge VA US", "quality": 0, "contribution": 0.0}, "72403793728": {"distance": 17630.0, "latitude": 38.717, "longitude": -77.183, "useCount": 0, "id": "72403793728", "name": "DAVISON ARMY AIR FIELD, VA US", "quality": 100, "contribution": 0.0}, "72403513773": {"distance": 10690.0, "latitude": 38.504, "longitude": -77.305, "useCount": 0, "id": "72403513773", "name": "QUANTICO MCAS, VA US", "quality": 100, "contribution": 0.0}, "KDAA": {"distance": 18095.0, "latitude": 38.72, "longitude": -77.18, "useCount": 0, "id": "KDAA", "name": "KDAA", "quality": 100, "contribution": 0.0}, "F7022": {"distance": 26818.0, "latitude": 38.742, "longitude": -77.07, "useCount": 0, "id": "F7022", "name": "FW7022 Alexandria VA US", "quality": 0, "contribution": 0.0}, "KHEF": {"distance": 22061.0, "latitude": 38.72, "longitude": -77.52, "useCount": 0, "id": "KHEF", "name": "MANASSAS MUNI, VA", "quality": 100, "contribution": 0.0}}}