{"queryCost": 1, "latitude": 40.713, "longitude": -74.006, "resolvedAddress": "40.71300,-74.00600", "address": "40.71300,-74.00600", "timezone": "America/New_York", "tzoffset": -5.0, "days": [{"datetime": "2020-12-04", "datetimeEpoch": 1607058000, "tempmax": 52.2, "tempmin": 44.8, "temp": 47.8, "feelslikemax": 52.2, "feelslikemin": 40.9, "feelslike": 45.3, "dew": 34.4, "humidity": 61.33, "precip": 0.08, "precipprob": null, "precipcover": 25.0, "preciptype": null, "snow": 0.0, "snowdepth": 0.0, "windgust": 23.0, "windspeed": 11.9, "winddir": 233.3, "pressure": 1016.9, "cloudcover": 92.1, "visibility": 9.7, "solarradiation": 58.5, "solarenergy": 2.3, "uvindex": 1.0, "sunrise": "07:04:16", "sunriseEpoch": 1607083456, "sunset": "16:28:34", "sunsetEpoch": 1607117314, "moonphase": 0.58, "conditions": "Rain, Overcast", "description": "Cloudy skies throughout the day with rain.", "icon": "rain", "stations": ["72505394728", "KEWR", "F7223", "KLGA", "72502014734", "KNYC", "F1417", "72503014732"], "source": "obs"}], "stations": {"72505394728": {"distance": 7972.0, "latitude": 40.779, "longitude": -73.969, "useCount": 0, "id": "72505394728", "name": "NY CITY CENTRAL PARK, NY US", "quality": 100, "contribution": 0.0}, "KEWR": {"distance": 13915.0, "latitude": 40.7, "longitude": -74.17, "useCount": 0, "id": "KEWR", "name": "KEWR", "quality": 100, "contribution": 0.0}, "F7223": {"distance": 21833.0, "latitude": 40.757, "longitude": -73.754, "useCount": 0, "id": "F7223", "name": "FW7223 Oakland Gardens NY US", "quality": 0, "contribution": 0.0}, "KLGA": {"distance": 10963.0, "latitude": 40.77, "longitude": -73.9, "useCount": 0, "id": "KLGA", "name": "KLGA", "quality": 100, "contribution": 0.0}, "72502014734": {"distance": 14202.0, "latitude": 40.683, "longitude": -74.169, "useCount": 0, "id": "72502014734", "name": "NEWARK LIBERTY INTERNATIONAL AIRPORT, NJ US", "quality": 100, "contribution": 0.0}, "KNYC": {"distance": 6713.0, "latitude": 40.77, "longitude": -73.98, "useCount": 0, "id": "KNYC", "name": "KNYC", "quality": 100, "contribution": 0.0}, "F1417": {"distance": 4094.0, "latitude": 40.745, "longitude": -74.029, "useCount": 0, "id": "F1417", "name": "FW1417 Hoboken NJ US", "quality": 0, "contribution": 0.0}, "72503014732": {"distance": 12924.0, "latitude": 40.779, "longitude": -73.88, "useCount": 0, "id": "72503014732", "name": "LAGUARDIA AIRPORT, NY US", "quality": 100, "contribution": 0.0}}}