{"queryCost": 1, "latitude": 47.305, "longitude": -122.205, "resolvedAddress": "47.30500,-122.20500", "address": "47.30500,-122.20500", "timezone": "America/Los_Angeles", "tzoffset": -8.0, "days": [{"datetime": "2020-12-17", "datetimeEpoch": 1608192000, "tempmax": 50.4, "tempmin": 44.5, "temp": 47.1, "feelslikemax": 50.4, "feelslikemin": 36.7, "feelslike": 42.3, "dew": 41.0, "humidity": 79.5, "precip": 0.04, "precipprob": null, "precipcover": 20.83, "preciptype": null, "snow": 0.0, "snowdepth": 0.0, "windgust": 33.5, "windspeed": 19.9, "winddir": 189.3, "pressure": 1012.7, "cloudcover": 91.1, "visibility": 9.6, "solarradiation": 26.5, "solarenergy": 1.0, "uvindex": 1.0, "sunrise": "07:51:06", "sunriseEpoch": 1608220266, "sunset": "16:19:32", "sunsetEpoch": 1608250772, "moonphase": 0.05, "conditions": "Rain, Overcast", "description": "Cloudy skies throughout the day with rain clearing later.", "icon": "rain", "stations": ["E6584", "72793024233", "KSEA", "AV338", "KBFI", "72793524234", "72793494248", "F7055", "KRNT"], "source": "obs"}], "stations": {"E6584": {"distance": 12977.0, "latitude": 47.288, "longitude": -122.375, "useCount": 0, "id": "E6584", "name": "EW6584 Tacoma WA US", "quality": 0, "contribution": 0.0}, "72793024233": {"distance": 17559.0, "latitude": 47.444, "longitude": -122.314, "useCount": 0, "id": "72793024233", "name": "SEATTLE TACOMA AIRPORT, WA US", "quality": 100, "contribution": 0.0}, "KSEA": {"distance": 17659.0, "latitude": 47.45, "longitude": -122.3, "useCount": 0, "id": "KSEA", "name": "KSEA", "quality": 100, "contribution": 0.0}, "AV338": {"distance": 1487.0, "latitude": 47.313, "longitude": -122.221, "useCount": 0, "id": "AV338", "name": "K7SKM Auburn WA US", "quality": 0, "contribution": 0.0}, "KBFI": {"distance": 26049.0, "latitude": 47.53, "longitude": -122.3, "useCount": 0, "id": "KBFI", "name": "KBFI", "quality": 100, "contribution": 0.0}, "72793524234": {"distance": 26102.0, "latitude": 47.53, "longitude": -122.301, "useCount": 0, "id": "72793524234", "name": "SEATTLE BOEING FIELD, WA US", "quality": 100, "contribution": 0.0}, "72793494248": {"distance": 20972.0, "latitude": 47.493, "longitude": -122.214, "useCount": 0, "id": "72793494248", "name": "RENTON MUNICIPAL AIRPORT, WA US", "quality": 100, "contribution": 0.0}, "F7055": {"distance": 7478.0, "latitude": 47.286, "longitude": -122.3, "useCount": 0, "id": "F7055", "name": "FW7055 Federal Way WA US", "quality": 0, "contribution": 0.0}, "KRNT": {"distance": 21737.0, "latitude": 47.5, "longitude": -122.22, "useCount": 0, "id": "KRNT", "name": "KRNT", "quality": 100, "contribution": 0.0}}}