{"queryCost": 1, "latitude": 41.521, "longitude": -88.062, "resolvedAddress": "41.52100,-88.06200", "address": "41.52100,-88.06200", "timezone": "America/Chicago", "tzoffset": -6.0, "days": [{"datetime": "2020-12-23", "datetimeEpoch": 1608703200, "tempmax": 57.8, "tempmin": 28.5, "temp": 46.5, "feelslikemax": 57.8, "feelslikemin": 14.0, "feelslike": 40.7, "dew": 35.4, "humidity": 65.6, "precip": 0.12, "precipprob": 100.0, "precipcover": 4.17, "preciptype": ["rain"], "snow": 0.0, "snowdepth": 0.0, "windgust": 38.9, "windspeed": 29.5, "winddir": 208.1, "pressure": null, "cloudcover": 66.5, "visibility": 9.8, "solarradiation": 39.9, "solarenergy": 3.3, "uvindex": 4.0, "sunrise": "07:16:40", "sunriseEpoch": 1608729400, "sunset": "16:26:45", "sunsetEpoch": 1608762405, "moonphase": 0.32, "conditions": "Rain, Partially cloudy", "description": "Partly cloudy throughout the day with late afternoon rain.", "icon": "rain", "stations": ["KC09", "72534804831", "WMGI2", "KLOT", "KJOT", "72013704867", "72534514834"], "source": "obs"}], "stations": {"KC09": {"distance": 31908.0, "latitude": 41.42, "longitude": -88.42, "useCount": 0, "id": "KC09", "name": "KC09", "quality": 95, "contribution": 0.0}, "72534804831": {"distance": 9447.0, "latitude": 41.604, "longitude": -88.085, "useCount": 0, "id": "72534804831", "name": "ROMEOVILLE WEATHER FORECAST OFFICE, IL US", "quality": 100, "contribution": 0.0}, "WMGI2": {"distance": 20769.0, "latitude": 41.342, "longitude": -88.131, "useCount": 0, "id": "WMGI2", "name": "MIDEWIN TALLGRASS PRAIRIE IL US", "quality": 0, "contribution": 0.0}, "KLOT": {"distance": 10178.0, "latitude": 41.61, "longitude": -88.09, "useCount": 0, "id": "KLOT", "name": "KLOT", "quality": 99, "contribution": 0.0}, "KJOT": {"distance": 9836.0, "latitude": 41.52, "longitude": -88.18, "useCount": 0, "id": "KJOT", "name": "KJOT", "quality": 98, "contribution": 0.0}, "72013704867": {"distance": 31594.0, "latitude": 41.425, "longitude": -88.419, "useCount": 0, "id": "72013704867", "name": "MORRIS MUNICIPAL JR WASHBURN FIELD AIRPORT, IL US", "quality": 100, "contribution": 0.0}, "72534514834": {"distance": 9035.0, "latitude": 41.5, "longitude": -88.167, "useCount": 0, "id": "72534514834", "name": "JOLIET, IL US", "quality": 100, "contribution": 0.0}}}