{"queryCost": 1, "latitude": 29.93, "longitude": -95.315, "resolvedAddress": "29.93000,-95.31500", "address": "29.93000,-95.31500", "timezone": "America/Chicago", "tzoffset": -6.0, "days": [{"datetime": "2020-12-25", "datetimeEpoch": 1608876000, "tempmax": 64.9, "tempmin": 37.1, "temp": 49.1, "feelslikemax": 64.9, "feelslikemin": 34.3, "feelslike": 47.8, "dew": 27.9, "humidity": 46.28, "precip": 0.0, "precipprob": null, "precipcover": 0.0, "preciptype": null, "snow": 0.0, "snowdepth": 0.0, "windgust": null, "windspeed": 7.2, "winddir": 191.7, "pressure": 1025.4, "cloudcover": 38.1, "visibility": 9.9, "solarradiation": 226.4, "solarenergy": 9.8, "uvindex": 5.0, "sunrise": "07:15:01", "sunriseEpoch": 1608902101, "sunset": "17:28:26", "sunsetEpoch": 1608938906, "moonphase": 0.4, "conditions": "Partially cloudy", "description": "Partly cloudy throughout the day.", "icon": "partly-cloudy-day", "stations": ["72059400188", "72242953910", "KIAH", "KDWH", "72244012918", "F4215", "72243012960"], "source": "obs"}], "stations": {"72059400188": {"distance": 24604.0, "latitude": 29.717, "longitude": -95.383, "useCount": 0, "id": "72059400188", "name": "HOUSTON DUNN HELISTOP, TX US", "quality": 100, "contribution": 0.0}, "72242953910": {"distance": 27831.0, "latitude": 30.068, "longitude": -95.556, "useCount": 0, "id": "72242953910", "name": "HOUSTON HOOKS MEMORIAL AIRPORT, TX US", "quality": 100, "contribution": 0.0}, "KIAH": {"distance": 5588.0, "latitude": 29.97, "longitude": -95.35, "useCount": 0, "id": "KIAH", "name": "KIAH", "quality": 100, "contribution": 0.0}, "KDWH": {"distance": 27498.0, "latitude": 30.07, "longitude": -95.55, "useCount": 0, "id": "KDWH", "name": "KDWH", "quality": 100, "contribution": 0.0}, "72244012918": {"distance": 32651.0, "latitude": 29.638, "longitude": -95.282, "useCount": 0, "id": "72244012918", "name": "HOUSTON WILLIAM P HOBBY AIRPORT, TX US", "quality": 100, "contribution": 0.0}, "F4215": {"distance": 15678.0, "latitude": 30.001, "longitude": -95.175, "useCount": 0, "id": "F4215", "name": "KE5AKC Humble TX US", "quality": 0, "contribution": 0.0}, "72243012960": {"distance": 7058.0, "latitude": 29.98, "longitude": -95.36, "useCount": 0, "id": "72243012960", "name": "HOUSTON INTERCONTINENTAL AIRPORT, TX US", "quality": 100, "contribution": 0.0}}}