{"queryCost": 1, "latitude": 43.483, "longitude": -111.981, "resolvedAddress": "43.48300,-111.98100", "address": "43.48300,-111.98100", "timezone": "America/Boise", "tzoffset": -7.0, "days": [{"datetime": "2020-12-30", "datetimeEpoch": 1609311600, "tempmax": 17.9, "tempmin": 13.9, "temp": 15.9, "feelslikemax": 17.1, "feelslikemin": 5.1, "feelslike": 10.4, "dew": 12.8, "humidity": 87.29, "precip": 0.06, "precipprob": null, "precipcover": 12.5, "preciptype": null, "snow": 0.05, "snowdepth": 5.81, "windgust": null, "windspeed": 8.8, "winddir": 183.7, "pressure": 1029.4, "cloudcover": 97.0, "visibility": 8.2, "solarradiation": 123.1, "solarenergy": 6.6, "uvindex": 3.0, "sunrise": "08:00:52", "sunriseEpoch": 1609340452, "sunset": "17:00:55", "sunsetEpoch": 1609372855, "moonphase": 0.5, "conditions": "Snow, Overcast", "description": "Cloudy skies throughout the day with afternoon snow.", "icon": "snow", "stations": ["72036904135", "72681894194", "KRXE", "KIDA", "KDIJ", "TMTC2", "72578524145", "F8093", "RXGI"], "source": "obs"}], "stations": {"72036904135": {"distance": 76806.0, "latitude": 43.743, "longitude": -111.098, "useCount": 0, "id": "72036904135", "name": "DRIGGS REED MEMORIAL AIRPORT, ID US", "quality": 100, "contribution": 0.0}, "72681894194": {"distance": 41284.0, "latitude": 43.832, "longitude": -111.808, "useCount": 0, "id": "72681894194", "name": "REXBURG MADISON CO AIRPORT, ID US", "quality": 100, "contribution": 0.0}, "KRXE": {"distance": 41010.0, "latitude": 43.83, "longitude": -111.81, "useCount": 0, "id": "KRXE", "name": "KRXE", "quality": 100, "contribution": 0.0}, "KIDA": {"distance": 8283.0, "latitude": 43.52, "longitude": -112.07, "useCount": 0, "id": "KIDA", "name": "IDAHO FALLS/FANG, ID", "quality": 100, "contribution": 0.0}, "KDIJ": {"distance": 76554.0, "latitude": 43.74, "longitude": -111.1, "useCount": 0, "id": "KDIJ", "name": "Driggs Reed Mem, ID", "quality": 100, "contribution": 0.0}, "TMTC2": {"distance": 8166.0, "latitude": 43.52, "longitude": -112.068, "useCount": 0, "id": "TMTC2", "name": "NRAWS 10 (IDA1) ID US", "quality": 0, "contribution": 0.0}, "72578524145": {"distance": 7809.0, "latitude": 43.519, "longitude": -112.064, "useCount": 0, "id": "72578524145", "name": "IDAHO FALLS FANNING FIELD, ID US", "quality": 100, "contribution": 0.0}, "F8093": {"distance": 9934.0, "latitude": 43.411, "longitude": -112.054, "useCount": 0, "id": "F8093", "name": "FW8093 Idaho Falls ID US", "quality": 0, "contribution": 0.0}, "RXGI": {"distance": 44340.0, "latitude": 43.85, "longitude": -111.767, "useCount": 0, "id": "RXGI", "name": "REXBURG ID US AGRIMET", "quality": 0, "contribution": 0.0}}}