{"queryCost": 1, "latitude": 25.462, "longitude": -80.493, "resolvedAddress": "25.46200,-80.49300", "address": "25.46200,-80.49300", "timezone": "America/New_York", "tzoffset": -4.0, "days": [{"datetime": "2015-07-16", "datetimeEpoch": 1437019200, "tempmax": 86.0, "tempmin": 75.6, "temp": 80.1, "feelslikemax": 94.3, "feelslikemin": 75.6, "feelslike": 83.1, "dew": 73.1, "humidity": 79.8, "precip": 0.38, "precipprob": 100.0, "precipcover": 12.5, "preciptype": ["rain"], "snow": 0.0, "snowdepth": 0.0, "windgust": 33.3, "windspeed": 12.4, "winddir": 163.0, "pressure": 1017.7, "cloudcover": 23.2, "visibility": 9.6, "solarradiation": 108.8, "solarenergy": 9.4, "uvindex": 3.0, "sunrise": "06:41:02", "sunriseEpoch": 1437043262, "sunset": "20:14:49", "sunsetEpoch": 1437092089, "moonphase": 0.0, "conditions": "Rain, Partially cloudy", "description": "Partly cloudy throughout the day with rain.", "icon": "rain", "stations": ["72202912888", "72202612826", "KMIA", "72202012839", "KHST", "KTMB"], "source": "obs"}], "stations": {"72202912888": {"distance": 21508.0, "latitude": 25.648, "longitude": -80.433, "useCount": 0, "id": "72202912888", "name": "MIAMI KENDALL TAMIAMI EXEC AIRPORT, FL US", "quality": 98, "contribution": 0.0}, "72202612826": {"distance": 11277.0, "latitude": 25.483, "longitude": -80.383, "useCount": 0, "id": "72202612826", "name": "HOMESTEAD AFB, FL US", "quality": 100, "contribution": 0.0}, "KMIA": {"distance": 41813.0, "latitude": 25.79, "longitude": -80.29, "useCount": 0, "id": "KMIA", "name": "KMIA", "quality": 100, "contribution": 0.0}, "72202012839": {"distance": 40376.0, "latitude": 25.788, "longitude": -80.317, "useCount": 0, "id": "72202012839", "name": "MIAMI INTERNATIONAL AIRPORT, FL US", "quality": 100, "contribution": 0.0}, "KHST": {"distance": 11532.0, "latitude": 25.48, "longitude": -80.38, "useCount": 0, "id": "KHST", "name": "KHST", "quality": 100, "contribution": 0.0}, "KTMB": {"distance": 21864.0, "latitude": 25.65, "longitude": -80.43, "useCount": 0, "id": "KTMB", "name": "KTMB", "quality": 99, "contribution": 0.0}}}