{"queryCost": 1, "latitude": 36.313, "longitude": -119.288, "resolvedAddress": "36.31300,-119.28800", "address": "36.31300,-119.28800", "timezone": "America/Los_Angeles", "tzoffset": -8.0, "days": [{"datetime": "2021-01-13", "datetimeEpoch": 1610524800, "tempmax": 64.1, "tempmin": 35.3, "temp": 47.7, "feelslikemax": 64.1, "feelslikemin": 30.1, "feelslike": 46.8, "dew": 40.2, "humidity": 78.63, "precip": 0.0, "precipprob": null, "precipcover": 0.0, "preciptype": null, "snow": 0.0, "snowdepth": 0.0, "windgust": null, "windspeed": 7.3, "winddir": 166.1, "pressure": 1029.4, "cloudcover": 3.3, "visibility": 3.5, "solarradiation": 124.2, "solarenergy": 9.4, "uvindex": 4.0, "sunrise": "07:08:17", "sunriseEpoch": 1610550497, "sunset": "17:04:06", "sunsetEpoch": 1610586246, "moonphase": 0.0, "conditions": "Clear", "description": "Clear conditions throughout the day.", "icon": "clear-day", "stations": ["KHJO", "72389523149", "KPTV", "SE325", "F1241", "KVIS", "72389693144", "AT311", "MOLC1", "SE282", "72389853119", "SE275"], "source": "obs"}], "stations": {"KHJO": {"distance": 30686.0, "latitude": 36.32, "longitude": -119.63, "useCount": 0, "id": "KHJO", "name": "KHJO", "quality": 100, "contribution": 0.0}, "KPTV": {"distance": 37098.0, "latitude": 36.03, "longitude": -119.07, "useCount": 0, "id": "KPTV", "name": "PORTERVILLE, CA", "quality": 100, "contribution": 0.0}, "SE282": {"distance": 39072.0, "latitude": 36.071, "longitude": -118.973, "useCount": 0, "id": "SE282", "name": "SCE Putnam Ave CA US SC-EDISON", "quality": 0, "contribution": 0.0}, "72389853119": {"distance": 30594.0, "latitude": 36.319, "longitude": -119.629, "useCount": 0, "id": "72389853119", "name": "HANFORD MUNICIPAL AIRPORT, CA US", "quality": 100, "contribution": 0.0}, "SE275": {"distance": 21183.0, "latitude": 36.344, "longitude": -119.055, "useCount": 0, "id": "SE275", "name": "SCE Mehrten Dr CA US SC-EDISON", "quality": 0, "contribution": 0.0}, "72389523149": {"distance": 37538.0, "latitude": 36.029, "longitude": -119.062, "useCount": 0, "id": "72389523149", "name": "PORTERVILLE MUNICIPAL AIRPORT, CA US", "quality": 100, "contribution": 0.0}, "SE325": {"distance": 38884.0, "latitude": 36.459, "longitude": -118.894, "useCount": 0, "id": "SE325", "name": "SCE Three Rivers CA US SC-EDISON", "quality": 0, "contribution": 0.0}, "F1241": {"distance": 12630.0, "latitude": 36.284, "longitude": -119.152, "useCount": 0, "id": "F1241", "name": "FW1241 Exeter CA US", "quality": 0, "contribution": 0.0}, "KVIS": {"distance": 10076.0, "latitude": 36.32, "longitude": -119.4, "useCount": 0, "id": "KVIS", "name": "VISALIA, CA", "quality": 100, "contribution": 0.0}, "72389693144": {"distance": 10055.0, "latitude": 36.317, "longitude": -119.4, "useCount": 0, "id": "72389693144", "name": "VISALIA MUNICIPAL AIRPORT, CA US", "quality": 100, "contribution": 0.0}, "AT311": {"distance": 5804.0, "latitude": 36.359, "longitude": -119.318, "useCount": 0, "id": "AT311", "name": "NR6G-1 Visalia CA US", "quality": 0, "contribution": 0.0}, "MOLC1": {"distance": 38691.0, "latitude": 36.231, "longitude": -118.869, "useCount": 0, "id": "MOLC1", "name": "MILO CA US", "quality": 0, "contribution": 0.0}}}