{"queryCost": 1, "latitude": 40.565, "longitude": -105.1, "resolvedAddress": "40.56500,-105.10000", "address": "40.56500,-105.10000", "timezone": "America/Denver", "tzoffset": -6.0, "days": [{"datetime": "2015-07-18", "datetimeEpoch": 1437199200, "tempmax": 87.3, "tempmin": 57.1, "temp": 69.7, "feelslikemax": 84.8, "feelslikemin": 57.1, "feelslike": 69.4, "dew": 50.6, "humidity": 53.5, "precip": 0.02, "precipprob": 100.0, "precipcover": 4.17, "preciptype": ["rain"], "snow": 0.0, "snowdepth": 0.0, "windgust": 25.3, "windspeed": 14.0, "winddir": 181.7, "pressure": null, "cloudcover": 7.0, "visibility": 9.9, "solarradiation": 282.5, "solarenergy": 24.4, "uvindex": 10.0, "sunrise": "05:44:47", "sunriseEpoch": 1437219887, "sunset": "20:28:01", "sunsetEpoch": 1437272881, "moonphase": 0.03, "conditions": "Rain", "description": "Clear conditions throughout the day with afternoon rain.", "icon": "rain", "stations": ["72476824051", "72476994035", "KFNL", "99999994074", "KGXY", "72053800164"], "source": "obs"}], "stations": {"72476824051": {"distance": 42153.0, "latitude": 40.436, "longitude": -104.632, "useCount": 0, "id": "72476824051", "name": "GREELEY WELD CO AIRPORT, CO US", "quality": 99, "contribution": 0.0}, "72476994035": {"distance": 14603.0, "latitude": 40.45, "longitude": -105.017, "useCount": 0, "id": "72476994035", "name": "FORT COLLINS LOVELAND AIRPORT, CO US", "quality": 100, "contribution": 0.0}, "KFNL": {"distance": 14482.0, "latitude": 40.45, "longitude": -105.02, "useCount": 0, "id": "KFNL", "name": "LOVELAND/FT CLNS, CO", "quality": 100, "contribution": 0.0}, "99999994074": {"distance": 39641.0, "latitude": 40.807, "longitude": -104.755, "useCount": 0, "id": "99999994074", "name": "NUNN 7 NNE, CO US", "quality": 100, "contribution": 0.0}, "KGXY": {"distance": 42530.0, "latitude": 40.43, "longitude": -104.63, "useCount": 0, "id": "KGXY", "name": "GREELEY, CO", "quality": 100, "contribution": 0.0}, "72053800164": {"distance": 44668.0, "latitude": 40.167, "longitude": -105.167, "useCount": 0, "id": "72053800164", "name": "VANCE BRAND AIRPORT, CO US", "quality": 96, "contribution": 0.0}}}