{"queryCost": 1, "latitude": 35.968, "longitude": -85.356, "resolvedAddress": "35.96800,-85.35600", "address": "35.96800,-85.35600", "timezone": "America/Chicago", "tzoffset": -6.0, "days": [{"datetime": "2021-01-08", "datetimeEpoch": 1610085600, "tempmax": 32.5, "tempmin": 29.9, "temp": 31.2, "feelslikemax": 26.5, "feelslikemin": 22.2, "feelslike": 24.8, "dew": 28.8, "humidity": 90.7, "precip": 0.1, "precipprob": 100.0, "precipcover": 16.67, "preciptype": ["rain", "snow"], "snow": 0.0, "snowdepth": 0.0, "windgust": 20.8, "windspeed": 9.7, "winddir": 208.6, "pressure": 1016.7, "cloudcover": 72.8, "visibility": 7.0, "solarradiation": 20.9, "solarenergy": 1.7, "uvindex": 1.0, "sunrise": "06:52:29", "sunriseEpoch": 1610110349, "sunset": "16:44:24", "sunsetEpoch": 1610145864, "moonphase": 0.87, "conditions": "Snow, Rain, Partially cloudy", "description": "Partly cloudy throughout the day with early morning snow or rain.", "icon": "rain", "stations": ["99999963855", "72325003847", "KCSV", "KSRB", "D3823", "K8A3", "F7826"], "source": "obs"}], "stations": {"99999963855": {"distance": 20592.0, "latitude": 36.014, "longitude": -85.134, "useCount": 0, "id": "99999963855", "name": "CROSSVILLE 7 NW, TN US", "quality": 100, "contribution": 0.0}, "72325003847": {"distance": 24825.0, "latitude": 35.951, "longitude": -85.081, "useCount": 0, "id": "72325003847", "name": "CROSSVILLE MEMORIAL AIRPORT, TN US", "quality": 100, "contribution": 0.0}, "KCSV": {"distance": 24950.0, "latitude": 35.95, "longitude": -85.08, "useCount": 0, "id": "KCSV", "name": "KCSV", "quality": 100, "contribution": 0.0}, "KSRB": {"distance": 18718.0, "latitude": 36.06, "longitude": -85.53, "useCount": 0, "id": "KSRB", "name": "KSRB", "quality": 98, "contribution": 0.0}, "D3823": {"distance": 28339.0, "latitude": 36.195, "longitude": -85.5, "useCount": 0, "id": "D3823", "name": "DW3823 Cookeville TN US", "quality": 0, "contribution": 0.0}, "K8A3": {"distance": 48267.0, "latitude": 36.4, "longitude": -85.31, "useCount": 0, "id": "K8A3", "name": "K8A3", "quality": 96, "contribution": 0.0}, "F7826": {"distance": 66116.0, "latitude": 36.081, "longitude": -86.077, "useCount": 0, "id": "F7826", "name": "FW7826 Watertown TN US", "quality": 0, "contribution": 0.0}}}