{"queryCost": 1, "latitude": 33.463, "longitude": -84.463, "resolvedAddress": "33.46300,-84.46300", "address": "33.46300,-84.46300", "timezone": "America/New_York", "tzoffset": -5.0, "days": [{"datetime": "2020-11-29", "datetimeEpoch": 1606626000, "tempmax": 56.3, "tempmin": 50.0, "temp": 54.1, "feelslikemax": 56.3, "feelslikemin": 50.0, "feelslike": 54.1, "dew": 52.3, "humidity": 93.7, "precip": 1.35, "precipprob": 100.0, "precipcover": 37.5, "preciptype": ["rain"], "snow": 0.0, "snowdepth": 0.0, "windgust": null, "windspeed": 10.2, "winddir": 85.3, "pressure": 1016.1, "cloudcover": 85.7, "visibility": 4.4, "solarradiation": 11.2, "solarenergy": 0.7, "uvindex": 1.0, "sunrise": "07:22:39", "sunriseEpoch": 1606652559, "sunset": "17:29:58", "sunsetEpoch": 1606688998, "moonphase": 0.5, "conditions": "Rain, Partially cloudy", "description": "Partly cloudy throughout the day with rain.", "icon": "rain", "stations": ["KFTY", "NNAG1", "F6303", "72219753819", "72219013874", "KFFC", "E9807", "KATL", "72219503888"], "source": "obs"}], "stations": {"KFTY": {"distance": 35682.0, "latitude": 33.78, "longitude": -84.52, "useCount": 0, "id": "KFTY", "name": "KFTY", "quality": 100, "contribution": 0.0}, "NNAG1": {"distance": 38432.0, "latitude": 33.365, "longitude": -84.86, "useCount": 0, "id": "NNAG1", "name": "NEWNAN GA US", "quality": 0, "contribution": 0.0}, "F6303": {"distance": 22548.0, "latitude": 33.664, "longitude": -84.433, "useCount": 0, "id": "F6303", "name": "FW6303 East Point GA US", "quality": 0, "contribution": 0.0}, "72219753819": {"distance": 15393.0, "latitude": 33.355, "longitude": -84.567, "useCount": 0, "id": "72219753819", "name": "PEACHTREE CITY FALCON FIELD, GA US", "quality": 100, "contribution": 0.0}, "72219013874": {"distance": 18705.0, "latitude": 33.63, "longitude": -84.442, "useCount": 0, "id": "72219013874", "name": "ATLANTA HARTSFIELD INTERNATIONAL AIRPORT, GA US", "quality": 100, "contribution": 0.0}, "KFFC": {"distance": 15176.0, "latitude": 33.36, "longitude": -84.57, "useCount": 0, "id": "KFFC", "name": "KFFC", "quality": 100, "contribution": 0.0}, "E9807": {"distance": 1670.0, "latitude": 33.475, "longitude": -84.452, "useCount": 0, "id": "E9807", "name": "EW9807 Fayetteville GA US", "quality": 0, "contribution": 0.0}, "KATL": {"distance": 21195.0, "latitude": 33.65, "longitude": -84.42, "useCount": 0, "id": "KATL", "name": "KATL", "quality": 100, "contribution": 0.0}, "72219503888": {"distance": 35613.0, "latitude": 33.779, "longitude": -84.521, "useCount": 0, "id": "72219503888", "name": "ATLANTA FULTON CO AIRPORT, GA US", "quality": 100, "contribution": 0.0}}}