{"queryCost": 1, "latitude": 32.713, "longitude": -83.691, "resolvedAddress": "32.71300,-83.69100", "address": "32.71300,-83.69100", "timezone": "America/New_York", "tzoffset": -4.0, "days": [{"datetime": "2020-05-19", "datetimeEpoch": 1589860800, "tempmax": 82.1, "tempmin": 64.4, "temp": 73.5, "feelslikemax": 82.1, "feelslikemin": 64.4, "feelslike": 73.5, "dew": 63.0, "humidity": 72.9, "precip": 0.33, "precipprob": 100.0, "precipcover": 12.5, "preciptype": ["rain"], "snow": 0.0, "snowdepth": 0.0, "windgust": 22.6, "windspeed": 14.7, "winddir": 217.8, "pressure": 1008.1, "cloudcover": 63.9, "visibility": 9.6, "solarradiation": 259.0, "solarenergy": 22.4, "uvindex": 9.0, "sunrise": "06:33:08", "sunriseEpoch": 1589884388, "sunset": "20:29:50", "sunsetEpoch": 1589934590, "moonphase": 0.96, "conditions": "Rain, Partially cloudy", "description": "Partly cloudy throughout the day with rain clearing later.", "icon": "rain", "stations": ["E3376", "KPXE", "72217003813", "72217513860", "KMCN", "KWRB"], "source": "obs"}], "stations": {"E3376": {"distance": 13392.0, "latitude": 32.828, "longitude": -83.649, "useCount": 0, "id": "E3376", "name": "EW3376 Macon GA US", "quality": 0, "contribution": 0.0}, "KPXE": {"distance": 23506.0, "latitude": 32.51, "longitude": -83.76, "useCount": 0, "id": "KPXE", "name": "KPXE", "quality": 100, "contribution": 0.0}, "72217003813": {"distance": 4775.0, "latitude": 32.685, "longitude": -83.653, "useCount": 0, "id": "72217003813", "name": "MACON MIDDLE GA REGIONAL AIRPORT, GA US", "quality": 100, "contribution": 0.0}, "72217513860": {"distance": 12306.0, "latitude": 32.633, "longitude": -83.6, "useCount": 0, "id": "72217513860", "name": "WARNER ROBINS AFB, GA US", "quality": 99, "contribution": 0.0}, "KMCN": {"distance": 4104.0, "latitude": 32.7, "longitude": -83.65, "useCount": 0, "id": "KMCN", "name": "KMCN", "quality": 100, "contribution": 0.0}, "KWRB": {"distance": 12573.0, "latitude": 32.63, "longitude": -83.6, "useCount": 0, "id": "KWRB", "name": "KWRB", "quality": 100, "contribution": 0.0}}}