{"queryCost": 1, "latitude": 31.876, "longitude": -106.582, "resolvedAddress": "31.87600,-106.58200", "address": "31.87600,-106.58200", "timezone": "America/Denver", "tzoffset": -7.0, "days": [{"datetime": "2021-01-15", "datetimeEpoch": 1610694000, "tempmax": 63.5, "tempmin": 38.0, "temp": 49.8, "feelslikemax": 63.5, "feelslikemin": 35.4, "feelslike": 48.5, "dew": 2.7, "humidity": 15.0, "precip": 0.0, "precipprob": null, "precipcover": 0.0, "preciptype": null, "snow": 0.0, "snowdepth": 0.0, "windgust": null, "windspeed": 11.7, "winddir": 260.9, "pressure": 1018.4, "cloudcover": 4.8, "visibility": 9.9, "solarradiation": 307.7, "solarenergy": 13.3, "uvindex": 6.0, "sunrise": "07:06:54", "sunriseEpoch": 1610719614, "sunset": "17:25:13", "sunsetEpoch": 1610756713, "moonphase": 0.03, "conditions": "Clear", "description": "Clear conditions throughout the day.", "icon": "clear-day", "stations": ["KBIF", "72270499999", "72364099999", "72270023044", "NM6O", "KELP", "F2547"], "source": "obs"}], "stations": {"KBIF": {"distance": 19316.0, "latitude": 31.85, "longitude": -106.38, "useCount": 0, "id": "KBIF", "name": "KBIF", "quality": 98, "contribution": 0.0}, "72270499999": {"distance": 19325.0, "latitude": 31.85, "longitude": -106.38, "useCount": 0, "id": "72270499999", "name": "BIGGS ARMY AIR FIELD FORT BLISS TEXAS USA, TX US", "quality": 98, "contribution": 0.0}, "72364099999": {"distance": 11449.0, "latitude": 31.88, "longitude": -106.703, "useCount": 0, "id": "72364099999", "name": "DONA ANA CO INTERNATIONAL JETPORT ARPT SANTA TERESA, NM US", "quality": 100, "contribution": 0.0}, "72270023044": {"distance": 20777.0, "latitude": 31.811, "longitude": -106.376, "useCount": 0, "id": "72270023044", "name": "EL PASO INTERNATIONAL AIRPORT, TX US", "quality": 100, "contribution": 0.0}, "NM6O": {"distance": 6770.0, "latitude": 31.919, "longitude": -106.633, "useCount": 0, "id": "NM6O", "name": "6O La Union NM US NMAQ", "quality": 0, "contribution": 0.0}, "KELP": {"distance": 19179.0, "latitude": 31.8, "longitude": -106.4, "useCount": 0, "id": "KELP", "name": "KELP", "quality": 100, "contribution": 0.0}, "F2547": {"distance": 17536.0, "latitude": 31.749, "longitude": -106.472, "useCount": 0, "id": "F2547", "name": "FW2547 Centro Comunitario La Montada MX", "quality": 0, "contribution": 0.0}}}