{"queryCost": 1, "latitude": 38.648, "longitude": -121.324, "resolvedAddress": "38.64800,-121.32400", "address": "38.64800,-121.32400", "timezone": "America/Los_Angeles", "tzoffset": -8.0, "days": [{"datetime": "2021-01-15", "datetimeEpoch": 1610697600, "tempmax": 61.5, "tempmin": 38.4, "temp": 49.4, "feelslikemax": 61.5, "feelslikemin": 38.4, "feelslike": 49.4, "dew": 45.1, "humidity": 85.9, "precip": 0.0, "precipprob": 0.0, "precipcover": 0.0, "preciptype": null, "snow": 0.0, "snowdepth": 0.0, "windgust": null, "windspeed": 8.1, "winddir": 195.5, "pressure": 1026.1, "cloudcover": 45.5, "visibility": 4.1, "solarradiation": 47.3, "solarenergy": 4.1, "uvindex": 3.0, "sunrise": "07:21:39", "sunriseEpoch": 1610724099, "sunset": "17:08:30", "sunsetEpoch": 1610759310, "moonphase": 0.03, "conditions": "Partially cloudy", "description": "Clearing in the afternoon.", "icon": "partly-cloudy-day", "stations": ["F7137", "KSMF", "72061400205", "72483023232", "72483993225", "KSAC"], "source": "obs"}], "stations": {"F7137": {"distance": 8008.0, "latitude": 38.645, "longitude": -121.232, "useCount": 0, "id": "F7137", "name": "FW7137 Fair Oaks CA US", "quality": 0, "contribution": 0.0}, "KSMF": {"distance": 22989.0, "latitude": 38.7, "longitude": -121.58, "useCount": 0, "id": "KSMF", "name": "SACRAMENTO METRO, CA", "quality": 100, "contribution": 0.0}, "72061400205": {"distance": 29149.0, "latitude": 38.909, "longitude": -121.351, "useCount": 0, "id": "72061400205", "name": "LINCOLN REGIONAL AIRPORT KARL HARDER FIELD, CA US", "quality": 100, "contribution": 0.0}, "72483023232": {"distance": 21637.0, "latitude": 38.507, "longitude": -121.495, "useCount": 0, "id": "72483023232", "name": "SACRAMENTO EXECUTIVE AIRPORT, CA US", "quality": 100, "contribution": 0.0}, "72483993225": {"distance": 23718.0, "latitude": 38.696, "longitude": -121.59, "useCount": 0, "id": "72483993225", "name": "SACRAMENTO METROPOLITAN AIRPORT, CA US", "quality": 100, "contribution": 0.0}, "KSAC": {"distance": 20919.0, "latitude": 38.52, "longitude": -121.5, "useCount": 0, "id": "KSAC", "name": "KSAC", "quality": 100, "contribution": 0.0}}}