{"queryCost": 1, "latitude": 40.532, "longitude": -85.634, "resolvedAddress": "40.53200,-85.63400", "address": "40.53200,-85.63400", "timezone": "America/Indiana/Indianapolis", "tzoffset": -5.0, "days": [{"datetime": "2021-01-17", "datetimeEpoch": 1610859600, "tempmax": 32.8, "tempmin": 28.8, "temp": 30.8, "feelslikemax": 25.1, "feelslikemin": 19.7, "feelslike": 22.9, "dew": 29.3, "humidity": 94.02, "precip": 0.0, "precipprob": null, "precipcover": 4.17, "preciptype": null, "snow": 0.0, "snowdepth": 0.0, "windgust": 21.9, "windspeed": 12.0, "winddir": 256.8, "pressure": 1007.5, "cloudcover": 100.0, "visibility": 6.6, "solarradiation": 66.2, "solarenergy": 2.6, "uvindex": 2.0, "sunrise": "08:02:59", "sunriseEpoch": 1610888579, "sunset": "17:42:57", "sunsetEpoch": 1610923377, "moonphase": 0.1, "conditions": "Overcast", "description": "Cloudy skies throughout the day.", "icon": "cloudy", "stations": ["72438754807", "KMZZ", "E5069", "KOKK", "F7948", "74421494852", "KMIE", "72533694895"], "source": "obs"}], "stations": {"72438754807": {"distance": 35953.0, "latitude": 40.528, "longitude": -86.059, "useCount": 0, "id": "72438754807", "name": "KOKOMO MUNICIPAL AIRPORT, IN US", "quality": 100, "contribution": 0.0}, "KMZZ": {"distance": 6084.0, "latitude": 40.49, "longitude": -85.68, "useCount": 0, "id": "KMZZ", "name": "KMZZ", "quality": 100, "contribution": 0.0}, "E5069": {"distance": 30368.0, "latitude": 40.593, "longitude": -85.984, "useCount": 0, "id": "E5069", "name": "EW5069 Amboy IN US", "quality": 0, "contribution": 0.0}, "KOKK": {"distance": 36890.0, "latitude": 40.53, "longitude": -86.07, "useCount": 0, "id": "KOKK", "name": "KOKOMO(AWOS), IN", "quality": 100, "contribution": 0.0}, "F7948": {"distance": 45384.0, "latitude": 40.445, "longitude": -86.158, "useCount": 0, "id": "F7948", "name": "FW7948 Kokomo IN US", "quality": 0, "contribution": 0.0}, "74421494852": {"distance": 6841.0, "latitude": 40.483, "longitude": -85.683, "useCount": 0, "id": "74421494852", "name": "MARION MUNICIPAL AIRPORT, IN US", "quality": 100, "contribution": 0.0}, "KMIE": {"distance": 37136.0, "latitude": 40.25, "longitude": -85.4, "useCount": 0, "id": "KMIE", "name": "KMIE", "quality": 100, "contribution": 0.0}, "72533694895": {"distance": 38917.0, "latitude": 40.234, "longitude": -85.394, "useCount": 0, "id": "72533694895", "name": "MUNCIE DELAWARE CO AIRPORT, IN US", "quality": 100, "contribution": 0.0}}}