{"queryCost": 1, "latitude": 34.668, "longitude": -112.307, "resolvedAddress": "34.66800,-112.30700", "address": "34.66800,-112.30700", "timezone": "America/Phoenix", "tzoffset": -7.0, "days": [{"datetime": "2021-01-16", "datetimeEpoch": 1610780400, "tempmax": 65.7, "tempmin": 32.5, "temp": 46.7, "feelslikemax": 65.7, "feelslikemin": 27.1, "feelslike": 44.6, "dew": 8.7, "humidity": 22.5, "precip": 0.0, "precipprob": 0.0, "precipcover": 0.0, "preciptype": null, "snow": 0.0, "snowdepth": 0.0, "windgust": 30.2, "windspeed": 16.6, "winddir": 179.8, "pressure": 1018.6, "cloudcover": 2.1, "visibility": 9.9, "solarradiation": 161.0, "solarenergy": 14.0, "uvindex": 6.0, "sunrise": "07:35:41", "sunriseEpoch": 1610807741, "sunset": "17:42:57", "sunsetEpoch": 1610844177, "moonphase": 0.06, "conditions": "Clear", "description": "Clear conditions throughout the day.", "icon": "clear-day", "stations": ["KPRC", "KFLG", "E7398", "72372323184", "72375600375", "KSEZ", "KCMR", "QCKA3"], "source": "obs"}], "stations": {"KPRC": {"distance": 10539.0, "latitude": 34.65, "longitude": -112.42, "useCount": 0, "id": "KPRC", "name": "KPRC", "quality": 100, "contribution": 0.0}, "KFLG": {"distance": 77636.0, "latitude": 35.13, "longitude": -111.67, "useCount": 0, "id": "KFLG", "name": "KFLG", "quality": 100, "contribution": 0.0}, "E7398": {"distance": 2226.0, "latitude": 34.665, "longitude": -112.331, "useCount": 0, "id": "E7398", "name": "EW7398 Prescott Valley AZ US", "quality": 0, "contribution": 0.0}, "72372323184": {"distance": 10595.0, "latitude": 34.652, "longitude": -112.421, "useCount": 0, "id": "72372323184", "name": "PRESCOTT LOVE FIELD, AZ US", "quality": 100, "contribution": 0.0}, "72375600375": {"distance": 52029.0, "latitude": 34.85, "longitude": -111.783, "useCount": 0, "id": "72375600375", "name": "SEDONA AIRPORT, AZ US", "quality": 100, "contribution": 0.0}, "KSEZ": {"distance": 52282.0, "latitude": 34.85, "longitude": -111.78, "useCount": 0, "id": "KSEZ", "name": "KSEZ", "quality": 100, "contribution": 0.0}, "KCMR": {"distance": 69925.0, "latitude": 35.29, "longitude": -112.2, "useCount": 0, "id": "KCMR", "name": "KCMR", "quality": 99, "contribution": 0.0}, "QCKA3": {"distance": 51854.0, "latitude": 34.203, "longitude": -112.346, "useCount": 0, "id": "QCKA3", "name": "CROWN KING AZ US", "quality": 0, "contribution": 0.0}}}