{"queryCost": 1, "latitude": 40.385, "longitude": -104.716, "resolvedAddress": "40.38500,-104.71600", "address": "40.38500,-104.71600", "timezone": "America/Denver", "tzoffset": -7.0, "days": [{"datetime": "2021-01-19", "datetimeEpoch": 1611039600, "tempmax": 38.1, "tempmin": 15.9, "temp": 25.0, "feelslikemax": 36.3, "feelslikemin": 5.7, "feelslike": 21.2, "dew": 12.3, "humidity": 61.22, "precip": 0.0, "precipprob": null, "precipcover": 0.0, "preciptype": null, "snow": 0.0, "snowdepth": 0.0, "windgust": null, "windspeed": 7.4, "winddir": 189.5, "pressure": 1032.3, "cloudcover": 1.1, "visibility": 9.9, "solarradiation": 184.8, "solarenergy": 9.3, "uvindex": 4.0, "sunrise": "07:17:51", "sunriseEpoch": 1611065871, "sunset": "17:02:02", "sunsetEpoch": 1611100922, "moonphase": 0.19, "conditions": "Clear", "description": "Clear conditions throughout the day.", "icon": "clear-day", "stations": ["72476824051", "KLMO", "72476994035", "CSU51", "KFNL", "KGXY", "72053800164"], "source": "obs"}], "stations": {"72476824051": {"distance": 9079.0, "latitude": 40.436, "longitude": -104.632, "useCount": 0, "id": "72476824051", "name": "GREELEY WELD CO AIRPORT, CO US", "quality": 99, "contribution": 0.0}, "KLMO": {"distance": 45898.0, "latitude": 40.15, "longitude": -105.16, "useCount": 0, "id": "KLMO", "name": "KLMO", "quality": 96, "contribution": 0.0}, "72476994035": {"distance": 26517.0, "latitude": 40.45, "longitude": -105.017, "useCount": 0, "id": "72476994035", "name": "FORT COLLINS LOVELAND AIRPORT, CO US", "quality": 100, "contribution": 0.0}, "CSU51": {"distance": 8124.0, "latitude": 40.313, "longitude": -104.727, "useCount": 0, "id": "CSU51", "name": "Peckham CO US", "quality": 0, "contribution": 0.0}, "KFNL": {"distance": 26761.0, "latitude": 40.45, "longitude": -105.02, "useCount": 0, "id": "KFNL", "name": "LOVELAND/FT CLNS, CO", "quality": 100, "contribution": 0.0}, "KGXY": {"distance": 8845.0, "latitude": 40.43, "longitude": -104.63, "useCount": 0, "id": "KGXY", "name": "GREELEY, CO", "quality": 100, "contribution": 0.0}, "72053800164": {"distance": 45344.0, "latitude": 40.167, "longitude": -105.167, "useCount": 0, "id": "72053800164", "name": "VANCE BRAND AIRPORT, CO US", "quality": 96, "contribution": 0.0}}}