{"queryCost": 1, "latitude": 33.311, "longitude": -111.836, "resolvedAddress": "33.31100,-111.83600", "address": "33.31100,-111.83600", "timezone": "America/Phoenix", "tzoffset": -7.0, "days": [{"datetime": "2021-01-02", "datetimeEpoch": 1609570800, "tempmax": 61.6, "tempmin": 41.0, "temp": 49.9, "feelslikemax": 61.6, "feelslikemin": 36.8, "feelslike": 48.8, "dew": 21.9, "humidity": 34.47, "precip": 0.0, "precipprob": null, "precipcover": 0.0, "preciptype": null, "snow": 0.0, "snowdepth": 0.0, "windgust": null, "windspeed": 7.7, "winddir": 103.4, "pressure": 1022.4, "cloudcover": 13.4, "visibility": 9.9, "solarradiation": 123.0, "solarenergy": 10.6, "uvindex": 5.0, "sunrise": "07:31:29", "sunriseEpoch": 1609597889, "sunset": "17:31:56", "sunsetEpoch": 1609633916, "moonphase": 0.56, "conditions": "Clear", "description": "Clear conditions throughout the day.", "icon": "clear-day", "stations": ["72278903192", "MACP", "KSDL", "MEMF", "72278023183", "KPHX", "72278303185", "KFFZ"], "source": "obs"}], "stations": {"72278903192": {"distance": 35401.0, "latitude": 33.623, "longitude": -111.911, "useCount": 0, "id": "72278903192", "name": "SCOTTSDALE MUNICIPAL AIRPORT, AZ US", "quality": 100, "contribution": 0.0}, "MACP": {"distance": 8485.0, "latitude": 33.328, "longitude": -111.747, "useCount": 0, "id": "MACP", "name": "Crossroads Park AZ US AZ ALERT", "quality": 0, "contribution": 0.0}, "KSDL": {"distance": 34186.0, "latitude": 33.61, "longitude": -111.92, "useCount": 0, "id": "KSDL", "name": "KSDL", "quality": 100, "contribution": 0.0}, "MEMF": {"distance": 15787.0, "latitude": 33.169, "longitude": -111.843, "useCount": 0, "id": "MEMF", "name": "EMF @ Arizona Ave. AZ US AZ ALERT", "quality": 0, "contribution": 0.0}, "72278023183": {"distance": 20315.0, "latitude": 33.428, "longitude": -112.004, "useCount": 0, "id": "72278023183", "name": "PHOENIX AIRPORT, AZ US", "quality": 100, "contribution": 0.0}, "KPHX": {"distance": 21635.0, "latitude": 33.43, "longitude": -112.02, "useCount": 0, "id": "KPHX", "name": "KPHX", "quality": 100, "contribution": 0.0}, "72278303185": {"distance": 19801.0, "latitude": 33.467, "longitude": -111.733, "useCount": 0, "id": "72278303185", "name": "MESA FALCON FIELD, AZ US", "quality": 100, "contribution": 0.0}, "KFFZ": {"distance": 20257.0, "latitude": 33.47, "longitude": -111.73, "useCount": 0, "id": "KFFZ", "name": "FALCON FLD MESA, AZ", "quality": 100, "contribution": 0.0}}}