{"queryCost": 1, "latitude": 38.347, "longitude": -121.986, "resolvedAddress": "38.34700,-121.98600", "address": "38.34700,-121.98600", "timezone": "America/Los_Angeles", "tzoffset": -8.0, "days": [{"datetime": "2021-01-26", "datetimeEpoch": 1611648000, "tempmax": 50.0, "tempmin": 27.2, "temp": 41.7, "feelslikemax": 46.3, "feelslikemin": 22.9, "feelslike": 36.9, "dew": 31.1, "humidity": 67.3, "precip": 0.57, "precipprob": 100.0, "precipcover": 29.17, "preciptype": ["rain"], "snow": 0.0, "snowdepth": 0.0, "windgust": 44.5, "windspeed": 27.5, "winddir": 213.0, "pressure": 1011.7, "cloudcover": 48.9, "visibility": 8.7, "solarradiation": 57.4, "solarenergy": 4.9, "uvindex": 3.0, "sunrise": "07:17:34", "sunriseEpoch": 1611674254, "sunset": "17:24:05", "sunsetEpoch": 1611710645, "moonphase": 0.47, "conditions": "Rain, Partially cloudy", "description": "Becoming cloudy in the afternoon with rain.", "icon": "rain", "stations": ["AV719", "74516023202", "CI139", "72482893241", "KEDU", "KVCB", "KAPC", "KSUU"], "source": "obs"}], "stations": {"AV719": {"distance": 6823.0, "latitude": 38.351, "longitude": -121.908, "useCount": 0, "id": "AV719", "name": "KN6ETB-1 Elmira CA US", "quality": 0, "contribution": 0.0}, "74516023202": {"distance": 10067.0, "latitude": 38.267, "longitude": -121.933, "useCount": 0, "id": "74516023202", "name": "TRAVIS FIELD AFB, CA US", "quality": 96, "contribution": 0.0}, "CI139": {"distance": 17181.0, "latitude": 38.501, "longitude": -121.973, "useCount": 0, "id": "CI139", "name": "Winters CA US CIMIS", "quality": 0, "contribution": 0.0}, "72482893241": {"distance": 4235.0, "latitude": 38.378, "longitude": -121.957, "useCount": 0, "id": "72482893241", "name": "VACAVILLE NUT TREE AIRPORT, CA US", "quality": 100, "contribution": 0.0}, "KEDU": {"distance": 26591.0, "latitude": 38.53, "longitude": -121.79, "useCount": 0, "id": "KEDU", "name": "KEDU", "quality": 97, "contribution": 0.0}, "KVCB": {"distance": 4318.0, "latitude": 38.38, "longitude": -121.96, "useCount": 0, "id": "KVCB", "name": "KVCB", "quality": 100, "contribution": 0.0}, "KAPC": {"distance": 29323.0, "latitude": 38.22, "longitude": -122.28, "useCount": 0, "id": "KAPC", "name": "KAPC", "quality": 100, "contribution": 0.0}, "KSUU": {"distance": 9869.0, "latitude": 38.27, "longitude": -121.93, "useCount": 0, "id": "KSUU", "name": "KSUU", "quality": 100, "contribution": 0.0}}}