{"queryCost": 1, "latitude": 47.081, "longitude": -122.298, "resolvedAddress": "47.08100,-122.29800", "address": "47.08100,-122.29800", "timezone": "America/Los_Angeles", "tzoffset": -8.0, "days": [{"datetime": "2021-01-25", "datetimeEpoch": 1611561600, "tempmax": 43.5, "tempmin": 32.5, "temp": 37.0, "feelslikemax": 39.0, "feelslikemin": 24.7, "feelslike": 31.0, "dew": 33.6, "humidity": 87.6, "precip": 0.01, "precipprob": 100.0, "precipcover": 4.17, "preciptype": ["rain"], "snow": 0.0, "snowdepth": 0.0, "windgust": 25.3, "windspeed": 12.8, "winddir": 192.0, "pressure": 1010.3, "cloudcover": 38.3, "visibility": 9.9, "solarradiation": 55.7, "solarenergy": 4.9, "uvindex": 4.0, "sunrise": "07:42:01", "sunriseEpoch": 1611589321, "sunset": "17:01:48", "sunsetEpoch": 1611622908, "moonphase": 0.44, "conditions": "Rain, Partially cloudy", "description": "Becoming cloudy in the afternoon with afternoon rain.", "icon": "rain", "stations": ["KTCM", "KGRF", "E8756", "KTIW", "72793024233", "74206024207", "KSEA", "72793894274", "E6959", "72793494248", "74207124201"], "source": "obs"}], "stations": {"KTCM": {"distance": 14830.0, "latitude": 47.13, "longitude": -122.48, "useCount": 0, "id": "KTCM", "name": "KTCM", "quality": 100, "contribution": 0.0}, "KGRF": {"distance": 21377.0, "latitude": 47.08, "longitude": -122.58, "useCount": 0, "id": "KGRF", "name": "KGRF", "quality": 100, "contribution": 0.0}, "E8756": {"distance": 5970.0, "latitude": 47.127, "longitude": -122.338, "useCount": 0, "id": "E8756", "name": "EW8756 Puyallup WA US", "quality": 0, "contribution": 0.0}, "KTIW": {"distance": 29967.0, "latitude": 47.27, "longitude": -122.58, "useCount": 0, "id": "KTIW", "name": "KTIW", "quality": 100, "contribution": 0.0}, "72793024233": {"distance": 40472.0, "latitude": 47.444, "longitude": -122.314, "useCount": 0, "id": "72793024233", "name": "SEATTLE TACOMA AIRPORT, WA US", "quality": 100, "contribution": 0.0}, "74206024207": {"distance": 15982.0, "latitude": 47.15, "longitude": -122.483, "useCount": 0, "id": "74206024207", "name": "TACOMA MCCHORD AFB, WA US", "quality": 96, "contribution": 0.0}, "KSEA": {"distance": 41077.0, "latitude": 47.45, "longitude": -122.3, "useCount": 0, "id": "KSEA", "name": "KSEA", "quality": 100, "contribution": 0.0}, "72793894274": {"distance": 29556.0, "latitude": 47.268, "longitude": -122.576, "useCount": 0, "id": "72793894274", "name": "TACOMA NARROWS AIRPORT, WA US", "quality": 100, "contribution": 0.0}, "E6959": {"distance": 4509.0, "latitude": 47.098, "longitude": -122.244, "useCount": 0, "id": "E6959", "name": "EW6959 Puyallup WA US", "quality": 0, "contribution": 0.0}, "72793494248": {"distance": 46333.0, "latitude": 47.493, "longitude": -122.214, "useCount": 0, "id": "72793494248", "name": "RENTON MUNICIPAL AIRPORT, WA US", "quality": 100, "contribution": 0.0}, "74207124201": {"distance": 21605.0, "latitude": 47.083, "longitude": -122.583, "useCount": 0, "id": "74207124201", "name": "GRAY ARMY AIR FIELD, WA US", "quality": 96, "contribution": 0.0}}}