{"queryCost": 1, "latitude": 32.186, "longitude": -110.968, "resolvedAddress": "32.18600,-110.96800", "address": "32.18600,-110.96800", "timezone": "America/Phoenix", "tzoffset": -7.0, "days": [{"datetime": "2021-02-01", "datetimeEpoch": 1612162800, "tempmax": 73.9, "tempmin": 56.0, "temp": 63.7, "feelslikemax": 73.9, "feelslikemin": 56.0, "feelslike": 63.7, "dew": 25.9, "humidity": 24.2, "precip": 0.0, "precipprob": 0.0, "precipcover": 0.0, "preciptype": null, "snow": 0.0, "snowdepth": 0.0, "windgust": 32.3, "windspeed": 19.6, "winddir": 119.5, "pressure": 1017.2, "cloudcover": 22.6, "visibility": 9.9, "solarradiation": 101.3, "solarenergy": 8.6, "uvindex": 4.0, "sunrise": "07:17:32", "sunriseEpoch": 1612189052, "sunset": "17:57:55", "sunsetEpoch": 1612227475, "moonphase": 0.59, "conditions": "Partially cloudy", "description": "Partly cloudy throughout the day.", "icon": "partly-cloudy-day", "stations": ["E8967", "KAVQ", "72274023160", "KTUS", "72274523109", "KDMA", "99999953131"], "source": "obs"}], "stations": {"E8967": {"distance": 7622.0, "latitude": 32.237, "longitude": -110.914, "useCount": 0, "id": "E8967", "name": "EW8967 Tucson AZ US", "quality": 0, "contribution": 0.0}, "KAVQ": {"distance": 32956.0, "latitude": 32.4, "longitude": -111.21, "useCount": 0, "id": "KAVQ", "name": "KAVQ", "quality": 99, "contribution": 0.0}, "72274023160": {"distance": 6211.0, "latitude": 32.131, "longitude": -110.955, "useCount": 0, "id": "72274023160", "name": "TUCSON INTERNATIONAL AIRPORT, AZ US", "quality": 100, "contribution": 0.0}, "KTUS": {"distance": 6279.0, "latitude": 32.13, "longitude": -110.96, "useCount": 0, "id": "KTUS", "name": "KTUS", "quality": 100, "contribution": 0.0}, "72274523109": {"distance": 8292.0, "latitude": 32.167, "longitude": -110.883, "useCount": 0, "id": "72274523109", "name": "DAVIS MONTHAN AFB, AZ US", "quality": 97, "contribution": 0.0}, "KDMA": {"distance": 8481.0, "latitude": 32.17, "longitude": -110.88, "useCount": 0, "id": "KDMA", "name": "KDMA", "quality": 100, "contribution": 0.0}, "99999953131": {"distance": 19936.0, "latitude": 32.24, "longitude": -111.17, "useCount": 0, "id": "99999953131", "name": "TUCSON 11 W, AZ US", "quality": 100, "contribution": 0.0}}}