{"queryCost": 1, "latitude": 34.029, "longitude": -94.739, "resolvedAddress": "34.02900,-94.73900", "address": "34.02900,-94.73900", "timezone": "America/Chicago", "tzoffset": -6.0, "days": [{"datetime": "2021-01-31", "datetimeEpoch": 1612072800, "tempmax": 52.1, "tempmin": 39.3, "temp": 45.8, "feelslikemax": 52.1, "feelslikemin": 34.0, "feelslike": 40.2, "dew": 35.5, "humidity": 67.6, "precip": 0.0, "precipprob": 0.0, "precipcover": 0.0, "preciptype": null, "snow": 0.0, "snowdepth": 0.0, "windgust": 28.9, "windspeed": 17.2, "winddir": 318.6, "pressure": 1018.6, "cloudcover": 39.9, "visibility": 9.7, "solarradiation": 175.2, "solarenergy": 15.1, "uvindex": 8.0, "sunrise": "07:16:32", "sunriseEpoch": 1612098992, "sunset": "17:48:50", "sunsetEpoch": 1612136930, "moonphase": 0.54, "conditions": "Partially cloudy", "description": "Partly cloudy throughout the day.", "icon": "partly-cloudy-day", "stations": ["72375953990", "74331253925", "KMEZ", "72017253996", "KDEQ", "BRKO2", "K4O4"], "source": "obs"}], "stations": {"72375953990": {"distance": 17344.0, "latitude": 33.909, "longitude": -94.859, "useCount": 0, "id": "72375953990", "name": "IDABEL MCCURTAIN CO REGIONAL AIRPORT, OK US", "quality": 100, "contribution": 0.0}, "74331253925": {"distance": 31285.0, "latitude": 34.05, "longitude": -94.401, "useCount": 0, "id": "74331253925", "name": "DE QUEEN SEVIER CO AIRPORT, AR US", "quality": 100, "contribution": 0.0}, "KMEZ": {"distance": 75456.0, "latitude": 34.54, "longitude": -94.2, "useCount": 0, "id": "KMEZ", "name": "KMEZ", "quality": 97, "contribution": 0.0}, "72017253996": {"distance": 75750.0, "latitude": 34.545, "longitude": -94.202, "useCount": 0, "id": "72017253996", "name": "MENA INTERMOUNTAIN MUNICIPAL AIRPORT, AR US", "quality": 98, "contribution": 0.0}, "KDEQ": {"distance": 31297.0, "latitude": 34.04, "longitude": -94.4, "useCount": 0, "id": "KDEQ", "name": "KDEQ", "quality": 100, "contribution": 0.0}, "BRKO2": {"distance": 2344.0, "latitude": 34.05, "longitude": -94.737, "useCount": 0, "id": "BRKO2", "name": "BROKEN BOW OK US", "quality": 0, "contribution": 0.0}, "K4O4": {"distance": 18194.0, "latitude": 33.9, "longitude": -94.86, "useCount": 0, "id": "K4O4", "name": "K4O4", "quality": 100, "contribution": 0.0}}}