{"queryCost": 1, "latitude": 38.032, "longitude": -77.573, "resolvedAddress": "38.03200,-77.57300", "address": "38.03200,-77.57300", "timezone": "America/New_York", "tzoffset": -5.0, "days": [{"datetime": "2021-02-01", "datetimeEpoch": 1612155600, "tempmax": 32.1, "tempmin": 28.2, "temp": 30.3, "feelslikemax": 29.1, "feelslikemin": 20.8, "feelslike": 24.0, "dew": 28.8, "humidity": 93.9, "precip": 0.02, "precipprob": 100.0, "precipcover": 8.33, "preciptype": ["rain", "snow"], "snow": 1.0, "snowdepth": 3.8, "windgust": 18.3, "windspeed": 8.9, "winddir": 344.5, "pressure": 1007.7, "cloudcover": 100.0, "visibility": 7.0, "solarradiation": 28.5, "solarenergy": 2.5, "uvindex": 1.0, "sunrise": "07:14:35", "sunriseEpoch": 1612181675, "sunset": "17:33:45", "sunsetEpoch": 1612218825, "moonphase": 0.59, "conditions": "Snow, Rain, Overcast", "description": "Cloudy skies throughout the day with rain or snow.", "icon": "snow", "stations": ["TT215", "72311403715", "KEZF", "KLKU", "72403303706", "K7W4", "72308493775", "D3513"], "source": "obs"}], "stations": {"TT215": {"distance": 27317.0, "latitude": 38.096, "longitude": -77.272, "useCount": 0, "id": "TT215", "name": "FAPH_DELOS VA US", "quality": 0, "contribution": 0.0}, "72311403715": {"distance": 34904.0, "latitude": 38.01, "longitude": -77.97, "useCount": 0, "id": "72311403715", "name": "LOUISA CO FREEMAN FIELD AIRPORT, VA US", "quality": 98, "contribution": 0.0}, "KEZF": {"distance": 28598.0, "latitude": 38.27, "longitude": -77.45, "useCount": 0, "id": "KEZF", "name": "KEZF", "quality": 98, "contribution": 0.0}, "KLKU": {"distance": 34901.0, "latitude": 38.01, "longitude": -77.97, "useCount": 0, "id": "KLKU", "name": "KLKU", "quality": 97, "contribution": 0.0}, "72403303706": {"distance": 28285.0, "latitude": 38.267, "longitude": -77.449, "useCount": 0, "id": "72403303706", "name": "FREDERICKSBURG SHANNON AIRPORT, VA US", "quality": 99, "contribution": 0.0}, "K7W4": {"distance": 17474.0, "latitude": 37.96, "longitude": -77.75, "useCount": 0, "id": "K7W4", "name": "K7W4", "quality": 99, "contribution": 0.0}, "72308493775": {"distance": 38058.0, "latitude": 37.708, "longitude": -77.434, "useCount": 0, "id": "72308493775", "name": "ASHLAND HANOVER CO MUNICIPAL AIRPORT, VA US", "quality": 100, "contribution": 0.0}, "D3513": {"distance": 11538.0, "latitude": 38.136, "longitude": -77.58, "useCount": 0, "id": "D3513", "name": "DW3513 Thornburg VA US", "quality": 0, "contribution": 0.0}}}