{"queryCost": 1, "latitude": 32.37, "longitude": -88.709, "resolvedAddress": "32.37000,-88.70900", "address": "32.37000,-88.70900", "timezone": "America/Chicago", "tzoffset": -6.0, "days": [{"datetime": "2021-02-02", "datetimeEpoch": 1612245600, "tempmax": 53.0, "tempmin": 29.9, "temp": 39.8, "feelslikemax": 53.0, "feelslikemin": 23.9, "feelslike": 35.6, "dew": 25.9, "humidity": 59.9, "precip": 0.0, "precipprob": 0.0, "precipcover": 0.0, "preciptype": null, "snow": 0.0, "snowdepth": 0.0, "windgust": 21.9, "windspeed": 11.3, "winddir": 301.5, "pressure": 1022.8, "cloudcover": 5.8, "visibility": 9.9, "solarradiation": 225.9, "solarenergy": 19.4, "uvindex": 8.0, "sunrise": "06:48:10", "sunriseEpoch": 1612270090, "sunset": "17:29:27", "sunsetEpoch": 1612308567, "moonphase": 0.63, "conditions": "Clear", "description": "Clear conditions throughout the day.", "icon": "clear-day", "stations": ["KNMM", "RLDM6", "KMEI", "72234013865", "99999963831", "72234503866"], "source": "obs"}], "stations": {"KNMM": {"distance": 22991.0, "latitude": 32.54, "longitude": -88.57, "useCount": 0, "id": "KNMM", "name": "KNMM", "quality": 100, "contribution": 0.0}, "RLDM6": {"distance": 23724.0, "latitude": 32.368, "longitude": -88.457, "useCount": 0, "id": "RLDM6", "name": "LAUDERDALE MS US", "quality": 0, "contribution": 0.0}, "KMEI": {"distance": 5890.0, "latitude": 32.33, "longitude": -88.75, "useCount": 0, "id": "KMEI", "name": "KMEI", "quality": 100, "contribution": 0.0}, "72234013865": {"distance": 5138.0, "latitude": 32.335, "longitude": -88.744, "useCount": 0, "id": "72234013865", "name": "MERIDIAN KEY FIELD, MS US", "quality": 100, "contribution": 0.0}, "99999963831": {"distance": 34165.0, "latitude": 32.338, "longitude": -89.07, "useCount": 0, "id": "99999963831", "name": "NEWTON 5 ENE, MS US", "quality": 100, "contribution": 0.0}, "72234503866": {"distance": 24086.0, "latitude": 32.55, "longitude": -88.567, "useCount": 0, "id": "72234503866", "name": "MERIDIAN NAAS, MS US", "quality": 100, "contribution": 0.0}}}