{"queryCost": 1, "latitude": 40.575, "longitude": -122.381, "resolvedAddress": "40.57500,-122.38100", "address": "40.57500,-122.38100", "timezone": "America/Los_Angeles", "tzoffset": -8.0, "days": [{"datetime": "2021-02-07", "datetimeEpoch": 1612684800, "tempmax": 71.5, "tempmin": 35.4, "temp": 51.8, "feelslikemax": 71.5, "feelslikemin": 32.1, "feelslike": 51.2, "dew": 31.9, "humidity": 53.05, "precip": 0.0, "precipprob": null, "precipcover": 0.0, "preciptype": null, "snow": 0.0, "snowdepth": 0.0, "windgust": null, "windspeed": 7.7, "winddir": 163.7, "pressure": 1015.0, "cloudcover": 0.0, "visibility": 9.9, "solarradiation": 89.1, "solarenergy": 4.2, "uvindex": 3.0, "sunrise": "07:12:30", "sunriseEpoch": 1612710750, "sunset": "17:35:25", "sunsetEpoch": 1612748125, "moonphase": 0.9, "conditions": "Clear", "description": "Clear conditions throughout the day.", "icon": "clear-day", "stations": ["KRBL", "72592024257", "KRDD", "RRAC1", "99999904222", "F0355", "72591024216"], "source": "obs"}], "stations": {"KRBL": {"distance": 48598.0, "latitude": 40.15, "longitude": -122.25, "useCount": 0, "id": "KRBL", "name": "KRBL", "quality": 100, "contribution": 0.0}, "72592024257": {"distance": 9438.0, "latitude": 40.518, "longitude": -122.299, "useCount": 0, "id": "72592024257", "name": "REDDING MUNICIPAL AIRPORT, CA US", "quality": 100, "contribution": 0.0}, "KRDD": {"distance": 10801.0, "latitude": 40.5, "longitude": -122.3, "useCount": 0, "id": "KRDD", "name": "KRDD", "quality": 100, "contribution": 0.0}, "RRAC1": {"distance": 10005.0, "latitude": 40.516, "longitude": -122.292, "useCount": 0, "id": "RRAC1", "name": "REDDING CA US", "quality": 0, "contribution": 0.0}, "99999904222": {"distance": 20875.0, "latitude": 40.651, "longitude": -122.607, "useCount": 0, "id": "99999904222", "name": "REDDING 12 WNW, CA US", "quality": 100, "contribution": 0.0}, "F0355": {"distance": 4979.0, "latitude": 40.619, "longitude": -122.372, "useCount": 0, "id": "F0355", "name": "FW0355 Redding CA US", "quality": 0, "contribution": 0.0}, "72591024216": {"distance": 48315.0, "latitude": 40.152, "longitude": -122.254, "useCount": 0, "id": "72591024216", "name": "RED BLUFF MUNICIPAL AIRPORT, CA US", "quality": 100, "contribution": 0.0}}}