{"queryCost": 1, "latitude": 33.784, "longitude": -118.198, "resolvedAddress": "33.78400,-118.19800", "address": "33.78400,-118.19800", "timezone": "America/Los_Angeles", "tzoffset": -8.0, "days": [{"datetime": "2021-02-06", "datetimeEpoch": 1612598400, "tempmax": 72.5, "tempmin": 46.4, "temp": 57.0, "feelslikemax": 72.5, "feelslikemin": 46.4, "feelslike": 57.0, "dew": 45.3, "humidity": 67.4, "precip": 0.0, "precipprob": 0.0, "precipcover": 0.0, "preciptype": null, "snow": 0.0, "snowdepth": 0.0, "windgust": null, "windspeed": 9.6, "winddir": 93.7, "pressure": 1015.6, "cloudcover": 5.0, "visibility": 8.3, "solarradiation": 158.1, "solarenergy": 13.6, "uvindex": 6.0, "sunrise": "06:45:15", "sunriseEpoch": 1612622715, "sunset": "17:29:00", "sunsetEpoch": 1612661340, "moonphase": 0.85, "conditions": "Clear", "description": "Clear conditions throughout the day.", "icon": "clear-day", "stations": ["KFUL", "KHHR", "KSLI", "CI174", "72295603167", "72297023129", "KLGB"], "source": "obs"}], "stations": {"KFUL": {"distance": 21864.0, "latitude": 33.86, "longitude": -117.98, "useCount": 0, "id": "KFUL", "name": "KFUL", "quality": 100, "contribution": 0.0}, "KHHR": {"distance": 19445.0, "latitude": 33.92, "longitude": -118.33, "useCount": 0, "id": "KHHR", "name": "KHHR", "quality": 100, "contribution": 0.0}, "KSLI": {"distance": 13701.0, "latitude": 33.78, "longitude": -118.05, "useCount": 0, "id": "KSLI", "name": "KSLI", "quality": 93, "contribution": 0.0}, "CI174": {"distance": 9730.0, "latitude": 33.797, "longitude": -118.094, "useCount": 0, "id": "CI174", "name": "Long Beach CA US CIMIS", "quality": 0, "contribution": 0.0}, "72295603167": {"distance": 19920.0, "latitude": 33.923, "longitude": -118.334, "useCount": 0, "id": "72295603167", "name": "HAWTHORNE MUNICIPAL AIRPORT, CA US", "quality": 100, "contribution": 0.0}, "72297023129": {"distance": 5708.0, "latitude": 33.812, "longitude": -118.146, "useCount": 0, "id": "72297023129", "name": "LONG BEACH DAUGHERTY AIRPORT, CA US", "quality": 100, "contribution": 0.0}, "KLGB": {"distance": 5981.0, "latitude": 33.82, "longitude": -118.15, "useCount": 0, "id": "KLGB", "name": "KLGB", "quality": 100, "contribution": 0.0}}}