{"queryCost": 1, "latitude": 41.212, "longitude": -111.973, "resolvedAddress": "41.21200,-111.97300", "address": "41.21200,-111.97300", "timezone": "America/Denver", "tzoffset": -7.0, "days": [{"datetime": "2021-02-06", "datetimeEpoch": 1612594800, "tempmax": 47.4, "tempmin": 27.1, "temp": 38.3, "feelslikemax": 42.9, "feelslikemin": 19.8, "feelslike": 31.9, "dew": 21.3, "humidity": 52.6, "precip": 0.0, "precipprob": 0.0, "precipcover": 0.0, "preciptype": null, "snow": 1.2, "snowdepth": 2.3, "windgust": 29.9, "windspeed": 14.8, "winddir": 181.7, "pressure": 1015.7, "cloudcover": 73.8, "visibility": 9.9, "solarradiation": 125.9, "solarenergy": 11.0, "uvindex": 5.0, "sunrise": "07:33:14", "sunriseEpoch": 1612621994, "sunset": "17:51:19", "sunsetEpoch": 1612659079, "moonphase": 0.85, "conditions": "Partially cloudy", "description": "Partly cloudy throughout the day.", "icon": "snow", "stations": ["C9991", "KOGD", "UTRIV", "72572024127", "KHIF", "72575524101", "72575024126", "KSLC"], "source": "obs"}], "stations": {"C9991": {"distance": 2626.0, "latitude": 41.2, "longitude": -112.0, "useCount": 0, "id": "C9991", "name": "CW9991 Roy UT US", "quality": 0, "contribution": 0.0}, "KOGD": {"distance": 4157.0, "latitude": 41.2, "longitude": -112.02, "useCount": 0, "id": "KOGD", "name": "OGDEN, UT", "quality": 100, "contribution": 0.0}, "UTRIV": {"distance": 5123.0, "latitude": 41.175, "longitude": -112.009, "useCount": 0, "id": "UTRIV", "name": "Riverdale Rd. UT US UTAH DOT", "quality": 0, "contribution": 0.0}, "72572024127": {"distance": 48303.0, "latitude": 40.778, "longitude": -111.969, "useCount": 0, "id": "72572024127", "name": "SALT LAKE CITY INTERNATIONAL AIRPORT, UT US", "quality": 100, "contribution": 0.0}, "KHIF": {"distance": 10244.0, "latitude": 41.12, "longitude": -111.97, "useCount": 0, "id": "KHIF", "name": "KHIF", "quality": 100, "contribution": 0.0}, "72575524101": {"distance": 10621.0, "latitude": 41.117, "longitude": -111.967, "useCount": 0, "id": "72575524101", "name": "OGDEN HILL AFB, UT US", "quality": 96, "contribution": 0.0}, "72575024126": {"distance": 3642.0, "latitude": 41.196, "longitude": -112.011, "useCount": 0, "id": "72575024126", "name": "OGDEN HINKLEY AIRPORT, UT US", "quality": 100, "contribution": 0.0}, "KSLC": {"distance": 48091.0, "latitude": 40.78, "longitude": -111.97, "useCount": 0, "id": "KSLC", "name": "KSLC", "quality": 100, "contribution": 0.0}}}