{"queryCost": 1, "latitude": 39.818, "longitude": -84.296, "resolvedAddress": "39.81800,-84.29600", "address": "39.81800,-84.29600", "timezone": "America/New_York", "tzoffset": -5.0, "days": [{"datetime": "2021-02-05", "datetimeEpoch": 1612501200, "tempmax": 34.6, "tempmin": 21.5, "temp": 28.5, "feelslikemax": 22.2, "feelslikemin": 8.2, "feelslike": 15.8, "dew": 17.5, "humidity": 63.2, "precip": 0.0, "precipprob": 0.0, "precipcover": 0.0, "preciptype": null, "snow": 0.2, "snowdepth": 2.2, "windgust": 41.4, "windspeed": 26.1, "winddir": 248.3, "pressure": 1007.4, "cloudcover": 85.3, "visibility": 9.5, "solarradiation": 43.1, "solarenergy": 3.7, "uvindex": 2.0, "sunrise": "07:41:03", "sunriseEpoch": 1612528863, "sunset": "18:01:55", "sunsetEpoch": 1612566115, "moonphase": 0.8, "conditions": "Partially cloudy", "description": "Partly cloudy throughout the day.", "icon": "snow", "stations": ["72429093815", "KDAY", "74570013840", "KFFO", "KMGY", "AV260", "72427653859"], "source": "obs"}], "stations": {"72429093815": {"distance": 11861.0, "latitude": 39.906, "longitude": -84.218, "useCount": 0, "id": "72429093815", "name": "DAYTON INTERNATIONAL AIRPORT, OH US", "quality": 100, "contribution": 0.0}, "KDAY": {"distance": 12273.0, "latitude": 39.9, "longitude": -84.2, "useCount": 0, "id": "KDAY", "name": "KDAY", "quality": 100, "contribution": 0.0}, "74570013840": {"distance": 21100.0, "latitude": 39.833, "longitude": -84.05, "useCount": 0, "id": "74570013840", "name": "DAYTON WRIGHT PATTERSON AFB, OH US", "quality": 100, "contribution": 0.0}, "KFFO": {"distance": 21074.0, "latitude": 39.83, "longitude": -84.05, "useCount": 0, "id": "KFFO", "name": "KFFO", "quality": 100, "contribution": 0.0}, "KMGY": {"distance": 24917.0, "latitude": 39.6, "longitude": -84.23, "useCount": 0, "id": "KMGY", "name": "KMGY", "quality": 100, "contribution": 0.0}, "AV260": {"distance": 2993.0, "latitude": 39.837, "longitude": -84.32, "useCount": 0, "id": "AV260", "name": "KC8UZG Clayton OH US", "quality": 0, "contribution": 0.0}, "72427653859": {"distance": 25681.0, "latitude": 39.594, "longitude": -84.226, "useCount": 0, "id": "72427653859", "name": "DAYTON WRIGHT BROTHERS AIRPORT, OH US", "quality": 100, "contribution": 0.0}}}