{"queryCost": 1, "latitude": 35.484, "longitude": -97.623, "resolvedAddress": "35.48400,-97.62300", "address": "35.48400,-97.62300", "timezone": "America/Chicago", "tzoffset": -6.0, "days": [{"datetime": "2021-02-04", "datetimeEpoch": 1612418400, "tempmax": 61.4, "tempmin": 34.5, "temp": 48.7, "feelslikemax": 61.4, "feelslikemin": 28.3, "feelslike": 44.2, "dew": 31.6, "humidity": 52.6, "precip": 0.0, "precipprob": 0.0, "precipcover": 0.0, "preciptype": null, "snow": 0.0, "snowdepth": 0.0, "windgust": 44.3, "windspeed": 31.5, "winddir": 240.4, "pressure": 1008.7, "cloudcover": 16.9, "visibility": 9.9, "solarradiation": 107.4, "solarenergy": 9.2, "uvindex": 5.0, "sunrise": "07:27:29", "sunriseEpoch": 1612445249, "sunset": "18:01:53", "sunsetEpoch": 1612483313, "moonphase": 0.74, "conditions": "Clear", "description": "Clear conditions throughout the day.", "icon": "wind", "stations": ["F7413", "72353013967", "FTRO2", "KRCE", "KPWA", "72354403954", "KOKC", "72062800215"], "source": "obs"}], "stations": {"F7413": {"distance": 13615.0, "latitude": 35.601, "longitude": -97.667, "useCount": 0, "id": "F7413", "name": "FW7413 Oklahoma City OK US", "quality": 0, "contribution": 0.0}, "72353013967": {"distance": 10780.0, "latitude": 35.389, "longitude": -97.601, "useCount": 0, "id": "72353013967", "name": "OKLAHOMA CITY WILL ROGERS WORLD AIRPORT, OK US", "quality": 100, "contribution": 0.0}, "FTRO2": {"distance": 36421.0, "latitude": 35.55, "longitude": -98.017, "useCount": 0, "id": "FTRO2", "name": "FORT RENO #1 OK US SCAN", "quality": 0, "contribution": 0.0}, "KRCE": {"distance": 17926.0, "latitude": 35.47, "longitude": -97.82, "useCount": 0, "id": "KRCE", "name": "KRCE", "quality": 95, "contribution": 0.0}, "KPWA": {"distance": 5675.0, "latitude": 35.53, "longitude": -97.65, "useCount": 0, "id": "KPWA", "name": "KPWA", "quality": 100, "contribution": 0.0}, "72354403954": {"distance": 5993.0, "latitude": 35.534, "longitude": -97.647, "useCount": 0, "id": "72354403954", "name": "OKLAHOMA CITY WILEY POST AIRPORT, OK US", "quality": 100, "contribution": 0.0}, "KOKC": {"distance": 9581.0, "latitude": 35.4, "longitude": -97.6, "useCount": 0, "id": "KOKC", "name": "KOKC", "quality": 100, "contribution": 0.0}, "72062800215": {"distance": 17586.0, "latitude": 35.483, "longitude": -97.817, "useCount": 0, "id": "72062800215", "name": "CLARENCE E PAGE MUNICIPAL AIRPORT, OK US", "quality": 100, "contribution": 0.0}}}