{"queryCost": 1, "latitude": 39.304, "longitude": -76.645, "resolvedAddress": "39.30400,-76.64500", "address": "39.30400,-76.64500", "timezone": "America/New_York", "tzoffset": -5.0, "days": [{"datetime": "2021-02-04", "datetimeEpoch": 1612414800, "tempmax": 46.2, "tempmin": 27.8, "temp": 36.1, "feelslikemax": 43.4, "feelslikemin": 18.0, "feelslike": 30.3, "dew": 17.2, "humidity": 47.04, "precip": 0.0, "precipprob": null, "precipcover": 0.0, "preciptype": null, "snow": 0.0, "snowdepth": 3.46, "windgust": 21.2, "windspeed": 13.4, "winddir": 228.0, "pressure": 1013.8, "cloudcover": 30.4, "visibility": 9.9, "solarradiation": 322.3, "solarenergy": 13.9, "uvindex": 6.0, "sunrise": "07:10:31", "sunriseEpoch": 1612440631, "sunset": "17:31:04", "sunsetEpoch": 1612477864, "moonphase": 0.74, "conditions": "Partially cloudy", "description": "Partly cloudy throughout the day.", "icon": "partly-cloudy-day", "stations": ["99999913752", "C1550", "72406093721", "KBWI", "F4457", "KMTN"], "source": "obs"}], "stations": {"99999913752": {"distance": 37321.0, "latitude": 38.991, "longitude": -76.489, "useCount": 0, "id": "99999913752", "name": "ANNAPOLIS UNITED STATES NAVAL ACADEMY ASOS, MD US", "quality": 100, "contribution": 0.0}, "C1550": {"distance": 8730.0, "latitude": 39.237, "longitude": -76.697, "useCount": 0, "id": "C1550", "name": "CW1550 Halethorpe MD US", "quality": 0, "contribution": 0.0}, "72406093721": {"distance": 14933.0, "latitude": 39.173, "longitude": -76.684, "useCount": 0, "id": "72406093721", "name": "BALTIMORE WASHINGTON INTERNATIONAL AIRPORT, MD US", "quality": 100, "contribution": 0.0}, "KBWI": {"distance": 13971.0, "latitude": 39.18, "longitude": -76.67, "useCount": 0, "id": "KBWI", "name": "KBWI", "quality": 100, "contribution": 0.0}, "F4457": {"distance": 15436.0, "latitude": 39.305, "longitude": -76.466, "useCount": 0, "id": "F4457", "name": "FW4457 Essex MD US", "quality": 0, "contribution": 0.0}, "KMTN": {"distance": 19593.0, "latitude": 39.33, "longitude": -76.42, "useCount": 0, "id": "KMTN", "name": "KMTN", "quality": 88, "contribution": 0.0}}}