{"queryCost": 1, "latitude": 35.791, "longitude": -84.272, "resolvedAddress": "35.79100,-84.27200", "address": "35.79100,-84.27200", "timezone": "America/New_York", "tzoffset": -5.0, "days": [{"datetime": "2021-02-03", "datetimeEpoch": 1612328400, "tempmax": 43.0, "tempmin": 26.8, "temp": 33.5, "feelslikemax": 43.0, "feelslikemin": 24.4, "feelslike": 31.1, "dew": 18.7, "humidity": 55.6, "precip": 0.0, "precipprob": 0.0, "precipcover": 0.0, "preciptype": null, "snow": 0.0, "snowdepth": 0.1, "windgust": 16.1, "windspeed": 7.5, "winddir": 107.6, "pressure": 1020.3, "cloudcover": 38.2, "visibility": 9.9, "solarradiation": 94.4, "solarenergy": 8.2, "uvindex": 5.0, "sunrise": "07:35:30", "sunriseEpoch": 1612355730, "sunset": "18:06:53", "sunsetEpoch": 1612393613, "moonphase": 0.68, "conditions": "Partially cloudy", "description": "Partly cloudy throughout the day.", "icon": "partly-cloudy-day", "stations": ["KTYS", "72326013891", "F7007", "KOQT", "72427053868", "72090799999", "LCLT1", "KMMI"], "source": "obs"}], "stations": {"KTYS": {"distance": 26559.0, "latitude": 35.82, "longitude": -83.98, "useCount": 0, "id": "KTYS", "name": "KTYS", "quality": 100, "contribution": 0.0}, "72326013891": {"distance": 26014.0, "latitude": 35.818, "longitude": -83.986, "useCount": 0, "id": "72326013891", "name": "KNOXVILLE AIRPORT, TN US", "quality": 100, "contribution": 0.0}, "F7007": {"distance": 6551.0, "latitude": 35.845, "longitude": -84.302, "useCount": 0, "id": "F7007", "name": "FW7007 Lenoir City TN US", "quality": 0, "contribution": 0.0}, "KOQT": {"distance": 25772.0, "latitude": 36.02, "longitude": -84.23, "useCount": 0, "id": "KOQT", "name": "KOQT", "quality": 100, "contribution": 0.0}, "72427053868": {"distance": 26056.0, "latitude": 36.023, "longitude": -84.234, "useCount": 0, "id": "72427053868", "name": "OAK RIDGE ASOS, TN US", "quality": 100, "contribution": 0.0}, "72090799999": {"distance": 61313.0, "latitude": 36.335, "longitude": -84.162, "useCount": 0, "id": "72090799999", "name": "CAMPBELL CO, TN US", "quality": 100, "contribution": 0.0}, "LCLT1": {"distance": 8007.0, "latitude": 35.844, "longitude": -84.332, "useCount": 0, "id": "LCLT1", "name": "LENOIR CITY TN US", "quality": 0, "contribution": 0.0}, "KMMI": {"distance": 51207.0, "latitude": 35.4, "longitude": -84.57, "useCount": 0, "id": "KMMI", "name": "KMMI", "quality": 100, "contribution": 0.0}}}