{"queryCost": 1, "latitude": 33.596, "longitude": -112.151, "resolvedAddress": "33.59600,-112.15100", "address": "33.59600,-112.15100", "timezone": "America/Phoenix", "tzoffset": -7.0, "days": [{"datetime": "2021-02-06", "datetimeEpoch": 1612594800, "tempmax": 69.0, "tempmin": 42.7, "temp": 55.7, "feelslikemax": 69.0, "feelslikemin": 42.7, "feelslike": 55.6, "dew": 27.2, "humidity": 36.5, "precip": 0.0, "precipprob": 0.0, "precipcover": 0.0, "preciptype": null, "snow": 0.0, "snowdepth": 0.0, "windgust": null, "windspeed": 8.1, "winddir": 138.0, "pressure": 1014.7, "cloudcover": 0.1, "visibility": 9.9, "solarradiation": 415.3, "solarenergy": 35.8, "uvindex": 7.0, "sunrise": "07:20:47", "sunriseEpoch": 1612621247, "sunset": "18:05:05", "sunsetEpoch": 1612659905, "moonphase": 0.85, "conditions": "Clear", "description": "Clear conditions throughout the day.", "icon": "clear-day", "stations": ["72278403184", "72278903192", "MAGD", "KSDL", "KDVT", "KPHX", "E8980", "72278523111"], "source": "obs"}], "stations": {"72278403184": {"distance": 12102.0, "latitude": 33.688, "longitude": -112.082, "useCount": 0, "id": "72278403184", "name": "PHOENIX DEER VALLEY MUNICIPAL AIRPORT, AZ US", "quality": 100, "contribution": 0.0}, "72278903192": {"distance": 22450.0, "latitude": 33.623, "longitude": -111.911, "useCount": 0, "id": "72278903192", "name": "SCOTTSDALE MUNICIPAL AIRPORT, AZ US", "quality": 100, "contribution": 0.0}, "MAGD": {"distance": 7066.0, "latitude": 33.544, "longitude": -112.194, "useCount": 0, "id": "MAGD", "name": "City of Glendale AZ US AZ ALERT", "quality": 0, "contribution": 0.0}, "KSDL": {"distance": 21474.0, "latitude": 33.61, "longitude": -111.92, "useCount": 0, "id": "KSDL", "name": "KSDL", "quality": 100, "contribution": 0.0}, "KDVT": {"distance": 11991.0, "latitude": 33.68, "longitude": -112.07, "useCount": 0, "id": "KDVT", "name": "KDVT", "quality": 100, "contribution": 0.0}, "KPHX": {"distance": 22120.0, "latitude": 33.43, "longitude": -112.02, "useCount": 0, "id": "KPHX", "name": "KPHX", "quality": 100, "contribution": 0.0}, "E8980": {"distance": 1967.0, "latitude": 33.58, "longitude": -112.142, "useCount": 0, "id": "E8980", "name": "EW8980 Phoenix AZ US", "quality": 0, "contribution": 0.0}, "72278523111": {"distance": 20678.0, "latitude": 33.55, "longitude": -112.367, "useCount": 0, "id": "72278523111", "name": "PHOENIX LUKE AFB, AZ US", "quality": 96, "contribution": 0.0}}}