{"queryCost": 1, "latitude": 33.575, "longitude": -84.417, "resolvedAddress": "33.57500,-84.41700", "address": "33.57500,-84.41700", "timezone": "America/New_York", "tzoffset": -5.0, "days": [{"datetime": "2016-02-11", "datetimeEpoch": 1455166800, "tempmax": 55.1, "tempmin": 27.8, "temp": 40.7, "feelslikemax": 55.1, "feelslikemin": 24.8, "feelslike": 38.6, "dew": 18.4, "humidity": 41.5, "precip": 0.0, "precipprob": 0.0, "precipcover": 0.0, "preciptype": null, "snow": 0.0, "snowdepth": 0.0, "windgust": null, "windspeed": 8.9, "winddir": 175.0, "pressure": 1022.0, "cloudcover": 24.6, "visibility": 9.9, "solarradiation": 198.0, "solarenergy": 17.0, "uvindex": 7.0, "sunrise": "07:26:08", "sunriseEpoch": 1455193568, "sunset": "18:18:06", "sunsetEpoch": 1455232686, "moonphase": 0.06, "conditions": "Partially cloudy", "description": "Partly cloudy throughout the day.", "icon": "partly-cloudy-day", "stations": ["KFTY", "72219753819", "72219013874", "KFFC", "KATL", "72219503888"], "source": "obs"}], "stations": {"KFTY": {"distance": 24735.0, "latitude": 33.78, "longitude": -84.52, "useCount": 0, "id": "KFTY", "name": "KFTY", "quality": 100, "contribution": 0.0}, "72219753819": {"distance": 28141.0, "latitude": 33.355, "longitude": -84.567, "useCount": 0, "id": "72219753819", "name": "PEACHTREE CITY FALCON FIELD, GA US", "quality": 100, "contribution": 0.0}, "72219013874": {"distance": 6551.0, "latitude": 33.63, "longitude": -84.442, "useCount": 0, "id": "72219013874", "name": "ATLANTA HARTSFIELD INTERNATIONAL AIRPORT, GA US", "quality": 100, "contribution": 0.0}, "KFFC": {"distance": 27833.0, "latitude": 33.36, "longitude": -84.57, "useCount": 0, "id": "KFFC", "name": "KFFC", "quality": 100, "contribution": 0.0}, "KATL": {"distance": 8354.0, "latitude": 33.65, "longitude": -84.42, "useCount": 0, "id": "KATL", "name": "KATL", "quality": 100, "contribution": 0.0}, "72219503888": {"distance": 24703.0, "latitude": 33.779, "longitude": -84.521, "useCount": 0, "id": "72219503888", "name": "ATLANTA FULTON CO AIRPORT, GA US", "quality": 100, "contribution": 0.0}}}