{"queryCost": 1, "latitude": 30.446, "longitude": -89.087, "resolvedAddress": "30.44600,-89.08700", "address": "30.44600,-89.08700", "timezone": "America/Chicago", "tzoffset": -6.0, "days": [{"datetime": "2021-02-11", "datetimeEpoch": 1613023200, "tempmax": 68.0, "tempmin": 61.1, "temp": 64.6, "feelslikemax": 68.0, "feelslikemin": 61.1, "feelslike": 64.6, "dew": 63.2, "humidity": 95.1, "precip": 0.89, "precipprob": 100.0, "precipcover": 29.17, "preciptype": ["rain"], "snow": 0.0, "snowdepth": 0.0, "windgust": 20.8, "windspeed": 16.6, "winddir": 143.3, "pressure": 1014.9, "cloudcover": 98.8, "visibility": 4.4, "solarradiation": 29.2, "solarenergy": 2.5, "uvindex": 2.0, "sunrise": "06:39:54", "sunriseEpoch": 1613047194, "sunset": "17:41:41", "sunsetEpoch": 1613086901, "moonphase": 1.0, "conditions": "Rain, Overcast", "description": "Cloudy skies throughout the day with rain.", "icon": "rain", "stations": ["F6464", "KGPT", "KPQL", "KBIX", "74768613820", "MSS12", "CKWM6", "74757093874", "74768853858"], "source": "obs"}], "stations": {"F6464": {"distance": 13145.0, "latitude": 30.365, "longitude": -89.186, "useCount": 0, "id": "F6464", "name": "FW6464 Long Beach MS US", "quality": 0, "contribution": 0.0}, "KGPT": {"distance": 2971.0, "latitude": 30.42, "longitude": -89.08, "useCount": 0, "id": "KGPT", "name": "KGPT", "quality": 100, "contribution": 0.0}, "KPQL": {"distance": 53474.0, "latitude": 30.46, "longitude": -88.53, "useCount": 0, "id": "KPQL", "name": "KPQL", "quality": 100, "contribution": 0.0}, "KBIX": {"distance": 16288.0, "latitude": 30.42, "longitude": -88.92, "useCount": 0, "id": "KBIX", "name": "KBIX", "quality": 100, "contribution": 0.0}, "74768613820": {"distance": 16668.0, "latitude": 30.417, "longitude": -88.917, "useCount": 0, "id": "74768613820", "name": "BILOXI KEESLER AFB, MS US", "quality": 100, "contribution": 0.0}, "MSS12": {"distance": 13764.0, "latitude": 30.441, "longitude": -88.944, "useCount": 0, "id": "MSS12", "name": "Coastal Research and Extension C MS US MS-DELTA", "quality": 0, "contribution": 0.0}, "CKWM6": {"distance": 13313.0, "latitude": 30.524, "longitude": -88.982, "useCount": 0, "id": "CKWM6", "name": "CAMP KELLER MS US", "quality": 0, "contribution": 0.0}, "74757093874": {"distance": 3842.0, "latitude": 30.412, "longitude": -89.081, "useCount": 0, "id": "74757093874", "name": "GULFPORT BILOXI AIRPORT, MS US", "quality": 100, "contribution": 0.0}, "74768853858": {"distance": 53304.0, "latitude": 30.464, "longitude": -88.532, "useCount": 0, "id": "74768853858", "name": "PASCAGOULA LOTT INTERNATIONAL AIRPORT, MS US", "quality": 100, "contribution": 0.0}}}