{"queryCost": 1, "latitude": 47.589, "longitude": -122.302, "resolvedAddress": "47.58900,-122.30200", "address": "47.58900,-122.30200", "timezone": "America/Los_Angeles", "tzoffset": -8.0, "days": [{"datetime": "2021-02-09", "datetimeEpoch": 1612857600, "tempmax": 43.4, "tempmin": 34.1, "temp": 38.4, "feelslikemax": 40.6, "feelslikemin": 32.1, "feelslike": 36.6, "dew": 29.4, "humidity": 70.7, "precip": 0.0, "precipprob": 0.0, "precipcover": 0.0, "preciptype": null, "snow": 0.0, "snowdepth": 0.0, "windgust": null, "windspeed": 9.2, "winddir": 173.8, "pressure": 1021.2, "cloudcover": 76.8, "visibility": 9.9, "solarradiation": 110.3, "solarenergy": 9.5, "uvindex": 5.0, "sunrise": "07:23:45", "sunriseEpoch": 1612884225, "sunset": "17:23:48", "sunsetEpoch": 1612920228, "moonphase": 0.97, "conditions": "Partially cloudy", "description": "Partly cloudy throughout the day.", "icon": "partly-cloudy-day", "stations": ["72793024233", "KSEA", "KBFI", "72793524234", "72793494248", "F0821", "KRNT"], "source": "obs"}], "stations": {"72793024233": {"distance": 16122.0, "latitude": 47.444, "longitude": -122.314, "useCount": 0, "id": "72793024233", "name": "SEATTLE TACOMA AIRPORT, WA US", "quality": 100, "contribution": 0.0}, "KSEA": {"distance": 15474.0, "latitude": 47.45, "longitude": -122.3, "useCount": 0, "id": "KSEA", "name": "KSEA", "quality": 100, "contribution": 0.0}, "KBFI": {"distance": 6570.0, "latitude": 47.53, "longitude": -122.3, "useCount": 0, "id": "KBFI", "name": "KBFI", "quality": 100, "contribution": 0.0}, "72793524234": {"distance": 6535.0, "latitude": 47.53, "longitude": -122.301, "useCount": 0, "id": "72793524234", "name": "SEATTLE BOEING FIELD, WA US", "quality": 100, "contribution": 0.0}, "72793494248": {"distance": 12539.0, "latitude": 47.493, "longitude": -122.214, "useCount": 0, "id": "72793494248", "name": "RENTON MUNICIPAL AIRPORT, WA US", "quality": 100, "contribution": 0.0}, "F0821": {"distance": 2693.0, "latitude": 47.612, "longitude": -122.314, "useCount": 0, "id": "F0821", "name": "FW0821 Seattle WA US", "quality": 0, "contribution": 0.0}, "KRNT": {"distance": 11667.0, "latitude": 47.5, "longitude": -122.22, "useCount": 0, "id": "KRNT", "name": "KRNT", "quality": 100, "contribution": 0.0}}}