{"queryCost": 1, "latitude": 41.53, "longitude": -81.587, "resolvedAddress": "41.53000,-81.58700", "address": "41.53000,-81.58700", "timezone": "America/New_York", "tzoffset": -5.0, "days": [{"datetime": "2021-02-10", "datetimeEpoch": 1612933200, "tempmax": 21.7, "tempmin": 13.8, "temp": 18.9, "feelslikemax": 14.2, "feelslikemin": 3.4, "feelslike": 10.0, "dew": 11.5, "humidity": 72.6, "precip": 0.0, "precipprob": 0.0, "precipcover": 0.0, "preciptype": null, "snow": 0.2, "snowdepth": 3.2, "windgust": null, "windspeed": 11.0, "winddir": 155.5, "pressure": 1028.6, "cloudcover": 70.7, "visibility": 8.0, "solarradiation": 69.9, "solarenergy": 6.1, "uvindex": 3.0, "sunrise": "07:27:37", "sunriseEpoch": 1612960057, "sunset": "17:54:08", "sunsetEpoch": 1612997648, "moonphase": 1.0, "conditions": "Partially cloudy", "description": "Partly cloudy throughout the day.", "icon": "snow", "stations": ["KLNN", "KCLE", "AV662", "72524014820", "KBKL", "72524504853", "72524499999"], "source": "obs"}], "stations": {"KLNN": {"distance": 23994.0, "latitude": 41.68, "longitude": -81.38, "useCount": 0, "id": "KLNN", "name": "KLNN", "quality": 100, "contribution": 0.0}, "KCLE": {"distance": 26591.0, "latitude": 41.42, "longitude": -81.87, "useCount": 0, "id": "KCLE", "name": "KCLE", "quality": 100, "contribution": 0.0}, "AV662": {"distance": 12488.0, "latitude": 41.605, "longitude": -81.475, "useCount": 0, "id": "AV662", "name": "K8GLX Wickliffe OH US", "quality": 0, "contribution": 0.0}, "72524014820": {"distance": 26079.0, "latitude": 41.406, "longitude": -81.852, "useCount": 0, "id": "72524014820", "name": "CLEVELAND HOPKINS INTERNATIONAL AIRPORT, OH US", "quality": 100, "contribution": 0.0}, "KBKL": {"distance": 7830.0, "latitude": 41.52, "longitude": -81.68, "useCount": 0, "id": "KBKL", "name": "KBKL", "quality": 100, "contribution": 0.0}, "72524504853": {"distance": 8170.0, "latitude": 41.518, "longitude": -81.684, "useCount": 0, "id": "72524504853", "name": "CLEVELAND BURKE LAKEFRONT AIRPORT, OH US", "quality": 100, "contribution": 0.0}, "72524499999": {"distance": 23740.0, "latitude": 41.684, "longitude": -81.39, "useCount": 0, "id": "72524499999", "name": "WILLOUGHBY LOST NATION MUNICIPAL, OH US", "quality": 100, "contribution": 0.0}}}