{"queryCost": 1, "latitude": 40.391, "longitude": -75.491, "resolvedAddress": "40.39100,-75.49100", "address": "40.39100,-75.49100", "timezone": "America/New_York", "tzoffset": -5.0, "days": [{"datetime": "2021-02-09", "datetimeEpoch": 1612846800, "tempmax": 32.5, "tempmin": 16.4, "temp": 25.8, "feelslikemax": 32.5, "feelslikemin": 15.4, "feelslike": 24.0, "dew": 19.6, "humidity": 77.0, "precip": 0.0, "precipprob": 0.0, "precipcover": 0.0, "preciptype": null, "snow": 0.0, "snowdepth": 8.7, "windgust": null, "windspeed": 5.0, "winddir": 160.6, "pressure": 1023.9, "cloudcover": 78.6, "visibility": 8.2, "solarradiation": 59.7, "solarenergy": 5.2, "uvindex": 4.0, "sunrise": "07:02:27", "sunriseEpoch": 1612872147, "sunset": "17:30:28", "sunsetEpoch": 1612909828, "moonphase": 0.97, "conditions": "Partially cloudy", "description": "Partly cloudy throughout the day.", "icon": "partly-cloudy-day", "stations": ["72517014737", "F2483", "72510954782", "KABE", "KPTW", "99999900379", "F7071", "KXLL"], "source": "obs"}], "stations": {"72517014737": {"distance": 29042.0, "latitude": 40.65, "longitude": -75.448, "useCount": 0, "id": "72517014737", "name": "ALLENTOWN LEHIGH VALLEY INTERNATIONAL AIRPORT, PA US", "quality": 100, "contribution": 0.0}, "F2483": {"distance": 13187.0, "latitude": 40.291, "longitude": -75.574, "useCount": 0, "id": "F2483", "name": "FW2483 New Hanover PA US", "quality": 0, "contribution": 0.0}, "72510954782": {"distance": 17875.0, "latitude": 40.238, "longitude": -75.555, "useCount": 0, "id": "72510954782", "name": "HERITAGE FIELD AIRPORT, PA US", "quality": 100, "contribution": 0.0}, "KABE": {"distance": 29290.0, "latitude": 40.65, "longitude": -75.43, "useCount": 0, "id": "KABE", "name": "ALLENTOWN-BETHLE, PA", "quality": 100, "contribution": 0.0}, "KPTW": {"distance": 17800.0, "latitude": 40.24, "longitude": -75.56, "useCount": 0, "id": "KPTW", "name": "KPTW", "quality": 100, "contribution": 0.0}, "99999900379": {"distance": 19604.0, "latitude": 40.567, "longitude": -75.483, "useCount": 0, "id": "99999900379", "name": null, "quality": 99, "contribution": 0.0}, "F7071": {"distance": 14038.0, "latitude": 40.276, "longitude": -75.558, "useCount": 0, "id": "F7071", "name": "FW7071 Gilbertsville PA US", "quality": 0, "contribution": 0.0}, "KXLL": {"distance": 19948.0, "latitude": 40.57, "longitude": -75.48, "useCount": 0, "id": "KXLL", "name": "KXLL", "quality": 100, "contribution": 0.0}}}