{"queryCost": 1, "latitude": 39.978, "longitude": -86.121, "resolvedAddress": "39.97800,-86.12100", "address": "39.97800,-86.12100", "timezone": "America/Indiana/Indianapolis", "tzoffset": -5.0, "days": [{"datetime": "2021-01-31", "datetimeEpoch": 1612069200, "tempmax": 34.8, "tempmin": 29.1, "temp": 32.8, "feelslikemax": 27.0, "feelslikemin": 18.1, "feelslike": 23.9, "dew": 31.4, "humidity": 94.34, "precip": 0.37, "precipprob": null, "precipcover": 75.0, "preciptype": null, "snow": 0.95, "snowdepth": 1.69, "windgust": 32.0, "windspeed": 19.4, "winddir": 70.2, "pressure": 1008.0, "cloudcover": 56.4, "visibility": 3.5, "solarradiation": 404.7, "solarenergy": 35.0, "uvindex": 7.0, "sunrise": "07:53:36", "sunriseEpoch": 1612097616, "sunset": "18:02:53", "sunsetEpoch": 1612134173, "moonphase": 0.54, "conditions": "Snow, Partially cloudy", "description": "Partly cloudy throughout the day with a chance of snow throughout the day.", "icon": "snow", "stations": ["KGEZ", "KEYE", "KIND", "F6802", "72438093819", "72438453842", "D3869", "72057500173"], "source": "obs"}], "stations": {"KGEZ": {"distance": 52126.0, "latitude": 39.58, "longitude": -85.8, "useCount": 0, "id": "KGEZ", "name": "KGEZ", "quality": 100, "contribution": 0.0}, "KEYE": {"distance": 21902.0, "latitude": 39.83, "longitude": -86.29, "useCount": 0, "id": "KEYE", "name": "KEYE", "quality": 100, "contribution": 0.0}, "KIND": {"distance": 31417.0, "latitude": 39.72, "longitude": -86.27, "useCount": 0, "id": "KIND", "name": "KIND", "quality": 100, "contribution": 0.0}, "F6802": {"distance": 36934.0, "latitude": 39.785, "longitude": -85.769, "useCount": 0, "id": "F6802", "name": "FW6802 Greenfield IN US", "quality": 0, "contribution": 0.0}, "72438093819": {"distance": 31314.0, "latitude": 39.725, "longitude": -86.282, "useCount": 0, "id": "72438093819", "name": "INDIANAPOLIS INTERNATIONAL AIRPORT, IN US", "quality": 100, "contribution": 0.0}, "72438453842": {"distance": 22648.0, "latitude": 39.825, "longitude": -86.296, "useCount": 0, "id": "72438453842", "name": "INDIANAPOLIS EAGLE CREEK AIRPORT, IN US", "quality": 100, "contribution": 0.0}, "D3869": {"distance": 6036.0, "latitude": 40.007, "longitude": -86.181, "useCount": 0, "id": "D3869", "name": "DW3869 Westfield IN US", "quality": 0, "contribution": 0.0}, "72057500173": {"distance": 12557.0, "latitude": 40.031, "longitude": -86.251, "useCount": 0, "id": "72057500173", "name": "INDIANAPOLIS EXECUTIVE AIRPORT, IN US", "quality": 100, "contribution": 0.0}}}