{"queryCost": 1, "latitude": 31.792, "longitude": -106.286, "resolvedAddress": "31.79200,-106.28600", "address": "31.79200,-106.28600", "timezone": "America/Denver", "tzoffset": -7.0, "days": [{"datetime": "2021-02-14", "datetimeEpoch": 1613286000, "tempmax": 41.5, "tempmin": 15.4, "temp": 24.1, "feelslikemax": 34.1, "feelslikemin": 2.6, "feelslike": 13.9, "dew": 14.6, "humidity": 67.71, "precip": 0.47, "precipprob": null, "precipcover": 33.33, "preciptype": null, "snow": 2.71, "snowdepth": 2.71, "windgust": 24.2, "windspeed": 16.0, "winddir": 110.5, "pressure": 1011.5, "cloudcover": 73.9, "visibility": 7.8, "solarradiation": 100.3, "solarenergy": 6.9, "uvindex": 4.0, "sunrise": "06:47:41", "sunriseEpoch": 1613310461, "sunset": "17:51:21", "sunsetEpoch": 1613350281, "moonphase": 0.04, "conditions": "Snow, Partially cloudy", "description": "Partly cloudy throughout the day with a chance of snow throughout the day.", "icon": "snow", "stations": ["NM6ZK", "KBIF", "72270499999", "72364099999", "72270023044", "E0322", "KELP"], "source": "obs"}], "stations": {"NM6ZK": {"distance": 30067.0, "latitude": 32.041, "longitude": -106.409, "useCount": 0, "id": "NM6ZK", "name": "6ZK Chaparral NM US NMAQ", "quality": 0, "contribution": 0.0}, "KBIF": {"distance": 10988.0, "latitude": 31.85, "longitude": -106.38, "useCount": 0, "id": "KBIF", "name": "KBIF", "quality": 98, "contribution": 0.0}, "72270499999": {"distance": 10956.0, "latitude": 31.85, "longitude": -106.38, "useCount": 0, "id": "72270499999", "name": "BIGGS ARMY AIR FIELD FORT BLISS TEXAS USA, TX US", "quality": 98, "contribution": 0.0}, "72364099999": {"distance": 40646.0, "latitude": 31.88, "longitude": -106.703, "useCount": 0, "id": "72364099999", "name": "DONA ANA CO INTERNATIONAL JETPORT ARPT SANTA TERESA, NM US", "quality": 100, "contribution": 0.0}, "72270023044": {"distance": 8776.0, "latitude": 31.811, "longitude": -106.376, "useCount": 0, "id": "72270023044", "name": "EL PASO INTERNATIONAL AIRPORT, TX US", "quality": 100, "contribution": 0.0}, "E0322": {"distance": 4557.0, "latitude": 31.752, "longitude": -106.293, "useCount": 0, "id": "E0322", "name": "EW0322 El Paso TX US", "quality": 0, "contribution": 0.0}, "KELP": {"distance": 10823.0, "latitude": 31.8, "longitude": -106.4, "useCount": 0, "id": "KELP", "name": "KELP", "quality": 100, "contribution": 0.0}}}