{"queryCost": 1, "latitude": 25.849, "longitude": -80.2, "resolvedAddress": "25.84900,-80.20000", "address": "25.84900,-80.20000", "timezone": "America/New_York", "tzoffset": -5.0, "days": [{"datetime": "2021-02-16", "datetimeEpoch": 1613451600, "tempmax": 82.9, "tempmin": 71.8, "temp": 76.6, "feelslikemax": 87.6, "feelslikemin": 71.8, "feelslike": 76.8, "dew": 72.3, "humidity": 86.8, "precip": 0.82, "precipprob": 100.0, "precipcover": 41.67, "preciptype": ["rain"], "snow": 0.0, "snowdepth": 0.0, "windgust": 25.3, "windspeed": 14.0, "winddir": 191.2, "pressure": 1016.4, "cloudcover": 85.5, "visibility": 9.3, "solarradiation": 71.2, "solarenergy": 6.0, "uvindex": 5.0, "sunrise": "06:55:01", "sunriseEpoch": 1613476501, "sunset": "18:15:02", "sunsetEpoch": 1613517302, "moonphase": 0.1, "conditions": "Rain, Partially cloudy", "description": "Partly cloudy throughout the day with rain.", "icon": "rain", "stations": ["F8795", "KHWO", "72202412882", "72203792809", "F8130", "KOPF", "KMIA", "72202012839"], "source": "obs"}], "stations": {"F8795": {"distance": 5467.0, "latitude": 25.895, "longitude": -80.18, "useCount": 0, "id": "F8795", "name": "FW8795 North Miami FL US", "quality": 0, "contribution": 0.0}, "KHWO": {"distance": 17075.0, "latitude": 26.0, "longitude": -80.23, "useCount": 0, "id": "KHWO", "name": "KHWO", "quality": 94, "contribution": 0.0}, "72202412882": {"distance": 10307.0, "latitude": 25.907, "longitude": -80.28, "useCount": 0, "id": "72202412882", "name": "MIAMI OPA LOCKA AIRPORT, FL US", "quality": 100, "contribution": 0.0}, "72203792809": {"distance": 17187.0, "latitude": 25.999, "longitude": -80.241, "useCount": 0, "id": "72203792809", "name": "HOLLYWOOD NORTH PERRY AIRPORT, FL US", "quality": 93, "contribution": 0.0}, "F8130": {"distance": 2492.0, "latitude": 25.871, "longitude": -80.197, "useCount": 0, "id": "F8130", "name": "FW8130 Miami Shores FL US", "quality": 0, "contribution": 0.0}, "KOPF": {"distance": 9820.0, "latitude": 25.9, "longitude": -80.28, "useCount": 0, "id": "KOPF", "name": "KOPF", "quality": 100, "contribution": 0.0}, "KMIA": {"distance": 11157.0, "latitude": 25.79, "longitude": -80.29, "useCount": 0, "id": "KMIA", "name": "KMIA", "quality": 100, "contribution": 0.0}, "72202012839": {"distance": 13535.0, "latitude": 25.788, "longitude": -80.317, "useCount": 0, "id": "72202012839", "name": "MIAMI INTERNATIONAL AIRPORT, FL US", "quality": 100, "contribution": 0.0}}}