{"queryCost": 1, "latitude": 26.19, "longitude": -80.129, "resolvedAddress": "26.19000,-80.12900", "address": "26.19000,-80.12900", "timezone": "America/New_York", "tzoffset": -4.0, "days": [{"datetime": "2015-07-21", "datetimeEpoch": 1437451200, "tempmax": 91.8, "tempmin": 77.4, "temp": 83.8, "feelslikemax": 99.8, "feelslikemin": 77.4, "feelslike": 89.4, "dew": 74.1, "humidity": 73.9, "precip": 0.13, "precipprob": 100.0, "precipcover": 4.17, "preciptype": ["rain"], "snow": 0.0, "snowdepth": 0.0, "windgust": 19.7, "windspeed": 13.9, "winddir": 220.9, "pressure": 1015.4, "cloudcover": 30.7, "visibility": 9.8, "solarradiation": 299.9, "solarenergy": 25.8, "uvindex": 9.0, "sunrise": "06:40:32", "sunriseEpoch": 1437475232, "sunset": "20:13:04", "sunsetEpoch": 1437523984, "moonphase": 0.13, "conditions": "Rain, Partially cloudy", "description": "Becoming cloudy in the afternoon with afternoon rain.", "icon": "rain", "stations": ["74783012849", "72204992805", "KFLL", "72203912885", "KFXE", "KPMP"], "source": "obs"}], "stations": {"74783012849": {"distance": 12816.0, "latitude": 26.079, "longitude": -80.162, "useCount": 0, "id": "74783012849", "name": "FORT LAUDERDALE INTERNATIONAL AIRPORT, FL US", "quality": 100, "contribution": 0.0}, "72204992805": {"distance": 6992.0, "latitude": 26.25, "longitude": -80.108, "useCount": 0, "id": "72204992805", "name": "POMPANO BEACH AIRPARK, FL US", "quality": 99, "contribution": 0.0}, "KFLL": {"distance": 13522.0, "latitude": 26.07, "longitude": -80.15, "useCount": 0, "id": "KFLL", "name": "KFLL", "quality": 100, "contribution": 0.0}, "72203912885": {"distance": 4245.0, "latitude": 26.197, "longitude": -80.171, "useCount": 0, "id": "72203912885", "name": "FORT LAUDERDALE EXECUTIVE AIRPORT, FL US", "quality": 99, "contribution": 0.0}, "KFXE": {"distance": 4244.0, "latitude": 26.2, "longitude": -80.17, "useCount": 0, "id": "KFXE", "name": "KFXE", "quality": 100, "contribution": 0.0}, "KPMP": {"distance": 6943.0, "latitude": 26.25, "longitude": -80.11, "useCount": 0, "id": "KPMP", "name": "KPMP", "quality": 100, "contribution": 0.0}}}