{"queryCost": 1, "latitude": 35.645, "longitude": -109.096, "resolvedAddress": "35.64500,-109.09600", "address": "35.64500,-109.09600", "timezone": "America/Denver", "tzoffset": -7.0, "days": [{"datetime": "2021-02-24", "datetimeEpoch": 1614150000, "tempmax": 55.1, "tempmin": 20.1, "temp": 38.3, "feelslikemax": 55.1, "feelslikemin": 15.2, "feelslike": 35.5, "dew": 15.2, "humidity": 46.2, "precip": 0.0, "precipprob": 0.0, "precipcover": 0.0, "preciptype": null, "snow": 0.0, "snowdepth": 20.9, "windgust": 31.1, "windspeed": 18.3, "winddir": 172.0, "pressure": 1014.3, "cloudcover": 11.4, "visibility": 9.9, "solarradiation": 232.9, "solarenergy": 20.0, "uvindex": 8.0, "sunrise": "06:52:09", "sunriseEpoch": 1614174729, "sunset": "18:07:24", "sunsetEpoch": 1614215244, "moonphase": 0.45, "conditions": "Clear", "description": "Clear conditions throughout the day.", "icon": "clear-day", "stations": ["QPHA3", "72362723081", "KGUP", "72276403029", "KRQE", "F5914"], "source": "obs"}], "stations": {"QPHA3": {"distance": 14430.0, "latitude": 35.761, "longitude": -109.167, "useCount": 0, "id": "QPHA3", "name": "PINEY HILL AZ US", "quality": 0, "contribution": 0.0}, "72362723081": {"distance": 30967.0, "latitude": 35.514, "longitude": -108.794, "useCount": 0, "id": "72362723081", "name": "GALLUP MUNICIPAL AIRPORT, NM US", "quality": 100, "contribution": 0.0}, "KGUP": {"distance": 31813.0, "latitude": 35.52, "longitude": -108.78, "useCount": 0, "id": "KGUP", "name": "KGUP", "quality": 100, "contribution": 0.0}, "72276403029": {"distance": 3458.0, "latitude": 35.658, "longitude": -109.061, "useCount": 0, "id": "72276403029", "name": "WINDOW ROCK AIRPORT, AZ US", "quality": 98, "contribution": 0.0}, "KRQE": {"distance": 2417.0, "latitude": 35.65, "longitude": -109.07, "useCount": 0, "id": "KRQE", "name": "KRQE", "quality": 99, "contribution": 0.0}, "F5914": {"distance": 35317.0, "latitude": 35.514, "longitude": -108.741, "useCount": 0, "id": "F5914", "name": "FW5914 Gallup NM US", "quality": 0, "contribution": 0.0}}}