{"queryCost": 1, "latitude": 33.856, "longitude": -87.302, "resolvedAddress": "33.85600,-87.30200", "address": "33.85600,-87.30200", "timezone": "America/Chicago", "tzoffset": -6.0, "days": [{"datetime": "2021-02-26", "datetimeEpoch": 1614319200, "tempmax": 60.7, "tempmin": 48.1, "temp": 53.7, "feelslikemax": 60.7, "feelslikemin": 45.0, "feelslike": 53.3, "dew": 53.2, "humidity": 98.2, "precip": 1.83, "precipprob": 100.0, "precipcover": 70.83, "preciptype": ["rain"], "snow": 0.0, "snowdepth": 0.0, "windgust": 17.2, "windspeed": 8.0, "winddir": 71.7, "pressure": 967.9, "cloudcover": 96.2, "visibility": 3.7, "solarradiation": 29.8, "solarenergy": 2.4, "uvindex": 1.0, "sunrise": "06:21:01", "sunriseEpoch": 1614342061, "sunset": "17:43:30", "sunsetEpoch": 1614383010, "moonphase": 0.5, "conditions": "Rain, Overcast", "description": "Cloudy skies throughout the day with a chance of rain throughout the day.", "icon": "rain", "stations": ["KJFX", "99999963867", "C2640", "72050500156", "72041300138", "K1M4", "KBHM"], "source": "obs"}], "stations": {"KJFX": {"distance": 4954.0, "latitude": 33.9, "longitude": -87.31, "useCount": 0, "id": "KJFX", "name": "KJFX", "quality": 49, "contribution": 0.0}, "99999963867": {"distance": 60035.0, "latitude": 34.195, "longitude": -86.796, "useCount": 0, "id": "99999963867", "name": "CULLMAN 3 ENE, AL US", "quality": 100, "contribution": 0.0}, "C2640": {"distance": 5523.0, "latitude": 33.861, "longitude": -87.242, "useCount": 0, "id": "C2640", "name": "CW2640 Jasper AL US", "quality": 0, "contribution": 0.0}, "72050500156": {"distance": 5239.0, "latitude": 33.902, "longitude": -87.314, "useCount": 0, "id": "72050500156", "name": "WALKER CO AIRPORT BEVILL FIELD, AL US", "quality": 50, "contribution": 0.0}, "72041300138": {"distance": 53372.0, "latitude": 34.267, "longitude": -87.6, "useCount": 0, "id": "72041300138", "name": "POSEY FIELD AIRPORT, AL US", "quality": 100, "contribution": 0.0}, "K1M4": {"distance": 54616.0, "latitude": 34.28, "longitude": -87.6, "useCount": 0, "id": "K1M4", "name": "HALEYVILLE/POSEY FI, AL", "quality": 100, "contribution": 0.0}, "KBHM": {"distance": 60219.0, "latitude": 33.57, "longitude": -86.75, "useCount": 0, "id": "KBHM", "name": "KBHM", "quality": 100, "contribution": 0.0}}}