{"queryCost": 1, "latitude": 33.729, "longitude": -87.09, "resolvedAddress": "33.72900,-87.09000", "address": "33.72900,-87.09000", "timezone": "America/Chicago", "tzoffset": -6.0, "days": [{"datetime": "2021-02-27", "datetimeEpoch": 1614405600, "tempmax": 75.6, "tempmin": 65.7, "temp": 69.5, "feelslikemax": 75.6, "feelslikemin": 65.7, "feelslike": 69.5, "dew": 61.8, "humidity": 77.2, "precip": 0.0, "precipprob": 0.0, "precipcover": 0.0, "preciptype": null, "snow": 0.0, "snowdepth": 0.0, "windgust": 26.4, "windspeed": 14.6, "winddir": 184.2, "pressure": 1015.9, "cloudcover": 55.6, "visibility": 9.8, "solarradiation": 105.2, "solarenergy": 9.1, "uvindex": 5.0, "sunrise": "06:18:52", "sunriseEpoch": 1614428332, "sunset": "17:43:36", "sunsetEpoch": 1614469416, "moonphase": 0.5, "conditions": "Partially cloudy", "description": "Partly cloudy throughout the day.", "icon": "partly-cloudy-day", "stations": ["72228013876", "99999963867", "72050799999", "C2640", "72203163839", "KBHM"], "source": "obs"}], "stations": {"72228013876": {"distance": 36783.0, "latitude": 33.566, "longitude": -86.745, "useCount": 0, "id": "72228013876", "name": "BIRMINGHAM AIRPORT, AL US", "quality": 100, "contribution": 0.0}, "99999963867": {"distance": 58574.0, "latitude": 34.195, "longitude": -86.796, "useCount": 0, "id": "99999963867", "name": "CULLMAN 3 ENE, AL US", "quality": 100, "contribution": 0.0}, "72050799999": {"distance": 48759.0, "latitude": 33.313, "longitude": -86.926, "useCount": 0, "id": "72050799999", "name": "BESSEMER AIPORT, AL US", "quality": 99, "contribution": 0.0}, "C2640": {"distance": 20330.0, "latitude": 33.861, "longitude": -87.242, "useCount": 0, "id": "C2640", "name": "CW2640 Jasper AL US", "quality": 0, "contribution": 0.0}, "72203163839": {"distance": 63792.0, "latitude": 34.269, "longitude": -86.858, "useCount": 0, "id": "72203163839", "name": "CULLMAN FOLSOM FIELD AIRPORT, AL US", "quality": 100, "contribution": 0.0}, "KBHM": {"distance": 36138.0, "latitude": 33.57, "longitude": -86.75, "useCount": 0, "id": "KBHM", "name": "KBHM", "quality": 100, "contribution": 0.0}}}