{"queryCost": 1, "latitude": 34.843, "longitude": -85.14, "resolvedAddress": "34.84300,-85.14000", "address": "34.84300,-85.14000", "timezone": "America/New_York", "tzoffset": -5.0, "days": [{"datetime": "2021-02-28", "datetimeEpoch": 1614488400, "tempmax": 76.5, "tempmin": 60.4, "temp": 68.4, "feelslikemax": 76.5, "feelslikemin": 60.4, "feelslike": 68.4, "dew": 59.6, "humidity": 74.9, "precip": 0.0, "precipprob": 0.0, "precipcover": 0.0, "preciptype": null, "snow": 0.0, "snowdepth": 0.0, "windgust": 26.3, "windspeed": 16.3, "winddir": 184.0, "pressure": 1016.3, "cloudcover": 85.4, "visibility": 9.4, "solarradiation": 64.4, "solarenergy": 5.6, "uvindex": 3.0, "sunrise": "07:10:42", "sunriseEpoch": 1614514242, "sunset": "18:35:49", "sunsetEpoch": 1614555349, "moonphase": 0.51, "conditions": "Partially cloudy", "description": "Partly cloudy throughout the day.", "icon": "partly-cloudy-day", "stations": ["A0001363847", "KCHA", "KRMG", "72320093801", "72324013882", "KRZR", "NAOG1"], "source": "obs"}], "stations": {"A0001363847": {"distance": 67248.0, "latitude": 34.474, "longitude": -85.721, "useCount": 0, "id": "A0001363847", "name": "FORT PAYNE ISBELL FIELD, AL US", "quality": 100, "contribution": 0.0}, "KCHA": {"distance": 21525.0, "latitude": 35.03, "longitude": -85.2, "useCount": 0, "id": "KCHA", "name": "KCHA", "quality": 100, "contribution": 0.0}, "KRMG": {"distance": 54949.0, "latitude": 34.35, "longitude": -85.17, "useCount": 0, "id": "KRMG", "name": "KRMG", "quality": 100, "contribution": 0.0}, "72320093801": {"distance": 55159.0, "latitude": 34.348, "longitude": -85.161, "useCount": 0, "id": "72320093801", "name": "ROME R B RUSSELL AIRPORT, GA US", "quality": 100, "contribution": 0.0}, "72324013882": {"distance": 21922.0, "latitude": 35.034, "longitude": -85.2, "useCount": 0, "id": "72324013882", "name": "CHATTANOOGA AIRPORT, TN US", "quality": 100, "contribution": 0.0}, "KRZR": {"distance": 52170.0, "latitude": 35.22, "longitude": -84.8, "useCount": 0, "id": "KRZR", "name": "KRZR", "quality": 95, "contribution": 0.0}, "NAOG1": {"distance": 16727.0, "latitude": 34.695, "longitude": -85.174, "useCount": 0, "id": "NAOG1", "name": "ARMUCHEE GA US", "quality": 0, "contribution": 0.0}}}