{"queryCost": 1, "latitude": 29.76, "longitude": -95.37, "resolvedAddress": "29.76000,-95.37000", "address": "29.76000,-95.37000", "timezone": "America/Chicago", "tzoffset": -6.0, "days": [{"datetime": "2021-03-03", "datetimeEpoch": 1614751200, "tempmax": 66.5, "tempmin": 44.5, "temp": 55.1, "feelslikemax": 66.5, "feelslikemin": 39.0, "feelslike": 53.9, "dew": 37.4, "humidity": 55.7, "precip": 0.0, "precipprob": 0.0, "precipcover": 0.0, "preciptype": null, "snow": 0.0, "snowdepth": 0.0, "windgust": 11.4, "windspeed": 12.8, "winddir": 106.8, "pressure": 1021.3, "cloudcover": 19.7, "visibility": 9.9, "solarradiation": 173.5, "solarenergy": 14.9, "uvindex": 8.0, "sunrise": "06:44:39", "sunriseEpoch": 1614775479, "sunset": "18:22:23", "sunsetEpoch": 1614817343, "moonphase": 0.61, "conditions": "Clear", "description": "Clear conditions throughout the day.", "icon": "clear-day", "stations": ["KHOU", "72059400188", "KIAH", "72244012918", "KMCJ", "72243012960", "D0326"], "source": "obs"}], "stations": {"KHOU": {"distance": 16887.0, "latitude": 29.63, "longitude": -95.28, "useCount": 0, "id": "KHOU", "name": "KHOU", "quality": 100, "contribution": 0.0}, "72059400188": {"distance": 4949.0, "latitude": 29.717, "longitude": -95.383, "useCount": 0, "id": "72059400188", "name": "HOUSTON DUNN HELISTOP, TX US", "quality": 100, "contribution": 0.0}, "KIAH": {"distance": 23457.0, "latitude": 29.97, "longitude": -95.35, "useCount": 0, "id": "KIAH", "name": "KIAH", "quality": 100, "contribution": 0.0}, "72244012918": {"distance": 16022.0, "latitude": 29.638, "longitude": -95.282, "useCount": 0, "id": "72244012918", "name": "HOUSTON WILLIAM P HOBBY AIRPORT, TX US", "quality": 100, "contribution": 0.0}, "KMCJ": {"distance": 6276.0, "latitude": 29.71, "longitude": -95.4, "useCount": 0, "id": "KMCJ", "name": "KMCJ", "quality": 82, "contribution": 0.0}, "72243012960": {"distance": 24509.0, "latitude": 29.98, "longitude": -95.36, "useCount": 0, "id": "72243012960", "name": "HOUSTON INTERCONTINENTAL AIRPORT, TX US", "quality": 100, "contribution": 0.0}, "D0326": {"distance": 7473.0, "latitude": 29.746, "longitude": -95.445, "useCount": 0, "id": "D0326", "name": "DW0326 Houston TX US", "quality": 0, "contribution": 0.0}}}