{"queryCost": 1, "latitude": 35.522, "longitude": -97.525, "resolvedAddress": "35.52200,-97.52500", "address": "35.52200,-97.52500", "timezone": "America/Chicago", "tzoffset": -6.0, "days": [{"datetime": "2020-11-19", "datetimeEpoch": 1605765600, "tempmax": 72.8, "tempmin": 58.8, "temp": 65.2, "feelslikemax": 72.8, "feelslikemin": 58.8, "feelslike": 65.2, "dew": 49.7, "humidity": 57.5, "precip": 0.0, "precipprob": null, "precipcover": 0.0, "preciptype": null, "snow": 0.0, "snowdepth": 0.0, "windgust": 41.2, "windspeed": 28.2, "winddir": 187.2, "pressure": 1017.3, "cloudcover": 8.4, "visibility": 9.9, "solarradiation": 309.4, "solarenergy": 13.4, "uvindex": 6.0, "sunrise": "07:10:12", "sunriseEpoch": 1605791412, "sunset": "17:20:47", "sunsetEpoch": 1605828047, "moonphase": 0.12, "conditions": "Clear", "description": "Clear conditions throughout the day.", "icon": "clear-day", "stations": ["72354013919", "72353013967", "KTIK", "AV216", "KPWA", "72354403954", "KOKC"], "source": "obs"}], "stations": {"72354013919": {"distance": 17391.0, "latitude": 35.417, "longitude": -97.383, "useCount": 0, "id": "72354013919", "name": "OKLAHOMA CITY TINKER AFB, OK US", "quality": 99, "contribution": 0.0}, "72353013967": {"distance": 16326.0, "latitude": 35.389, "longitude": -97.601, "useCount": 0, "id": "72353013967", "name": "OKLAHOMA CITY WILL ROGERS WORLD AIRPORT, OK US", "quality": 100, "contribution": 0.0}, "KTIK": {"distance": 17371.0, "latitude": 35.42, "longitude": -97.38, "useCount": 0, "id": "KTIK", "name": "KTIK", "quality": 100, "contribution": 0.0}, "AV216": {"distance": 9985.0, "latitude": 35.612, "longitude": -97.525, "useCount": 0, "id": "AV216", "name": "KP4DJT Edmond OK US", "quality": 0, "contribution": 0.0}, "KPWA": {"distance": 11360.0, "latitude": 35.53, "longitude": -97.65, "useCount": 0, "id": "KPWA", "name": "KPWA", "quality": 100, "contribution": 0.0}, "72354403954": {"distance": 11127.0, "latitude": 35.534, "longitude": -97.647, "useCount": 0, "id": "72354403954", "name": "OKLAHOMA CITY WILEY POST AIRPORT, OK US", "quality": 100, "contribution": 0.0}, "KOKC": {"distance": 15188.0, "latitude": 35.4, "longitude": -97.6, "useCount": 0, "id": "KOKC", "name": "KOKC", "quality": 100, "contribution": 0.0}}}