{"queryCost": 1, "latitude": 34.108, "longitude": -117.29, "resolvedAddress": "34.10800,-117.29000", "address": "34.10800,-117.29000", "timezone": "America/Los_Angeles", "tzoffset": -8.0, "days": [{"datetime": "2020-11-27", "datetimeEpoch": 1606464000, "tempmax": 68.5, "tempmin": 49.5, "temp": 57.3, "feelslikemax": 68.5, "feelslikemin": 45.2, "feelslike": 56.8, "dew": 4.3, "humidity": 12.2, "precip": 0.0, "precipprob": 0.0, "precipcover": 0.0, "preciptype": null, "snow": 0.0, "snowdepth": 0.0, "windgust": 39.2, "windspeed": 15.5, "winddir": 125.7, "pressure": 1020.4, "cloudcover": 0.0, "visibility": 9.9, "solarradiation": 137.0, "solarenergy": 11.8, "uvindex": 6.0, "sunrise": "06:33:45", "sunriseEpoch": 1606487625, "sunset": "16:40:08", "sunsetEpoch": 1606524008, "moonphase": 0.46, "conditions": "Clear", "description": "Clear conditions throughout the day.", "icon": "clear-day", "stations": ["KRAL", "72286023119", "KRIV", "KONT", "F4845", "74704003102", "72286903171", "SE154"], "source": "obs"}], "stations": {"KRAL": {"distance": 22962.0, "latitude": 33.95, "longitude": -117.45, "useCount": 0, "id": "KRAL", "name": "KRAL", "quality": 100, "contribution": 0.0}, "72286023119": {"distance": 23447.0, "latitude": 33.9, "longitude": -117.25, "useCount": 0, "id": "72286023119", "name": "MARCH AFB, CA US", "quality": 97, "contribution": 0.0}, "KRIV": {"distance": 25448.0, "latitude": 33.88, "longitude": -117.27, "useCount": 0, "id": "KRIV", "name": "KRIV", "quality": 100, "contribution": 0.0}, "KONT": {"distance": 29570.0, "latitude": 34.04, "longitude": -117.6, "useCount": 0, "id": "KONT", "name": "KONT", "quality": 100, "contribution": 0.0}, "F4845": {"distance": 6481.0, "latitude": 34.145, "longitude": -117.236, "useCount": 0, "id": "F4845", "name": "FW4845 San Bernardino CA US", "quality": 0, "contribution": 0.0}, "74704003102": {"distance": 29160.0, "latitude": 34.056, "longitude": -117.6, "useCount": 0, "id": "74704003102", "name": "ONTARIO INTERNATIONAL AIRPORT, CA US", "quality": 100, "contribution": 0.0}, "72286903171": {"distance": 22157.0, "latitude": 33.952, "longitude": -117.439, "useCount": 0, "id": "72286903171", "name": "RIVERSIDE MUNICIPAL AIRPORT, CA US", "quality": 100, "contribution": 0.0}, "SE154": {"distance": 7119.0, "latitude": 34.168, "longitude": -117.262, "useCount": 0, "id": "SE154", "name": "SCE Harrison Canyon CA US SC-EDISON", "quality": 0, "contribution": 0.0}}}