{"queryCost": 1, "latitude": 31.855, "longitude": -102.317, "resolvedAddress": "31.85500,-102.31700", "address": "31.85500,-102.31700", "timezone": "America/Chicago", "tzoffset": -6.0, "days": [{"datetime": "2021-03-05", "datetimeEpoch": 1614924000, "tempmax": 62.9, "tempmin": 44.1, "temp": 53.8, "feelslikemax": 62.9, "feelslikemin": 40.5, "feelslike": 52.2, "dew": 29.4, "humidity": 40.1, "precip": 0.0, "precipprob": 0.0, "precipcover": 0.0, "preciptype": null, "snow": 0.0, "snowdepth": 0.0, "windgust": 38.1, "windspeed": 28.3, "winddir": 184.3, "pressure": 1018.5, "cloudcover": 36.2, "visibility": 8.1, "solarradiation": 214.0, "solarenergy": 18.5, "uvindex": 7.0, "sunrise": "07:11:15", "sunriseEpoch": 1614949875, "sunset": "18:50:29", "sunsetEpoch": 1614991829, "moonphase": 0.72, "conditions": "Partially cloudy", "description": "Partly cloudy throughout the day.", "icon": "partly-cloudy-day", "stations": ["MNDT2", "KMAF", "72265023023", "KODO", "72232403071", "72264803031"], "source": "obs"}], "stations": {"MNDT2": {"distance": 15500.0, "latitude": 31.943, "longitude": -102.19, "useCount": 0, "id": "MNDT2", "name": "MIDLAND TX US", "quality": 0, "contribution": 0.0}, "KMAF": {"distance": 16717.0, "latitude": 31.95, "longitude": -102.18, "useCount": 0, "id": "KMAF", "name": "KMAF", "quality": 100, "contribution": 0.0}, "72265023023": {"distance": 14498.0, "latitude": 31.948, "longitude": -102.209, "useCount": 0, "id": "72265023023", "name": "MIDLAND INTERNATIONAL AIRPORT, TX US", "quality": 100, "contribution": 0.0}, "KODO": {"distance": 9998.0, "latitude": 31.92, "longitude": -102.39, "useCount": 0, "id": "KODO", "name": "KODO", "quality": 100, "contribution": 0.0}, "72232403071": {"distance": 28707.0, "latitude": 32.036, "longitude": -102.101, "useCount": 0, "id": "72232403071", "name": "MIDLAND AIRPARK, TX US", "quality": 100, "contribution": 0.0}, "72264803031": {"distance": 9854.0, "latitude": 31.921, "longitude": -102.387, "useCount": 0, "id": "72264803031", "name": "ODESSA SCHLEMEYER FIELD, TX US", "quality": 100, "contribution": 0.0}}}