{"queryCost": 1, "latitude": 29.63, "longitude": -82.268, "resolvedAddress": "29.63000,-82.26800", "address": "29.63000,-82.26800", "timezone": "America/New_York", "tzoffset": -5.0, "days": [{"datetime": "2021-03-05", "datetimeEpoch": 1614920400, "tempmax": 74.0, "tempmin": 44.0, "temp": 58.7, "feelslikemax": 74.0, "feelslikemin": 40.8, "feelslike": 58.3, "dew": 41.8, "humidity": 59.6, "precip": 0.0, "precipprob": 0.0, "precipcover": 0.0, "preciptype": null, "snow": 0.0, "snowdepth": 0.0, "windgust": 16.1, "windspeed": 11.2, "winddir": 133.8, "pressure": 1016.9, "cloudcover": 2.8, "visibility": 9.7, "solarradiation": 236.2, "solarenergy": 20.3, "uvindex": 8.0, "sunrise": "06:49:59", "sunriseEpoch": 1614944999, "sunset": "18:31:21", "sunsetEpoch": 1614987081, "moonphase": 0.72, "conditions": "Clear", "description": "Clear conditions throughout the day.", "icon": "clear-day", "stations": ["74904800415", "0307W", "KOCF", "74756012816", "KGNV", "72205512861", "KLCQ"], "source": "obs"}], "stations": {"74904800415": {"distance": 32023.0, "latitude": 29.845, "longitude": -82.047, "useCount": 0, "id": "74904800415", "name": "KEYSTONE AIRPARK, FL US", "quality": 50, "contribution": 0.0}, "0307W": {"distance": 3808.0, "latitude": 29.659, "longitude": -82.288, "useCount": 0, "id": "0307W", "name": "Alachua eSchool FL US WEATHERSTEM", "quality": 0, "contribution": 0.0}, "KOCF": {"distance": 51418.0, "latitude": 29.17, "longitude": -82.22, "useCount": 0, "id": "KOCF", "name": "OCALA, FL", "quality": 100, "contribution": 0.0}, "74756012816": {"distance": 6929.0, "latitude": 29.692, "longitude": -82.275, "useCount": 0, "id": "74756012816", "name": "GAINESVILLE REGIONAL AIRPORT, FL US", "quality": 100, "contribution": 0.0}, "KGNV": {"distance": 7878.0, "latitude": 29.7, "longitude": -82.28, "useCount": 0, "id": "KGNV", "name": "KGNV", "quality": 100, "contribution": 0.0}, "72205512861": {"distance": 51684.0, "latitude": 29.167, "longitude": -82.233, "useCount": 0, "id": "72205512861", "name": "OCALA JIM TAYLOR FIELD, FL US", "quality": 100, "contribution": 0.0}, "KLCQ": {"distance": 68228.0, "latitude": 30.18, "longitude": -82.58, "useCount": 0, "id": "KLCQ", "name": "KLCQ", "quality": 98, "contribution": 0.0}}}