{"queryCost": 1, "latitude": 41.552, "longitude": -87.509, "resolvedAddress": "41.55200,-87.50900", "address": "41.55200,-87.50900", "timezone": "America/Chicago", "tzoffset": -6.0, "days": [{"datetime": "2021-01-10", "datetimeEpoch": 1610258400, "tempmax": 29.3, "tempmin": 20.3, "temp": 25.7, "feelslikemax": 25.0, "feelslikemin": 16.3, "feelslike": 21.0, "dew": 22.4, "humidity": 87.5, "precip": 0.0, "precipprob": 0.0, "precipcover": 0.0, "preciptype": null, "snow": 0.0, "snowdepth": 0.0, "windgust": null, "windspeed": 8.1, "winddir": 264.4, "pressure": 1027.9, "cloudcover": 86.6, "visibility": 7.3, "solarradiation": 19.2, "solarenergy": 1.8, "uvindex": 1.0, "sunrise": "07:16:01", "sunriseEpoch": 1610284561, "sunset": "16:39:47", "sunsetEpoch": 1610318387, "moonphase": 0.96, "conditions": "Partially cloudy", "description": "Partly cloudy throughout the day.", "icon": "partly-cloudy-day", "stations": ["72534014819", "72212604879", "KMDW", "72532704846", "TT351", "KIGQ", "E9197"], "source": "obs"}], "stations": {"72534014819": {"distance": 32986.0, "latitude": 41.786, "longitude": -87.752, "useCount": 0, "id": "72534014819", "name": "CHICAGO MIDWAY AIRPORT, IL US", "quality": 100, "contribution": 0.0}, "72212604879": {"distance": 2348.0, "latitude": 41.54, "longitude": -87.532, "useCount": 0, "id": "72212604879", "name": "CHICAGO LANSING MUNICIPAL AIRPORT, IL US", "quality": 100, "contribution": 0.0}, "KMDW": {"distance": 32339.0, "latitude": 41.78, "longitude": -87.75, "useCount": 0, "id": "KMDW", "name": "KMDW", "quality": 100, "contribution": 0.0}, "72532704846": {"distance": 43390.0, "latitude": 41.453, "longitude": -87.006, "useCount": 0, "id": "72532704846", "name": "VALPARAISO PORTER CO MUNICIPAL AIRPORT, IN US", "quality": 98, "contribution": 0.0}, "TT351": {"distance": 25082.0, "latitude": 41.616, "longitude": -87.22, "useCount": 0, "id": "TT351", "name": "INDU PORTABLE IN US", "quality": 0, "contribution": 0.0}, "KIGQ": {"distance": 2201.0, "latitude": 41.54, "longitude": -87.53, "useCount": 0, "id": "KIGQ", "name": "KIGQ", "quality": 100, "contribution": 0.0}, "E9197": {"distance": 1787.0, "latitude": 41.568, "longitude": -87.511, "useCount": 0, "id": "E9197", "name": "EW9197 Munster IN US", "quality": 0, "contribution": 0.0}}}