{"queryCost": 1, "latitude": 28.589, "longitude": -81.463, "resolvedAddress": "28.58900,-81.46300", "address": "28.58900,-81.46300", "timezone": "America/New_York", "tzoffset": -5.0, "days": [{"datetime": "2021-02-05", "datetimeEpoch": 1612501200, "tempmax": 79.2, "tempmin": 47.9, "temp": 64.1, "feelslikemax": 79.2, "feelslikemin": 45.4, "feelslike": 63.7, "dew": 47.7, "humidity": 56.65, "precip": 0.0, "precipprob": null, "precipcover": 0.0, "preciptype": null, "snow": 0.0, "snowdepth": 0.0, "windgust": 25.3, "windspeed": 15.0, "winddir": 202.7, "pressure": 1015.2, "cloudcover": 30.9, "visibility": 9.9, "solarradiation": 228.9, "solarenergy": 12.4, "uvindex": 6.0, "sunrise": "07:11:20", "sunriseEpoch": 1612527080, "sunset": "18:08:50", "sunsetEpoch": 1612566530, "moonphase": 0.8, "conditions": "Partially cloudy", "description": "Partly cloudy throughout the day.", "icon": "partly-cloudy-day", "stations": ["POPF1", "72205312841", "72205712854", "KSFB", "F5421", "72205012815", "KORL", "KMCO"], "source": "obs"}], "stations": {"POPF1": {"distance": 10348.0, "latitude": 28.642, "longitude": -81.55, "useCount": 0, "id": "POPF1", "name": "Apopka FAWN", "quality": 0, "contribution": 0.0}, "72205312841": {"distance": 13600.0, "latitude": 28.545, "longitude": -81.333, "useCount": 0, "id": "72205312841", "name": "ORLANDO EXECUTIVE AIRPORT, FL US", "quality": 100, "contribution": 0.0}, "72205712854": {"distance": 30162.0, "latitude": 28.78, "longitude": -81.244, "useCount": 0, "id": "72205712854", "name": "ORLANDO SANFORD AIRPORT, FL US", "quality": 100, "contribution": 0.0}, "KSFB": {"distance": 31142.0, "latitude": 28.78, "longitude": -81.23, "useCount": 0, "id": "KSFB", "name": "KSFB", "quality": 100, "contribution": 0.0}, "F5421": {"distance": 5694.0, "latitude": 28.555, "longitude": -81.506, "useCount": 0, "id": "F5421", "name": "KB4LHP-13 Ocoee FL US", "quality": 0, "contribution": 0.0}, "72205012815": {"distance": 21916.0, "latitude": 28.434, "longitude": -81.325, "useCount": 0, "id": "72205012815", "name": "ORLANDO INTERNATIONAL AIRPORT, FL US", "quality": 100, "contribution": 0.0}, "KORL": {"distance": 13708.0, "latitude": 28.55, "longitude": -81.33, "useCount": 0, "id": "KORL", "name": "KORL", "quality": 100, "contribution": 0.0}, "KMCO": {"distance": 23179.0, "latitude": 28.43, "longitude": -81.31, "useCount": 0, "id": "KMCO", "name": "KMCO", "quality": 100, "contribution": 0.0}}}