{"queryCost": 1, "latitude": 34.981, "longitude": -91.988, "resolvedAddress": "34.98100,-91.98800", "address": "34.98100,-91.98800", "timezone": "America/Chicago", "tzoffset": -6.0, "days": [{"datetime": "2021-03-13", "datetimeEpoch": 1615615200, "tempmax": 67.0, "tempmin": 51.7, "temp": 56.7, "feelslikemax": 67.0, "feelslikemin": 51.7, "feelslike": 56.7, "dew": 53.9, "humidity": 91.1, "precip": 0.02, "precipprob": 100.0, "precipcover": 8.33, "preciptype": ["rain"], "snow": 0.0, "snowdepth": 0.0, "windgust": null, "windspeed": 12.6, "winddir": 45.7, "pressure": 1023.7, "cloudcover": 95.4, "visibility": 6.5, "solarradiation": 92.7, "solarenergy": 8.1, "uvindex": 4.0, "sunrise": "06:20:50", "sunriseEpoch": 1615638050, "sunset": "18:14:17", "sunsetEpoch": 1615680857, "moonphase": 0.0, "conditions": "Rain, Overcast", "description": "Cloudy skies throughout the day with morning rain.", "icon": "rain", "stations": ["72340503930", "72340313963", "KLRF", "D8400", "KSRC", "72218853985", "KLIT"], "source": "obs"}], "stations": {"72340503930": {"distance": 16423.0, "latitude": 34.917, "longitude": -92.15, "useCount": 0, "id": "72340503930", "name": "LITTLE ROCK AFB, AR US", "quality": 99, "contribution": 0.0}, "72340313963": {"distance": 36372.0, "latitude": 34.727, "longitude": -92.239, "useCount": 0, "id": "72340313963", "name": "LITTLE ROCK AIRPORT ADAMS FIELD, AR US", "quality": 100, "contribution": 0.0}, "KLRF": {"distance": 16266.0, "latitude": 34.92, "longitude": -92.15, "useCount": 0, "id": "KLRF", "name": "KLRF", "quality": 100, "contribution": 0.0}, "D8400": {"distance": 21286.0, "latitude": 34.869, "longitude": -92.177, "useCount": 0, "id": "D8400", "name": "DW8400 Jacksonville AR US", "quality": 0, "contribution": 0.0}, "KSRC": {"distance": 34060.0, "latitude": 35.21, "longitude": -91.74, "useCount": 0, "id": "KSRC", "name": "SEARCY MUNI ARPT, AR", "quality": 100, "contribution": 0.0}, "72218853985": {"distance": 34405.0, "latitude": 35.212, "longitude": -91.737, "useCount": 0, "id": "72218853985", "name": "SEARCY MUNICIPAL AIRPORT, AR US", "quality": 99, "contribution": 0.0}, "KLIT": {"distance": 36509.0, "latitude": 34.72, "longitude": -92.23, "useCount": 0, "id": "KLIT", "name": "KLIT", "quality": 100, "contribution": 0.0}}}