{"queryCost": 1, "latitude": 36.22, "longitude": -86.781, "resolvedAddress": "36.22000,-86.78100", "address": "36.22000,-86.78100", "timezone": "America/Chicago", "tzoffset": -6.0, "days": [{"datetime": "2021-03-12", "datetimeEpoch": 1615528800, "tempmax": 67.8, "tempmin": 56.1, "temp": 62.2, "feelslikemax": 67.8, "feelslikemin": 56.1, "feelslike": 62.2, "dew": 54.9, "humidity": 78.4, "precip": 0.14, "precipprob": 100.0, "precipcover": 37.5, "preciptype": ["rain"], "snow": 0.0, "snowdepth": 0.0, "windgust": 17.2, "windspeed": 9.1, "winddir": 173.9, "pressure": 1025.7, "cloudcover": 95.4, "visibility": 8.1, "solarradiation": 44.8, "solarenergy": 3.7, "uvindex": 3.0, "sunrise": "06:01:45", "sunriseEpoch": 1615550505, "sunset": "17:52:17", "sunsetEpoch": 1615593137, "moonphase": 1.0, "conditions": "Rain, Overcast", "description": "Cloudy skies throughout the day with rain.", "icon": "rain", "stations": ["72327013897", "0679W", "KJWN", "KBNA", "KMQY", "KM91", "72327313827", "AV736"], "source": "obs"}], "stations": {"72327013897": {"distance": 13954.0, "latitude": 36.119, "longitude": -86.689, "useCount": 0, "id": "72327013897", "name": "NASHVILLE INTERNATIONAL AIRPORT, TN US", "quality": 100, "contribution": 0.0}, "0679W": {"distance": 8848.0, "latitude": 36.144, "longitude": -86.809, "useCount": 0, "id": "0679W", "name": "Vanderbilt University TN US WEATHERSTEM", "quality": 0, "contribution": 0.0}, "KJWN": {"distance": 9946.0, "latitude": 36.18, "longitude": -86.88, "useCount": 0, "id": "KJWN", "name": "KJWN", "quality": 89, "contribution": 0.0}, "KBNA": {"distance": 13518.0, "latitude": 36.13, "longitude": -86.68, "useCount": 0, "id": "KBNA", "name": "KBNA", "quality": 100, "contribution": 0.0}, "KMQY": {"distance": 32350.0, "latitude": 36.02, "longitude": -86.52, "useCount": 0, "id": "KMQY", "name": "KMQY", "quality": 100, "contribution": 0.0}, "KM91": {"distance": 36394.0, "latitude": 36.53, "longitude": -86.91, "useCount": 0, "id": "KM91", "name": "KM91", "quality": 94, "contribution": 0.0}, "72327313827": {"distance": 33213.0, "latitude": 36.009, "longitude": -86.52, "useCount": 0, "id": "72327313827", "name": "SMYRNA AIRPORT, TN US", "quality": 100, "contribution": 0.0}, "AV736": {"distance": 27003.0, "latitude": 36.253, "longitude": -86.483, "useCount": 0, "id": "AV736", "name": "KC9ETS Mount Juliet TN US", "quality": 0, "contribution": 0.0}}}