{"queryCost": 1, "latitude": 39.808, "longitude": -84.191, "resolvedAddress": "39.80800,-84.19100", "address": "39.80800,-84.19100", "timezone": "America/New_York", "tzoffset": -5.0, "days": [{"datetime": "2021-03-12", "datetimeEpoch": 1615525200, "tempmax": 58.9, "tempmin": 38.9, "temp": 49.4, "feelslikemax": 58.9, "feelslikemin": 36.4, "feelslike": 47.8, "dew": 31.7, "humidity": 54.7, "precip": 0.01, "precipprob": 100.0, "precipcover": 4.17, "preciptype": ["rain"], "snow": 0.0, "snowdepth": 0.0, "windgust": 17.2, "windspeed": 13.9, "winddir": 334.1, "pressure": 1027.9, "cloudcover": 48.2, "visibility": 9.9, "solarradiation": 117.3, "solarenergy": 10.2, "uvindex": 5.0, "sunrise": "06:52:27", "sunriseEpoch": 1615549947, "sunset": "18:40:56", "sunsetEpoch": 1615592456, "moonphase": 1.0, "conditions": "Rain, Partially cloudy", "description": "Partly cloudy throughout the day with early morning rain.", "icon": "rain", "stations": ["72429093815", "KDAY", "E6018", "74570013840", "KFFO", "KMGY", "AV260", "72427653859"], "source": "obs"}], "stations": {"72429093815": {"distance": 11203.0, "latitude": 39.906, "longitude": -84.218, "useCount": 0, "id": "72429093815", "name": "DAYTON INTERNATIONAL AIRPORT, OH US", "quality": 100, "contribution": 0.0}, "KDAY": {"distance": 10270.0, "latitude": 39.9, "longitude": -84.2, "useCount": 0, "id": "KDAY", "name": "KDAY", "quality": 100, "contribution": 0.0}, "E6018": {"distance": 11719.0, "latitude": 39.753, "longitude": -84.074, "useCount": 0, "id": "E6018", "name": "EW6018 Beavercreek OH US", "quality": 0, "contribution": 0.0}, "74570013840": {"distance": 12380.0, "latitude": 39.833, "longitude": -84.05, "useCount": 0, "id": "74570013840", "name": "DAYTON WRIGHT PATTERSON AFB, OH US", "quality": 100, "contribution": 0.0}, "KFFO": {"distance": 12302.0, "latitude": 39.83, "longitude": -84.05, "useCount": 0, "id": "KFFO", "name": "KFFO", "quality": 100, "contribution": 0.0}, "KMGY": {"distance": 23394.0, "latitude": 39.6, "longitude": -84.23, "useCount": 0, "id": "KMGY", "name": "KMGY", "quality": 100, "contribution": 0.0}, "AV260": {"distance": 11539.0, "latitude": 39.837, "longitude": -84.32, "useCount": 0, "id": "AV260", "name": "KC8UZG Clayton OH US", "quality": 0, "contribution": 0.0}, "72427653859": {"distance": 24059.0, "latitude": 39.594, "longitude": -84.226, "useCount": 0, "id": "72427653859", "name": "DAYTON WRIGHT BROTHERS AIRPORT, OH US", "quality": 100, "contribution": 0.0}}}