{"queryCost": 1, "latitude": 40.412, "longitude": -75.928, "resolvedAddress": "40.41200,-75.92800", "address": "40.41200,-75.92800", "timezone": "America/New_York", "tzoffset": -4.0, "days": [{"datetime": "2021-03-15", "datetimeEpoch": 1615780800, "tempmax": 42.1, "tempmin": 24.2, "temp": 33.3, "feelslikemax": 37.0, "feelslikemin": 14.1, "feelslike": 24.9, "dew": 2.2, "humidity": 27.9, "precip": 0.0, "precipprob": 0.0, "precipcover": 0.0, "preciptype": null, "snow": 0.0, "snowdepth": 0.0, "windgust": 32.1, "windspeed": 22.7, "winddir": 316.0, "pressure": 1027.7, "cloudcover": 0.0, "visibility": 9.9, "solarradiation": 60.5, "solarenergy": 5.2, "uvindex": 2.0, "sunrise": "07:14:46", "sunriseEpoch": 1615806886, "sunset": "19:10:54", "sunsetEpoch": 1615849854, "moonphase": 0.02, "conditions": "Clear", "description": "Clear conditions throughout the day.", "icon": "clear-day", "stations": ["72510954782", "72510314712", "KRDG", "PMN12", "KPTW", "99999900379", "KXLL"], "source": "obs"}], "stations": {"72510954782": {"distance": 37119.0, "latitude": 40.238, "longitude": -75.555, "useCount": 0, "id": "72510954782", "name": "HERITAGE FIELD AIRPORT, PA US", "quality": 100, "contribution": 0.0}, "72510314712": {"distance": 5046.0, "latitude": 40.373, "longitude": -75.959, "useCount": 0, "id": "72510314712", "name": "READING REGIONAL AIRPORT, PA US", "quality": 99, "contribution": 0.0}, "KRDG": {"distance": 5037.0, "latitude": 40.38, "longitude": -75.97, "useCount": 0, "id": "KRDG", "name": "KRDG", "quality": 99, "contribution": 0.0}, "PMN12": {"distance": 6788.0, "latitude": 40.365, "longitude": -75.979, "useCount": 0, "id": "PMN12", "name": "PSU Berks PA US PEMN", "quality": 0, "contribution": 0.0}, "KPTW": {"distance": 36633.0, "latitude": 40.24, "longitude": -75.56, "useCount": 0, "id": "KPTW", "name": "KPTW", "quality": 100, "contribution": 0.0}, "99999900379": {"distance": 41437.0, "latitude": 40.567, "longitude": -75.483, "useCount": 0, "id": "99999900379", "name": null, "quality": 99, "contribution": 0.0}, "KXLL": {"distance": 41807.0, "latitude": 40.57, "longitude": -75.48, "useCount": 0, "id": "KXLL", "name": "KXLL", "quality": 100, "contribution": 0.0}}}