{"queryCost": 1, "latitude": 41.711, "longitude": -83.666, "resolvedAddress": "41.71100,-83.66600", "address": "41.71100,-83.66600", "timezone": "America/New_York", "tzoffset": -4.0, "days": [{"datetime": "2021-03-21", "datetimeEpoch": 1616299200, "tempmax": 65.2, "tempmin": 26.1, "temp": 45.4, "feelslikemax": 65.2, "feelslikemin": 26.1, "feelslike": 45.2, "dew": 22.0, "humidity": 47.3, "precip": 0.0, "precipprob": 0.0, "precipcover": 0.0, "preciptype": null, "snow": 0.0, "snowdepth": 0.0, "windgust": 18.3, "windspeed": 11.1, "winddir": 100.3, "pressure": 1029.3, "cloudcover": 0.0, "visibility": 9.9, "solarradiation": 302.6, "solarenergy": 26.1, "uvindex": 8.0, "sunrise": "07:35:42", "sunriseEpoch": 1616326542, "sunset": "19:48:23", "sunsetEpoch": 1616370503, "moonphase": 0.24, "conditions": "Clear", "description": "Clear conditions throughout the day.", "icon": "clear-day", "stations": ["72428704848", "72536094830", "KTOL", "KTTF", "KTDZ", "72541854823", "1035W"], "source": "obs"}], "stations": {"72428704848": {"distance": 22801.0, "latitude": 41.563, "longitude": -83.476, "useCount": 0, "id": "72428704848", "name": "TOLEDO METCALF FIELD, OH US", "quality": 100, "contribution": 0.0}, "72536094830": {"distance": 18024.0, "latitude": 41.587, "longitude": -83.805, "useCount": 0, "id": "72536094830", "name": "TOLEDO EXPRESS AIRPORT, OH US", "quality": 100, "contribution": 0.0}, "KTOL": {"distance": 16640.0, "latitude": 41.6, "longitude": -83.8, "useCount": 0, "id": "KTOL", "name": "KTOL", "quality": 100, "contribution": 0.0}, "KTTF": {"distance": 32142.0, "latitude": 41.94, "longitude": -83.43, "useCount": 0, "id": "KTTF", "name": "KTTF", "quality": 100, "contribution": 0.0}, "KTDZ": {"distance": 22848.0, "latitude": 41.56, "longitude": -83.48, "useCount": 0, "id": "KTDZ", "name": "KTDZ", "quality": 100, "contribution": 0.0}, "72541854823": {"distance": 31906.0, "latitude": 41.94, "longitude": -83.435, "useCount": 0, "id": "72541854823", "name": "MONROE CUSTER AIRPORT, MI US", "quality": 96, "contribution": 0.0}, "1035W": {"distance": 4786.0, "latitude": 41.669, "longitude": -83.675, "useCount": 0, "id": "1035W", "name": "Natural Science Technology Cente OH US WEATHERSTEM", "quality": 0, "contribution": 0.0}}}