{"queryCost": 1, "latitude": 33.708, "longitude": -78.947, "resolvedAddress": "33.70800,-78.94700", "address": "33.70800,-78.94700", "timezone": "America/New_York", "tzoffset": -4.0, "days": [{"datetime": "2015-07-23", "datetimeEpoch": 1437624000, "tempmax": 93.2, "tempmin": 76.5, "temp": 84.5, "feelslikemax": 104.8, "feelslikemin": 76.5, "feelslike": 91.9, "dew": 74.9, "humidity": 73.8, "precip": 0.23, "precipprob": 100.0, "precipcover": 12.5, "preciptype": ["rain"], "snow": 0.0, "snowdepth": 0.0, "windgust": 21.0, "windspeed": 16.9, "winddir": 182.4, "pressure": 1012.2, "cloudcover": 43.9, "visibility": 8.6, "solarradiation": 285.2, "solarenergy": 24.6, "uvindex": 9.0, "sunrise": "06:21:23", "sunriseEpoch": 1437646883, "sunset": "20:22:47", "sunsetEpoch": 1437697367, "moonphase": 0.22, "conditions": "Rain, Partially cloudy", "description": "Partly cloudy throughout the day with late afternoon rain.", "icon": "rain", "stations": ["74791593718", "72061300204", "74791013717", "KMYR", "KHYW", "KCRE"], "source": "obs"}], "stations": {"74791593718": {"distance": 24176.0, "latitude": 33.816, "longitude": -78.72, "useCount": 0, "id": "74791593718", "name": "NORTH MYRTLE BEACH, SC US", "quality": 100, "contribution": 0.0}, "72061300204": {"distance": 20993.0, "latitude": 33.828, "longitude": -79.122, "useCount": 0, "id": "72061300204", "name": "CONWAY HORRY CO AIRPORT, SC US", "quality": 100, "contribution": 0.0}, "74791013717": {"distance": 3028.0, "latitude": 33.683, "longitude": -78.933, "useCount": 0, "id": "74791013717", "name": "MYRTLE BEACH AFB, SC US", "quality": 100, "contribution": 0.0}, "KMYR": {"distance": 3492.0, "latitude": 33.68, "longitude": -78.93, "useCount": 0, "id": "KMYR", "name": "KMYR", "quality": 100, "contribution": 0.0}, "KHYW": {"distance": 20994.0, "latitude": 33.83, "longitude": -79.12, "useCount": 0, "id": "KHYW", "name": "KHYW", "quality": 99, "contribution": 0.0}, "KCRE": {"distance": 24429.0, "latitude": 33.82, "longitude": -78.72, "useCount": 0, "id": "KCRE", "name": "KCRE", "quality": 100, "contribution": 0.0}}}