{"queryCost": 1, "latitude": 33.007, "longitude": -96.548, "resolvedAddress": "33.00700,-96.54800", "address": "33.00700,-96.54800", "timezone": "America/Chicago", "tzoffset": -5.0, "days": [{"datetime": "2021-03-17", "datetimeEpoch": 1615957200, "tempmax": 70.2, "tempmin": 47.2, "temp": 61.5, "feelslikemax": 70.2, "feelslikemin": 39.6, "feelslike": 60.6, "dew": 48.5, "humidity": 66.9, "precip": 0.34, "precipprob": 100.0, "precipcover": 12.5, "preciptype": ["rain"], "snow": 0.0, "snowdepth": 0.0, "windgust": 41.4, "windspeed": 25.4, "winddir": 237.7, "pressure": 1006.9, "cloudcover": 57.9, "visibility": 9.2, "solarradiation": 206.5, "solarenergy": 17.7, "uvindex": 8.0, "sunrise": "07:33:22", "sunriseEpoch": 1615984402, "sunset": "19:35:55", "sunsetEpoch": 1616027755, "moonphase": 0.07, "conditions": "Rain, Partially cloudy", "description": "Partly cloudy throughout the day with rain clearing later.", "icon": "rain", "stations": ["KTKI", "KHQZ", "KDAL", "72254153914", "72104400448", "C4223", "KF46"], "source": "obs"}], "stations": {"KTKI": {"distance": 19653.0, "latitude": 33.18, "longitude": -96.59, "useCount": 0, "id": "KTKI", "name": "KTKI", "quality": 100, "contribution": 0.0}, "KHQZ": {"distance": 28659.0, "latitude": 32.75, "longitude": -96.53, "useCount": 0, "id": "KHQZ", "name": "KHQZ", "quality": 100, "contribution": 0.0}, "KDAL": {"distance": 33192.0, "latitude": 32.85, "longitude": -96.85, "useCount": 0, "id": "KDAL", "name": "KDAL", "quality": 100, "contribution": 0.0}, "72254153914": {"distance": 20802.0, "latitude": 33.19, "longitude": -96.591, "useCount": 0, "id": "72254153914", "name": "MCKINNEY MUNICIPAL AIRPORT, TX US", "quality": 100, "contribution": 0.0}, "72104400448": {"distance": 13518.0, "latitude": 32.931, "longitude": -96.435, "useCount": 0, "id": "72104400448", "name": "RALPH M HALL ROCKWALL MUNICIPAL AIRPORT, TX US", "quality": 100, "contribution": 0.0}, "C4223": {"distance": 3606.0, "latitude": 32.979, "longitude": -96.567, "useCount": 0, "id": "C4223", "name": "CW4223 Sachse TX US", "quality": 0, "contribution": 0.0}, "KF46": {"distance": 13961.0, "latitude": 32.93, "longitude": -96.43, "useCount": 0, "id": "KF46", "name": "KF46", "quality": 100, "contribution": 0.0}}}