{"queryCost": 1, "latitude": 32.708, "longitude": -97.085, "resolvedAddress": "32.70800,-97.08500", "address": "32.70800,-97.08500", "timezone": "America/Chicago", "tzoffset": -5.0, "days": [{"datetime": "2021-03-18", "datetimeEpoch": 1616043600, "tempmax": 62.7, "tempmin": 44.1, "temp": 52.5, "feelslikemax": 62.7, "feelslikemin": 36.5, "feelslike": 49.6, "dew": 32.6, "humidity": 47.5, "precip": 0.0, "precipprob": 0.0, "precipcover": 0.0, "preciptype": null, "snow": 0.0, "snowdepth": 0.0, "windgust": 35.1, "windspeed": 19.9, "winddir": 307.0, "pressure": 1021.6, "cloudcover": 15.0, "visibility": 9.9, "solarradiation": 273.1, "solarenergy": 23.6, "uvindex": 9.0, "sunrise": "07:34:11", "sunriseEpoch": 1616070851, "sunset": "19:38:48", "sunsetEpoch": 1616114328, "moonphase": 0.11, "conditions": "Clear", "description": "Clear conditions throughout the day.", "icon": "clear-day", "stations": ["72247953907", "72259903971", "KGKY", "KDFW", "KGPM", "KRBD", "E0802"], "source": "obs"}], "stations": {"72247953907": {"distance": 5012.0, "latitude": 32.664, "longitude": -97.094, "useCount": 0, "id": "72247953907", "name": "ARLINGTON MUNICIPAL AIRPORT, TX US", "quality": 100, "contribution": 0.0}, "72259903971": {"distance": 20544.0, "latitude": 32.681, "longitude": -96.868, "useCount": 0, "id": "72259903971", "name": "DALLAS REDBIRD AIRPORT, TX US", "quality": 99, "contribution": 0.0}, "KGKY": {"distance": 6474.0, "latitude": 32.65, "longitude": -97.09, "useCount": 0, "id": "KGKY", "name": "KGKY", "quality": 100, "contribution": 0.0}, "KDFW": {"distance": 21984.0, "latitude": 32.9, "longitude": -97.03, "useCount": 0, "id": "KDFW", "name": "KDFW", "quality": 100, "contribution": 0.0}, "KGPM": {"distance": 3397.0, "latitude": 32.7, "longitude": -97.05, "useCount": 0, "id": "KGPM", "name": "KGPM", "quality": 98, "contribution": 0.0}, "KRBD": {"distance": 20382.0, "latitude": 32.68, "longitude": -96.87, "useCount": 0, "id": "KRBD", "name": "KRBD", "quality": 99, "contribution": 0.0}, "E0802": {"distance": 4039.0, "latitude": 32.72, "longitude": -97.126, "useCount": 0, "id": "E0802", "name": "EW0802 Arlington TX US", "quality": 0, "contribution": 0.0}}}