{"queryCost": 1, "latitude": 37.552, "longitude": -122.051, "resolvedAddress": "37.55200,-122.05100", "address": "37.55200,-122.05100", "timezone": "America/Los_Angeles", "tzoffset": -7.0, "days": [{"datetime": "2021-03-24", "datetimeEpoch": 1616569200, "tempmax": 66.5, "tempmin": 49.1, "temp": 56.6, "feelslikemax": 66.5, "feelslikemin": 49.1, "feelslike": 56.6, "dew": 32.1, "humidity": 42.3, "precip": 0.0, "precipprob": 0.0, "precipcover": 0.0, "preciptype": null, "snow": 0.0, "snowdepth": 0.0, "windgust": 20.8, "windspeed": 16.8, "winddir": 264.0, "pressure": 1017.1, "cloudcover": 28.1, "visibility": 9.9, "solarradiation": 265.2, "solarenergy": 22.9, "uvindex": 8.0, "sunrise": "07:05:01", "sunriseEpoch": 1616594701, "sunset": "19:24:12", "sunsetEpoch": 1616639052, "moonphase": 0.39, "conditions": "Partially cloudy", "description": "Partly cloudy throughout the day.", "icon": "partly-cloudy-day", "stations": ["72585093228", "KSJC", "C3109", "72493023230", "KHWD", "72494523293", "KOAK"], "source": "obs"}], "stations": {"72585093228": {"distance": 12700.0, "latitude": 37.654, "longitude": -122.115, "useCount": 0, "id": "72585093228", "name": "HAYWARD AIR TERMINAL, CA US", "quality": 100, "contribution": 0.0}, "KSJC": {"distance": 24307.0, "latitude": 37.36, "longitude": -121.92, "useCount": 0, "id": "KSJC", "name": "KSJC", "quality": 100, "contribution": 0.0}, "C3109": {"distance": 5209.0, "latitude": 37.596, "longitude": -122.07, "useCount": 0, "id": "C3109", "name": "CW3109 Union City CA US", "quality": 0, "contribution": 0.0}, "72493023230": {"distance": 24087.0, "latitude": 37.721, "longitude": -122.221, "useCount": 0, "id": "72493023230", "name": "OAKLAND METROPOLITAN, CA US", "quality": 100, "contribution": 0.0}, "KHWD": {"distance": 14477.0, "latitude": 37.67, "longitude": -122.12, "useCount": 0, "id": "KHWD", "name": "KHWD", "quality": 100, "contribution": 0.0}, "72494523293": {"distance": 24229.0, "latitude": 37.359, "longitude": -121.924, "useCount": 0, "id": "72494523293", "name": "SAN JOSE, CA US", "quality": 100, "contribution": 0.0}, "KOAK": {"distance": 23910.0, "latitude": 37.72, "longitude": -122.22, "useCount": 0, "id": "KOAK", "name": "KOAK", "quality": 100, "contribution": 0.0}}}