{"queryCost": 1, "latitude": 41.88, "longitude": -87.808, "resolvedAddress": "41.88000,-87.80800", "address": "41.88000,-87.80800", "timezone": "America/Chicago", "tzoffset": -5.0, "days": [{"datetime": "2021-03-24", "datetimeEpoch": 1616562000, "tempmax": 57.8, "tempmin": 49.0, "temp": 55.1, "feelslikemax": 57.8, "feelslikemin": 43.9, "feelslike": 54.9, "dew": 46.3, "humidity": 72.6, "precip": 0.01, "precipprob": 100.0, "precipcover": 4.17, "preciptype": ["rain"], "snow": 0.0, "snowdepth": 0.0, "windgust": 37.8, "windspeed": 21.8, "winddir": 207.3, "pressure": 1005.1, "cloudcover": 93.9, "visibility": 9.7, "solarradiation": 126.4, "solarenergy": 11.0, "uvindex": 6.0, "sunrise": "06:47:05", "sunriseEpoch": 1616586425, "sunset": "19:08:21", "sunsetEpoch": 1616630901, "moonphase": 0.39, "conditions": "Rain, Overcast", "description": "Cloudy skies throughout the day with early morning rain.", "icon": "rain", "stations": ["72534014819", "KORD", "KMDW", "72530094846", "F7086", "74466504838", "KPWK"], "source": "obs"}], "stations": {"72534014819": {"distance": 11432.0, "latitude": 41.786, "longitude": -87.752, "useCount": 0, "id": "72534014819", "name": "CHICAGO MIDWAY AIRPORT, IL US", "quality": 100, "contribution": 0.0}, "KORD": {"distance": 13490.0, "latitude": 41.98, "longitude": -87.9, "useCount": 0, "id": "KORD", "name": "KORD", "quality": 100, "contribution": 0.0}, "KMDW": {"distance": 12127.0, "latitude": 41.78, "longitude": -87.75, "useCount": 0, "id": "KMDW", "name": "KMDW", "quality": 100, "contribution": 0.0}, "72530094846": {"distance": 13584.0, "latitude": 41.96, "longitude": -87.932, "useCount": 0, "id": "72530094846", "name": "CHICAGO OHARE INTERNATIONAL AIRPORT, IL US", "quality": 100, "contribution": 0.0}, "F7086": {"distance": 7302.0, "latitude": 41.925, "longitude": -87.872, "useCount": 0, "id": "F7086", "name": "FW7086 Franklin Park IL US", "quality": 0, "contribution": 0.0}, "74466504838": {"distance": 27974.0, "latitude": 42.121, "longitude": -87.905, "useCount": 0, "id": "74466504838", "name": "CHICAGO PALWAUKEE AIRPORT, IL US", "quality": 100, "contribution": 0.0}, "KPWK": {"distance": 28278.0, "latitude": 42.12, "longitude": -87.92, "useCount": 0, "id": "KPWK", "name": "KPWK", "quality": 100, "contribution": 0.0}}}