{"queryCost": 1, "latitude": 34.051, "longitude": -118.264, "resolvedAddress": "34.05100,-118.26400", "address": "34.05100,-118.26400", "timezone": "America/Los_Angeles", "tzoffset": -7.0, "days": [{"datetime": "2021-03-29", "datetimeEpoch": 1617001200, "tempmax": 78.2, "tempmin": 54.9, "temp": 64.9, "feelslikemax": 78.2, "feelslikemin": 54.9, "feelslike": 64.9, "dew": 43.6, "humidity": 48.5, "precip": 0.0, "precipprob": 0.0, "precipcover": 0.0, "preciptype": null, "snow": 0.0, "snowdepth": 0.0, "windgust": null, "windspeed": 6.3, "winddir": 197.1, "pressure": 1012.1, "cloudcover": 0.2, "visibility": 9.9, "solarradiation": 308.3, "solarenergy": 26.7, "uvindex": 10.0, "sunrise": "06:43:51", "sunriseEpoch": 1617025431, "sunset": "19:11:59", "sunsetEpoch": 1617070319, "moonphase": 0.51, "conditions": "Clear", "description": "Clear conditions throughout the day.", "icon": "clear-day", "stations": ["KHHR", "72295023174", "KCQT", "KSMO", "72295603167", "72287493134", "CQ070"], "source": "obs"}], "stations": {"KHHR": {"distance": 15804.0, "latitude": 33.92, "longitude": -118.33, "useCount": 0, "id": "KHHR", "name": "KHHR", "quality": 100, "contribution": 0.0}, "72295023174": {"distance": 17068.0, "latitude": 33.938, "longitude": -118.389, "useCount": 0, "id": "72295023174", "name": "LOS ANGELES INTERNATIONAL AIRPORT, CA US", "quality": 100, "contribution": 0.0}, "KCQT": {"distance": 3753.0, "latitude": 34.02, "longitude": -118.28, "useCount": 0, "id": "KCQT", "name": "KCQT", "quality": 100, "contribution": 0.0}, "KSMO": {"distance": 17502.0, "latitude": 34.02, "longitude": -118.45, "useCount": 0, "id": "KSMO", "name": "KSMO", "quality": 97, "contribution": 0.0}, "72295603167": {"distance": 15666.0, "latitude": 33.923, "longitude": -118.334, "useCount": 0, "id": "72295603167", "name": "HAWTHORNE MUNICIPAL AIRPORT, CA US", "quality": 100, "contribution": 0.0}, "72287493134": {"distance": 3938.0, "latitude": 34.024, "longitude": -118.291, "useCount": 0, "id": "72287493134", "name": "LOS ANGELES DOWNTOWN USC, CA US", "quality": 100, "contribution": 0.0}, "CQ070": {"distance": 3844.0, "latitude": 34.067, "longitude": -118.227, "useCount": 0, "id": "CQ070", "name": "Los Angeles-North Main Street CA US CARB", "quality": 0, "contribution": 0.0}}}