{"queryCost": 1, "latitude": 28.398, "longitude": -82.66, "resolvedAddress": "28.39800,-82.66000", "address": "28.39800,-82.66000", "timezone": "America/New_York", "tzoffset": -4.0, "days": [{"datetime": "2021-03-20", "datetimeEpoch": 1616212800, "tempmax": 66.4, "tempmin": 48.5, "temp": 57.9, "feelslikemax": 66.4, "feelslikemin": 48.5, "feelslike": 57.9, "dew": 48.6, "humidity": 72.4, "precip": 0.0, "precipprob": 0.0, "precipcover": 0.0, "preciptype": null, "snow": 0.0, "snowdepth": 0.0, "windgust": 23.9, "windspeed": 14.3, "winddir": 27.8, "pressure": 1021.1, "cloudcover": 70.9, "visibility": 9.5, "solarradiation": 172.3, "solarenergy": 14.9, "uvindex": 7.0, "sunrise": "07:34:06", "sunriseEpoch": 1616240046, "sunset": "19:42:15", "sunsetEpoch": 1616283735, "moonphase": 0.2, "conditions": "Partially cloudy", "description": "Partly cloudy throughout the day.", "icon": "partly-cloudy-day", "stations": ["KCLW", "KBKV", "99999992828", "KTPA", "72211012842", "72201412818", "0457W"], "source": "obs"}], "stations": {"KCLW": {"distance": 47362.0, "latitude": 27.98, "longitude": -82.75, "useCount": 0, "id": "KCLW", "name": "KCLW", "quality": 100, "contribution": 0.0}, "KBKV": {"distance": 22064.0, "latitude": 28.47, "longitude": -82.45, "useCount": 0, "id": "KBKV", "name": "KBKV", "quality": 100, "contribution": 0.0}, "99999992828": {"distance": 47862.0, "latitude": 27.977, "longitude": -82.759, "useCount": 0, "id": "99999992828", "name": null, "quality": 98, "contribution": 0.0}, "KTPA": {"distance": 49323.0, "latitude": 27.97, "longitude": -82.53, "useCount": 0, "id": "KTPA", "name": "KTPA", "quality": 100, "contribution": 0.0}, "72211012842": {"distance": 49947.0, "latitude": 27.962, "longitude": -82.54, "useCount": 0, "id": "72211012842", "name": "TAMPA INTERNATIONAL AIRPORT, FL US", "quality": 100, "contribution": 0.0}, "72201412818": {"distance": 21815.0, "latitude": 28.474, "longitude": -82.454, "useCount": 0, "id": "72201412818", "name": "BROOKSVILLE HERNANDO CO AIRPORT, FL US", "quality": 100, "contribution": 0.0}, "0457W": {"distance": 11121.0, "latitude": 28.377, "longitude": -82.549, "useCount": 0, "id": "0457W", "name": "Pasco eSchool FL US WEATHERSTEM", "quality": 0, "contribution": 0.0}}}