{"queryCost": 1, "latitude": 40.493, "longitude": -104.564, "resolvedAddress": "40.49300,-104.56400", "address": "40.49300,-104.56400", "timezone": "America/Denver", "tzoffset": -6.0, "days": [{"datetime": "2021-03-26", "datetimeEpoch": 1616738400, "tempmax": 48.7, "tempmin": 33.7, "temp": 39.4, "feelslikemax": 45.3, "feelslikemin": 29.5, "feelslike": 35.1, "dew": 30.3, "humidity": 71.7, "precip": 0.01, "precipprob": 100.0, "precipcover": 4.17, "preciptype": ["rain"], "snow": 0.0, "snowdepth": 0.0, "windgust": 20.8, "windspeed": 12.0, "winddir": 166.4, "pressure": 1008.4, "cloudcover": 56.2, "visibility": 9.7, "solarradiation": 126.3, "solarenergy": 11.0, "uvindex": 6.0, "sunrise": "06:51:07", "sunriseEpoch": 1616763067, "sunset": "19:17:06", "sunsetEpoch": 1616807826, "moonphase": 0.46, "conditions": "Rain, Partially cloudy", "description": "Partly cloudy throughout the day with late afternoon rain.", "icon": "rain", "stations": ["CSU35", "72476994035", "CSU41", "99999994074", "KFNL", "72053800164"], "source": "obs"}], "stations": {"CSU35": {"distance": 13216.0, "latitude": 40.377, "longitude": -104.532, "useCount": 0, "id": "CSU35", "name": "Kersey 1 CO US", "quality": 0, "contribution": 0.0}, "72476994035": {"distance": 38659.0, "latitude": 40.45, "longitude": -105.017, "useCount": 0, "id": "72476994035", "name": "FORT COLLINS LOVELAND AIRPORT, CO US", "quality": 100, "contribution": 0.0}, "CSU41": {"distance": 12261.0, "latitude": 40.476, "longitude": -104.707, "useCount": 0, "id": "CSU41", "name": "Lucerne CO US", "quality": 0, "contribution": 0.0}, "99999994074": {"distance": 38457.0, "latitude": 40.807, "longitude": -104.755, "useCount": 0, "id": "99999994074", "name": "NUNN 7 NNE, CO US", "quality": 100, "contribution": 0.0}, "KFNL": {"distance": 38911.0, "latitude": 40.45, "longitude": -105.02, "useCount": 0, "id": "KFNL", "name": "LOVELAND/FT CLNS, CO", "quality": 100, "contribution": 0.0}, "72053800164": {"distance": 62734.0, "latitude": 40.167, "longitude": -105.167, "useCount": 0, "id": "72053800164", "name": "VANCE BRAND AIRPORT, CO US", "quality": 96, "contribution": 0.0}}}