{"queryCost": 1, "latitude": 39.452, "longitude": -104.87, "resolvedAddress": "39.45200,-104.87000", "address": "39.45200,-104.87000", "timezone": "America/Denver", "tzoffset": -6.0, "days": [{"datetime": "2021-04-03", "datetimeEpoch": 1617429600, "tempmax": 74.7, "tempmin": 38.8, "temp": 58.2, "feelslikemax": 74.7, "feelslikemin": 33.9, "feelslike": 56.8, "dew": 13.4, "humidity": 20.9, "precip": 0.0, "precipprob": 0.0, "precipcover": 0.0, "preciptype": null, "snow": 0.0, "snowdepth": 0.0, "windgust": null, "windspeed": 10.2, "winddir": 165.3, "pressure": 1018.0, "cloudcover": 18.6, "visibility": 9.9, "solarradiation": 282.6, "solarenergy": 24.4, "uvindex": 9.0, "sunrise": "06:40:01", "sunriseEpoch": 1617453601, "sunset": "19:25:51", "sunsetEpoch": 1617499551, "moonphase": 0.7, "conditions": "Clear", "description": "Clear conditions throughout the day.", "icon": "clear-day", "stations": ["KBKF", "KAPA", "72469523036", "72215503040", "D4892", "72565003017", "72466693067"], "source": "obs"}], "stations": {"KBKF": {"distance": 31560.0, "latitude": 39.72, "longitude": -104.75, "useCount": 0, "id": "KBKF", "name": "KBKF", "quality": 100, "contribution": 0.0}, "KAPA": {"distance": 13248.0, "latitude": 39.57, "longitude": -104.85, "useCount": 0, "id": "KAPA", "name": "KAPA", "quality": 100, "contribution": 0.0}, "72469523036": {"distance": 31213.0, "latitude": 39.717, "longitude": -104.75, "useCount": 0, "id": "72469523036", "name": "AURORA BUCKLEY FIELD ANGB, CO US", "quality": 100, "contribution": 0.0}, "72215503040": {"distance": 33204.0, "latitude": 39.217, "longitude": -104.633, "useCount": 0, "id": "72215503040", "name": "MONUMENT PASS, CO US", "quality": 92, "contribution": 0.0}, "D4892": {"distance": 2573.0, "latitude": 39.435, "longitude": -104.85, "useCount": 0, "id": "D4892", "name": "DW4892 Castle Rock CO US", "quality": 0, "contribution": 0.0}, "72565003017": {"distance": 46122.0, "latitude": 39.833, "longitude": -104.658, "useCount": 0, "id": "72565003017", "name": "DENVER INTERNATIONAL AIRPORT, CO US", "quality": 100, "contribution": 0.0}, "72466693067": {"distance": 13292.0, "latitude": 39.57, "longitude": -104.849, "useCount": 0, "id": "72466693067", "name": "DENVER CENTENNIAL AIRPORT, CO US", "quality": 100, "contribution": 0.0}}}