{"queryCost": 1, "latitude": 33.877, "longitude": -117.588, "resolvedAddress": "33.87700,-117.58800", "address": "33.87700,-117.58800", "timezone": "America/Los_Angeles", "tzoffset": -7.0, "days": [{"datetime": "2021-04-02", "datetimeEpoch": 1617346800, "tempmax": 79.2, "tempmin": 42.5, "temp": 61.3, "feelslikemax": 79.2, "feelslikemin": 42.5, "feelslike": 61.3, "dew": 43.7, "humidity": 54.3, "precip": 0.0, "precipprob": 0.0, "precipcover": 0.0, "preciptype": null, "snow": 0.0, "snowdepth": 0.0, "windgust": 23.0, "windspeed": 13.8, "winddir": 205.1, "pressure": 1015.4, "cloudcover": 0.1, "visibility": 9.9, "solarradiation": 286.4, "solarenergy": 24.8, "uvindex": 9.0, "sunrise": "06:35:51", "sunriseEpoch": 1617370551, "sunset": "19:12:12", "sunsetEpoch": 1617415932, "moonphase": 0.65, "conditions": "Clear", "description": "Clear conditions throughout the day.", "icon": "clear-day", "stations": ["72033353175", "KRAL", "72289903179", "KAJO", "SE219", "KCNO", "72286903171"], "source": "obs"}], "stations": {"72033353175": {"distance": 2643.0, "latitude": 33.898, "longitude": -117.602, "useCount": 0, "id": "72033353175", "name": "CORONA MUNICIPAL AIRPORT, CA US", "quality": 99, "contribution": 0.0}, "KRAL": {"distance": 15118.0, "latitude": 33.95, "longitude": -117.45, "useCount": 0, "id": "KRAL", "name": "KRAL", "quality": 100, "contribution": 0.0}, "72289903179": {"distance": 11807.0, "latitude": 33.975, "longitude": -117.636, "useCount": 0, "id": "72289903179", "name": "CHINO AIRPORT, CA US", "quality": 100, "contribution": 0.0}, "KAJO": {"distance": 2790.0, "latitude": 33.9, "longitude": -117.6, "useCount": 0, "id": "KAJO", "name": "CORONA, CA", "quality": 99, "contribution": 0.0}, "SE219": {"distance": 3727.0, "latitude": 33.85, "longitude": -117.612, "useCount": 0, "id": "SE219", "name": "SCE Mabey Canyon CA US SC-EDISON", "quality": 0, "contribution": 0.0}, "KCNO": {"distance": 11056.0, "latitude": 33.97, "longitude": -117.63, "useCount": 0, "id": "KCNO", "name": "KCNO", "quality": 100, "contribution": 0.0}, "72286903171": {"distance": 16093.0, "latitude": 33.952, "longitude": -117.439, "useCount": 0, "id": "72286903171", "name": "RIVERSIDE MUNICIPAL AIRPORT, CA US", "quality": 100, "contribution": 0.0}}}