{"queryCost": 1, "latitude": 30.197, "longitude": -81.743, "resolvedAddress": "30.19700,-81.74300", "address": "30.19700,-81.74300", "timezone": "America/New_York", "tzoffset": -4.0, "days": [{"datetime": "2021-03-30", "datetimeEpoch": 1617076800, "tempmax": 79.8, "tempmin": 64.1, "temp": 69.4, "feelslikemax": 79.8, "feelslikemin": 64.1, "feelslike": 69.4, "dew": 65.0, "humidity": 86.3, "precip": 0.09, "precipprob": 100.0, "precipcover": 20.83, "preciptype": ["rain"], "snow": 0.0, "snowdepth": 0.0, "windgust": null, "windspeed": 11.5, "winddir": 142.3, "pressure": 1022.1, "cloudcover": 87.9, "visibility": 8.8, "solarradiation": 104.2, "solarenergy": 8.9, "uvindex": 6.0, "sunrise": "07:18:12", "sunriseEpoch": 1617103092, "sunset": "19:44:51", "sunsetEpoch": 1617147891, "moonphase": 0.53, "conditions": "Rain, Partially cloudy", "description": "Partly cloudy throughout the day with rain.", "icon": "rain", "stations": ["72206013889", "72206593837", "KNIP", "C0639", "KCRG", "74782053860"], "source": "obs"}], "stations": {"72206013889": {"distance": 33511.0, "latitude": 30.495, "longitude": -81.694, "useCount": 0, "id": "72206013889", "name": "JACKSONVILLE INTERNATIONAL AIRPORT, FL US", "quality": 100, "contribution": 0.0}, "72206593837": {"distance": 8379.0, "latitude": 30.233, "longitude": -81.667, "useCount": 0, "id": "72206593837", "name": "JACKSONVILLE NAS, FL US", "quality": 100, "contribution": 0.0}, "KNIP": {"distance": 7087.0, "latitude": 30.23, "longitude": -81.68, "useCount": 0, "id": "KNIP", "name": "KNIP", "quality": 100, "contribution": 0.0}, "C0639": {"distance": 7525.0, "latitude": 30.256, "longitude": -81.704, "useCount": 0, "id": "C0639", "name": "CW0639 Jacksonville FL US", "quality": 0, "contribution": 0.0}, "KCRG": {"distance": 26056.0, "latitude": 30.33, "longitude": -81.52, "useCount": 0, "id": "KCRG", "name": "KCRG", "quality": 100, "contribution": 0.0}, "74782053860": {"distance": 26862.0, "latitude": 30.336, "longitude": -81.515, "useCount": 0, "id": "74782053860", "name": "JACKSONVILLE CRAIG MUNICIPAL AIRPORT, FL US", "quality": 100, "contribution": 0.0}}}