{"queryCost": 1, "latitude": 38.892, "longitude": -77.007, "resolvedAddress": "38.89200,-77.00700", "address": "38.89200,-77.00700", "timezone": "America/New_York", "tzoffset": -4.0, "days": [{"datetime": "2021-04-02", "datetimeEpoch": 1617336000, "tempmax": 45.9, "tempmin": 30.6, "temp": 38.2, "feelslikemax": 37.7, "feelslikemin": 17.6, "feelslike": 29.0, "dew": 14.1, "humidity": 38.4, "precip": 0.0, "precipprob": 0.0, "precipcover": 0.0, "preciptype": null, "snow": 0.0, "snowdepth": 0.0, "windgust": 36.2, "windspeed": 23.4, "winddir": 319.7, "pressure": 1025.6, "cloudcover": 40.1, "visibility": 9.9, "solarradiation": 193.0, "solarenergy": 16.6, "uvindex": 7.0, "sunrise": "06:50:38", "sunriseEpoch": 1617360638, "sunset": "19:32:58", "sunsetEpoch": 1617406378, "moonphase": 0.65, "conditions": "Partially cloudy", "description": "Partly cloudy throughout the day.", "icon": "partly-cloudy-day", "stations": ["KDCA", "72405013743", "72403793728", "KADW", "KDAA", "F8307", "74594013705"], "source": "obs"}], "stations": {"KDCA": {"distance": 5083.0, "latitude": 38.85, "longitude": -77.03, "useCount": 0, "id": "KDCA", "name": "KDCA", "quality": 100, "contribution": 0.0}, "72405013743": {"distance": 5527.0, "latitude": 38.847, "longitude": -77.034, "useCount": 0, "id": "72405013743", "name": "WASHINGTON REAGAN NATIONAL AIRPORT, VA US", "quality": 100, "contribution": 0.0}, "72403793728": {"distance": 24793.0, "latitude": 38.717, "longitude": -77.183, "useCount": 0, "id": "72403793728", "name": "DAVISON ARMY AIR FIELD, VA US", "quality": 100, "contribution": 0.0}, "KADW": {"distance": 14328.0, "latitude": 38.82, "longitude": -76.87, "useCount": 0, "id": "KADW", "name": "KADW", "quality": 100, "contribution": 0.0}, "KDAA": {"distance": 24328.0, "latitude": 38.72, "longitude": -77.18, "useCount": 0, "id": "KDAA", "name": "KDAA", "quality": 100, "contribution": 0.0}, "F8307": {"distance": 2504.0, "latitude": 38.908, "longitude": -76.986, "useCount": 0, "id": "F8307", "name": "FW8307 Washington Dc DC US", "quality": 0, "contribution": 0.0}, "74594013705": {"distance": 14771.0, "latitude": 38.817, "longitude": -76.867, "useCount": 0, "id": "74594013705", "name": "CAMP SPRINGS ANDREWS AFB, MD US", "quality": 100, "contribution": 0.0}}}