{"queryCost": 1, "latitude": 21.275, "longitude": -157.825, "resolvedAddress": "21.27500,-157.82500", "address": "21.27500,-157.82500", "timezone": "Pacific/Honolulu", "tzoffset": -10.0, "days": [{"datetime": "2021-04-05", "datetimeEpoch": 1617616800, "tempmax": 80.6, "tempmin": 71.0, "temp": 74.6, "feelslikemax": 81.3, "feelslikemin": 71.0, "feelslike": 74.6, "dew": 60.3, "humidity": 61.5, "precip": 0.0, "precipprob": 0.0, "precipcover": 0.0, "preciptype": null, "snow": 0.0, "snowdepth": 0.0, "windgust": 36.8, "windspeed": 22.2, "winddir": 57.1, "pressure": 1019.0, "cloudcover": 41.1, "visibility": 9.9, "solarradiation": 296.3, "solarenergy": 25.6, "uvindex": 10.0, "sunrise": "06:20:18", "sunriseEpoch": 1617639618, "sunset": "18:47:38", "sunsetEpoch": 1617684458, "moonphase": 0.81, "conditions": "Partially cloudy", "description": "Partly cloudy throughout the day.", "icon": "partly-cloudy-day", "stations": ["91176022519", "PHNL", "PHNG", "91178022551", "91182022521", "SCEH1", "PLHH1", "91170022508"], "source": "obs"}], "stations": {"91176022519": {"distance": 20411.0, "latitude": 21.451, "longitude": -157.768, "useCount": 0, "id": "91176022519", "name": "KANEOHE BAY MCAS, HI US", "quality": 98, "contribution": 0.0}, "PHNL": {"distance": 13722.0, "latitude": 21.35, "longitude": -157.93, "useCount": 0, "id": "PHNL", "name": "HONOLULU INTL,HI", "quality": 100, "contribution": 0.0}, "PHNG": {"distance": 20298.0, "latitude": 21.45, "longitude": -157.77, "useCount": 0, "id": "PHNG", "name": "PHNG", "quality": 97, "contribution": 0.0}, "91178022551": {"distance": 25525.0, "latitude": 21.317, "longitude": -158.067, "useCount": 0, "id": "91178022551", "name": "EWA KALAELOA AIRPORT, HI US", "quality": 98, "contribution": 0.0}, "91182022521": {"distance": 12087.0, "latitude": 21.324, "longitude": -157.929, "useCount": 0, "id": "91182022521", "name": "HONOLULU INTERNATIONAL AIRPORT, HI US", "quality": 100, "contribution": 0.0}, "SCEH1": {"distance": 30451.0, "latitude": 21.499, "longitude": -157.993, "useCount": 0, "id": "SCEH1", "name": "SCHOFIELD EAST HI US", "quality": 0, "contribution": 0.0}, "PLHH1": {"distance": 31411.0, "latitude": 21.385, "longitude": -158.104, "useCount": 0, "id": "PLHH1", "name": "PALEHUA HI US", "quality": 0, "contribution": 0.0}, "91170022508": {"distance": 31635.0, "latitude": 21.487, "longitude": -158.028, "useCount": 0, "id": "91170022508", "name": "WHEELER ARMY AIR FIELD 810.1, HI US", "quality": 99, "contribution": 0.0}}}