{"queryCost": 1, "latitude": 30.849, "longitude": -84.735, "resolvedAddress": "30.84900,-84.73500", "address": "30.84900,-84.73500", "timezone": "America/New_York", "tzoffset": -4.0, "days": [{"datetime": "2015-07-25", "datetimeEpoch": 1437796800, "tempmax": 94.3, "tempmin": 74.7, "temp": 83.7, "feelslikemax": 108.8, "feelslikemin": 74.7, "feelslike": 90.4, "dew": 75.5, "humidity": 78.1, "precip": 0.0, "precipprob": 0.0, "precipcover": 0.0, "preciptype": null, "snow": 0.0, "snowdepth": 0.0, "windgust": 17.2, "windspeed": 12.0, "winddir": 136.2, "pressure": 1012.5, "cloudcover": 27.9, "visibility": 9.9, "solarradiation": 294.4, "solarenergy": 25.3, "uvindex": 9.0, "sunrise": "06:51:56", "sunriseEpoch": 1437821516, "sunset": "20:38:38", "sunsetEpoch": 1437871118, "moonphase": 0.31, "conditions": "Partially cloudy", "description": "Partly cloudy throughout the day.", "icon": "partly-cloudy-day", "stations": ["74776003818", "KBGE", "72026853882", "KMAI", "99999963829"], "source": "obs"}], "stations": {"72026853882": {"distance": 17828.0, "latitude": 30.983, "longitude": -84.633, "useCount": 0, "id": "72026853882", "name": "BAINBRIDGE DECATUR CO INDUSTRIAL AIR PARK AIRPORT, GA US", "quality": 100, "contribution": 0.0}, "KMAI": {"distance": 42543.0, "latitude": 30.84, "longitude": -85.18, "useCount": 0, "id": "KMAI", "name": "KMAI", "quality": 99, "contribution": 0.0}, "74776003818": {"distance": 42930.0, "latitude": 30.836, "longitude": -85.184, "useCount": 0, "id": "74776003818", "name": "MARIANNA MUNICIPAL AIRPORT, FL US", "quality": 100, "contribution": 0.0}, "99999963829": {"distance": 47095.0, "latitude": 31.192, "longitude": -84.446, "useCount": 0, "id": "99999963829", "name": "NEWTON 11 SW, GA US", "quality": 100, "contribution": 0.0}, "KBGE": {"distance": 16241.0, "latitude": 30.97, "longitude": -84.64, "useCount": 0, "id": "KBGE", "name": "KBGE", "quality": 100, "contribution": 0.0}}}