{"queryCost": 1, "latitude": 29.874, "longitude": -97.933, "resolvedAddress": "29.87400,-97.93300", "address": "29.87400,-97.93300", "timezone": "America/Chicago", "tzoffset": -5.0, "days": [{"datetime": "2021-04-10", "datetimeEpoch": 1618030800, "tempmax": 82.2, "tempmin": 58.0, "temp": 70.4, "feelslikemax": 79.9, "feelslikemin": 58.0, "feelslike": 70.0, "dew": 43.7, "humidity": 44.0, "precip": 0.0, "precipprob": 0.0, "precipcover": 0.0, "preciptype": null, "snow": 0.0, "snowdepth": 0.0, "windgust": 30.2, "windspeed": 22.4, "winddir": 76.5, "pressure": 1008.7, "cloudcover": 0.3, "visibility": 9.4, "solarradiation": 308.6, "solarenergy": 26.7, "uvindex": 10.0, "sunrise": "07:10:10", "sunriseEpoch": 1618056610, "sunset": "19:56:07", "sunsetEpoch": 1618102567, "moonphase": 0.99, "conditions": "Clear", "description": "Clear conditions throughout the day.", "icon": "clear-day", "stations": ["KBAZ", "72253912979", "72241612971", "KAUS", "72254013904", "KHYI", "SRWT2"], "source": "obs"}], "stations": {"KBAZ": {"distance": 21472.0, "latitude": 29.71, "longitude": -98.05, "useCount": 0, "id": "KBAZ", "name": "KBAZ", "quality": 100, "contribution": 0.0}, "72253912979": {"distance": 6880.0, "latitude": 29.891, "longitude": -97.864, "useCount": 0, "id": "72253912979", "name": "SAN MARCOS MUNICIPAL AIRPORT, TX US", "quality": 100, "contribution": 0.0}, "72241612971": {"distance": 21367.0, "latitude": 29.709, "longitude": -98.046, "useCount": 0, "id": "72241612971", "name": "NEW BRAUNFELS MUNICIPAL AIRPORT, TX US", "quality": 100, "contribution": 0.0}, "KAUS": {"distance": 43357.0, "latitude": 30.19, "longitude": -97.67, "useCount": 0, "id": "KAUS", "name": "KAUS", "quality": 100, "contribution": 0.0}, "72254013904": {"distance": 42178.0, "latitude": 30.183, "longitude": -97.68, "useCount": 0, "id": "72254013904", "name": "AUSTIN BERGSTROM INTERNATIONAL AIRPORT, TX US", "quality": 100, "contribution": 0.0}, "KHYI": {"distance": 6734.0, "latitude": 29.9, "longitude": -97.87, "useCount": 0, "id": "KHYI", "name": "SAN_MARCOS_(AWOS), TX", "quality": 100, "contribution": 0.0}, "SRWT2": {"distance": 10269.0, "latitude": 29.939, "longitude": -98.008, "useCount": 0, "id": "SRWT2", "name": "SAN MARCOS-WEST TX US", "quality": 0, "contribution": 0.0}}}