{"queryCost": 1, "latitude": 40.035, "longitude": -75.147, "resolvedAddress": "40.03500,-75.14700", "address": "40.03500,-75.14700", "timezone": "America/New_York", "tzoffset": -4.0, "days": [{"datetime": "2021-04-07", "datetimeEpoch": 1617768000, "tempmax": 68.5, "tempmin": 49.6, "temp": 57.2, "feelslikemax": 68.5, "feelslikemin": 49.6, "feelslike": 57.2, "dew": 35.6, "humidity": 44.6, "precip": 0.0, "precipprob": 0.0, "precipcover": 0.0, "preciptype": null, "snow": 0.0, "snowdepth": 0.0, "windgust": 20.8, "windspeed": 8.6, "winddir": 166.7, "pressure": 1015.9, "cloudcover": 53.1, "visibility": 9.8, "solarradiation": 165.9, "solarenergy": 14.3, "uvindex": 7.0, "sunrise": "06:34:31", "sunriseEpoch": 1617791671, "sunset": "19:31:23", "sunsetEpoch": 1617838283, "moonphase": 0.91, "conditions": "Partially cloudy", "description": "Partly cloudy throughout the day.", "icon": "partly-cloudy-day", "stations": ["72408594732", "72408013739", "72030464752", "E8199", "KPHL", "KLOM", "KPNE"], "source": "obs"}], "stations": {"72408594732": {"distance": 12388.0, "latitude": 40.079, "longitude": -75.013, "useCount": 0, "id": "72408594732", "name": "NORTHEAST PHILADELPHIA AIRPORT, PA US", "quality": 100, "contribution": 0.0}, "72408013739": {"distance": 19245.0, "latitude": 39.873, "longitude": -75.227, "useCount": 0, "id": "72408013739", "name": "PHILADELPHIA INTERNATIONAL AIRPORT, PA US", "quality": 100, "contribution": 0.0}, "72030464752": {"distance": 12504.0, "latitude": 40.1, "longitude": -75.267, "useCount": 0, "id": "72030464752", "name": "WINGS FIELD, PA US", "quality": 100, "contribution": 0.0}, "E8199": {"distance": 10169.0, "latitude": 39.944, "longitude": -75.151, "useCount": 0, "id": "E8199", "name": "EW8199 Phildelphia PA US", "quality": 0, "contribution": 0.0}, "KPHL": {"distance": 19364.0, "latitude": 39.88, "longitude": -75.25, "useCount": 0, "id": "KPHL", "name": "KPHL", "quality": 100, "contribution": 0.0}, "KLOM": {"distance": 15696.0, "latitude": 40.14, "longitude": -75.27, "useCount": 0, "id": "KLOM", "name": "KLOM", "quality": 100, "contribution": 0.0}, "KPNE": {"distance": 12702.0, "latitude": 40.08, "longitude": -75.01, "useCount": 0, "id": "KPNE", "name": "KPNE", "quality": 100, "contribution": 0.0}}}