{"queryCost": 1, "latitude": 45.487, "longitude": -122.572, "resolvedAddress": "45.48700,-122.57200", "address": "45.48700,-122.57200", "timezone": "America/Los_Angeles", "tzoffset": -7.0, "days": [{"datetime": "2021-04-16", "datetimeEpoch": 1618556400, "tempmax": 78.5, "tempmin": 43.5, "temp": 62.2, "feelslikemax": 78.5, "feelslikemin": 43.5, "feelslike": 62.2, "dew": 33.1, "humidity": 40.5, "precip": 0.0, "precipprob": 0.0, "precipcover": 0.0, "preciptype": null, "snow": 0.0, "snowdepth": 0.0, "windgust": 29.1, "windspeed": 18.1, "winddir": 96.5, "pressure": 1020.3, "cloudcover": 0.0, "visibility": 9.9, "solarradiation": 155.8, "solarenergy": 13.6, "uvindex": 5.0, "sunrise": "06:22:20", "sunriseEpoch": 1618579340, "sunset": "19:58:27", "sunsetEpoch": 1618628307, "moonphase": 0.08, "conditions": "Clear", "description": "Clear conditions throughout the day.", "icon": "clear-day", "stations": ["72698524242", "KVUO", "72698024229", "KPDX", "KTTD", "E8319", "72791894298"], "source": "obs"}], "stations": {"72698524242": {"distance": 14579.0, "latitude": 45.551, "longitude": -122.409, "useCount": 0, "id": "72698524242", "name": "PORTLAND TROUTDALE AIRPORT, OR US", "quality": 100, "contribution": 0.0}, "KVUO": {"distance": 16317.0, "latitude": 45.62, "longitude": -122.66, "useCount": 0, "id": "KVUO", "name": "KVUO", "quality": 100, "contribution": 0.0}, "72698024229": {"distance": 12450.0, "latitude": 45.596, "longitude": -122.609, "useCount": 0, "id": "72698024229", "name": "PORTLAND INTERNATIONAL AIRPORT, OR US", "quality": 100, "contribution": 0.0}, "KPDX": {"distance": 12767.0, "latitude": 45.6, "longitude": -122.6, "useCount": 0, "id": "KPDX", "name": "KPDX", "quality": 100, "contribution": 0.0}, "KTTD": {"distance": 13775.0, "latitude": 45.55, "longitude": -122.42, "useCount": 0, "id": "KTTD", "name": "KTTD", "quality": 100, "contribution": 0.0}, "E8319": {"distance": 4262.0, "latitude": 45.457, "longitude": -122.605, "useCount": 0, "id": "E8319", "name": "EW8319 Milwaukie OR US", "quality": 0, "contribution": 0.0}, "72791894298": {"distance": 16302.0, "latitude": 45.621, "longitude": -122.657, "useCount": 0, "id": "72791894298", "name": "VANCOUVER PEARSON AIRPORT, WA US", "quality": 100, "contribution": 0.0}}}