{"queryCost": 1, "latitude": 33.106, "longitude": -117.078, "resolvedAddress": "33.10600,-117.07800", "address": "33.10600,-117.07800", "timezone": "America/Los_Angeles", "tzoffset": -7.0, "days": [{"datetime": "2021-04-21", "datetimeEpoch": 1618988400, "tempmax": 61.6, "tempmin": 53.7, "temp": 56.0, "feelslikemax": 61.6, "feelslikemin": 53.7, "feelslike": 56.0, "dew": 47.3, "humidity": 73.2, "precip": 0.0, "precipprob": 0.0, "precipcover": 0.0, "preciptype": null, "snow": 0.0, "snowdepth": 0.0, "windgust": 20.8, "windspeed": 13.0, "winddir": 197.9, "pressure": 1012.4, "cloudcover": 99.0, "visibility": 9.5, "solarradiation": 135.7, "solarenergy": 11.8, "uvindex": 5.0, "sunrise": "06:10:49", "sunriseEpoch": 1619010649, "sunset": "19:23:33", "sunsetEpoch": 1619058213, "moonphase": 0.31, "conditions": "Overcast", "description": "Cloudy skies throughout the day.", "icon": "cloudy", "stations": ["PSQC1", "KCRQ", "KRNM", "72293453121", "74505653120", "72292703177", "72293193107"], "source": "obs"}], "stations": {"PSQC1": {"distance": 6366.0, "latitude": 33.091, "longitude": -117.012, "useCount": 0, "id": "PSQC1", "name": "SAN PASQUAL CA US", "quality": 0, "contribution": 0.0}, "KCRQ": {"distance": 19022.0, "latitude": 33.13, "longitude": -117.28, "useCount": 0, "id": "KCRQ", "name": "KCRQ", "quality": 100, "contribution": 0.0}, "KRNM": {"distance": 17308.0, "latitude": 33.04, "longitude": -116.91, "useCount": 0, "id": "KRNM", "name": "KRNM", "quality": 100, "contribution": 0.0}, "72293453121": {"distance": 28233.0, "latitude": 33.219, "longitude": -117.349, "useCount": 0, "id": "72293453121", "name": "OCEANSIDE MUNICIPAL AIRPORT, CA US", "quality": 100, "contribution": 0.0}, "74505653120": {"distance": 16927.0, "latitude": 33.038, "longitude": -116.916, "useCount": 0, "id": "74505653120", "name": "RAMONA AIRPORT, CA US", "quality": 100, "contribution": 0.0}, "72292703177": {"distance": 18901.0, "latitude": 33.128, "longitude": -117.279, "useCount": 0, "id": "72292703177", "name": "CARLSBAD MCCLELLAN PALOMAR AIRPORT, CA US", "quality": 100, "contribution": 0.0}, "72293193107": {"distance": 27129.0, "latitude": 32.867, "longitude": -117.133, "useCount": 0, "id": "72293193107", "name": "SAN DIEGO MIRAMAR NAS, CA US", "quality": 99, "contribution": 0.0}}}