{"queryCost": 1, "latitude": 32.888, "longitude": -96.705, "resolvedAddress": "32.88800,-96.70500", "address": "32.88800,-96.70500", "timezone": "America/Chicago", "tzoffset": -5.0, "days": [{"datetime": "2021-04-19", "datetimeEpoch": 1618808400, "tempmax": 73.6, "tempmin": 45.5, "temp": 60.0, "feelslikemax": 73.6, "feelslikemin": 45.5, "feelslike": 60.0, "dew": 39.4, "humidity": 50.76, "precip": 0.0, "precipprob": null, "precipcover": 0.0, "preciptype": null, "snow": 0.0, "snowdepth": 0.0, "windgust": 18.3, "windspeed": 9.1, "winddir": 229.6, "pressure": 1017.1, "cloudcover": 30.8, "visibility": 9.9, "solarradiation": 398.8, "solarenergy": 20.1, "uvindex": 8.0, "sunrise": "06:51:57", "sunriseEpoch": 1618833117, "sunset": "20:00:16", "sunsetEpoch": 1618880416, "moonphase": 0.21, "conditions": "Partially cloudy", "description": "Partly cloudy throughout the day.", "icon": "partly-cloudy-day", "stations": ["D4127", "KHQZ", "KDAL", "72259903971", "72104400448", "72258013960", "KF46"], "source": "obs"}], "stations": {"D4127": {"distance": 6553.0, "latitude": 32.938, "longitude": -96.668, "useCount": 0, "id": "D4127", "name": "DW4127 Garland TX US", "quality": 0, "contribution": 0.0}, "KHQZ": {"distance": 22450.0, "latitude": 32.75, "longitude": -96.53, "useCount": 0, "id": "KHQZ", "name": "KHQZ", "quality": 100, "contribution": 0.0}, "KDAL": {"distance": 14202.0, "latitude": 32.85, "longitude": -96.85, "useCount": 0, "id": "KDAL", "name": "KDAL", "quality": 100, "contribution": 0.0}, "72259903971": {"distance": 27659.0, "latitude": 32.681, "longitude": -96.868, "useCount": 0, "id": "72259903971", "name": "DALLAS REDBIRD AIRPORT, TX US", "quality": 99, "contribution": 0.0}, "72104400448": {"distance": 25629.0, "latitude": 32.931, "longitude": -96.435, "useCount": 0, "id": "72104400448", "name": "RALPH M HALL ROCKWALL MUNICIPAL AIRPORT, TX US", "quality": 100, "contribution": 0.0}, "72258013960": {"distance": 14634.0, "latitude": 32.852, "longitude": -96.855, "useCount": 0, "id": "72258013960", "name": "DALLAS FAA AIRPORT, TX US", "quality": 100, "contribution": 0.0}, "KF46": {"distance": 26122.0, "latitude": 32.93, "longitude": -96.43, "useCount": 0, "id": "KF46", "name": "KF46", "quality": 100, "contribution": 0.0}}}