{"queryCost": 1, "latitude": 34.098, "longitude": -118.362, "resolvedAddress": "34.09800,-118.36200", "address": "34.09800,-118.36200", "timezone": "America/Los_Angeles", "tzoffset": -7.0, "days": [{"datetime": "2021-04-24", "datetimeEpoch": 1619247600, "tempmax": 64.1, "tempmin": 54.7, "temp": 59.5, "feelslikemax": 64.1, "feelslikemin": 54.7, "feelslike": 59.5, "dew": 48.7, "humidity": 68.0, "precip": 0.0, "precipprob": 0.0, "precipcover": 0.0, "preciptype": null, "snow": 0.0, "snowdepth": 0.0, "windgust": 18.3, "windspeed": 12.0, "winddir": 202.2, "pressure": 1015.5, "cloudcover": 67.3, "visibility": 9.9, "solarradiation": 223.6, "solarenergy": 19.1, "uvindex": 9.0, "sunrise": "06:11:13", "sunriseEpoch": 1619269873, "sunset": "19:32:20", "sunsetEpoch": 1619317940, "moonphase": 0.45, "conditions": "Partially cloudy", "description": "Partly cloudy throughout the day.", "icon": "partly-cloudy-day", "stations": ["72288593197", "BVRC1", "KBUR", "KCQT", "KSMO", "72288023152", "72287493134"], "source": "obs"}], "stations": {"72288593197": {"distance": 12292.0, "latitude": 34.016, "longitude": -118.451, "useCount": 0, "id": "72288593197", "name": "SANTA MONICA MUNICIPAL AIRPORT, CA US", "quality": 100, "contribution": 0.0}, "BVRC1": {"distance": 5573.0, "latitude": 34.125, "longitude": -118.413, "useCount": 0, "id": "BVRC1", "name": "BEVERLY HILLS CA US", "quality": 0, "contribution": 0.0}, "KBUR": {"distance": 11408.0, "latitude": 34.2, "longitude": -118.35, "useCount": 0, "id": "KBUR", "name": "KBUR", "quality": 100, "contribution": 0.0}, "KCQT": {"distance": 11514.0, "latitude": 34.02, "longitude": -118.28, "useCount": 0, "id": "KCQT", "name": "KCQT", "quality": 100, "contribution": 0.0}, "KSMO": {"distance": 11885.0, "latitude": 34.02, "longitude": -118.45, "useCount": 0, "id": "KSMO", "name": "KSMO", "quality": 97, "contribution": 0.0}, "72288023152": {"distance": 11431.0, "latitude": 34.201, "longitude": -118.357, "useCount": 0, "id": "72288023152", "name": "BURBANK GLENDALE PASADENA AIRPORT, CA US", "quality": 100, "contribution": 0.0}, "72287493134": {"distance": 10558.0, "latitude": 34.024, "longitude": -118.291, "useCount": 0, "id": "72287493134", "name": "LOS ANGELES DOWNTOWN USC, CA US", "quality": 100, "contribution": 0.0}}}