{"queryCost": 1, "latitude": 38.897, "longitude": -104.845, "resolvedAddress": "38.89700,-104.84500", "address": "38.89700,-104.84500", "timezone": "America/Denver", "tzoffset": -6.0, "days": [{"datetime": "2021-04-22", "datetimeEpoch": 1619071200, "tempmax": 55.7, "tempmin": 21.7, "temp": 38.6, "feelslikemax": 55.7, "feelslikemin": 15.3, "feelslike": 35.5, "dew": 24.4, "humidity": 60.6, "precip": 0.0, "precipprob": 0.0, "precipcover": 0.0, "preciptype": null, "snow": 0.0, "snowdepth": 0.0, "windgust": 35.5, "windspeed": 18.4, "winddir": 148.0, "pressure": 1008.7, "cloudcover": 46.1, "visibility": 9.9, "solarradiation": 231.4, "solarenergy": 19.8, "uvindex": 9.0, "sunrise": "06:12:35", "sunriseEpoch": 1619093555, "sunset": "19:43:41", "sunsetEpoch": 1619142221, "moonphase": 0.36, "conditions": "Partially cloudy", "description": "Partly cloudy throughout the day.", "icon": "partly-cloudy-day", "stations": ["74531093065", "KAFF", "C8796", "72466093037", "KFCS", "KCWN", "KCOS"], "source": "obs"}], "stations": {"74531093065": {"distance": 8129.0, "latitude": 38.967, "longitude": -104.817, "useCount": 0, "id": "74531093065", "name": "COLORADO SPRINGS USAF ACADEMY, CO US", "quality": 96, "contribution": 0.0}, "KAFF": {"distance": 8410.0, "latitude": 38.97, "longitude": -104.82, "useCount": 0, "id": "KAFF", "name": "KAFF", "quality": 100, "contribution": 0.0}, "C8796": {"distance": 8648.0, "latitude": 38.826, "longitude": -104.884, "useCount": 0, "id": "C8796", "name": "CW8796 Colorado Springs CO US", "quality": 0, "contribution": 0.0}, "72466093037": {"distance": 16704.0, "latitude": 38.81, "longitude": -104.688, "useCount": 0, "id": "72466093037", "name": "COLORADO SPRINGS MUNICIPAL AIRPORT, CO US", "quality": 100, "contribution": 0.0}, "KFCS": {"distance": 25018.0, "latitude": 38.68, "longitude": -104.77, "useCount": 0, "id": "KFCS", "name": "KFCS", "quality": 100, "contribution": 0.0}, "KCWN": {"distance": 16370.0, "latitude": 38.75, "longitude": -104.85, "useCount": 0, "id": "KCWN", "name": "KCWN", "quality": 90, "contribution": 0.0}, "KCOS": {"distance": 13816.0, "latitude": 38.82, "longitude": -104.72, "useCount": 0, "id": "KCOS", "name": "KCOS", "quality": 100, "contribution": 0.0}}}