{"queryCost": 1, "latitude": 38.878, "longitude": -77.017, "resolvedAddress": "38.87800,-77.01700", "address": "38.87800,-77.01700", "timezone": "America/New_York", "tzoffset": -4.0, "days": [{"datetime": "2021-04-30", "datetimeEpoch": 1619755200, "tempmax": 72.9, "tempmin": 53.8, "temp": 64.9, "feelslikemax": 72.9, "feelslikemin": 53.8, "feelslike": 64.9, "dew": 41.7, "humidity": 45.19, "precip": 0.01, "precipprob": null, "precipcover": 16.67, "preciptype": null, "snow": 0.0, "snowdepth": 0.0, "windgust": 53.5, "windspeed": 31.0, "winddir": 298.2, "pressure": 1006.4, "cloudcover": 58.5, "visibility": 9.7, "solarradiation": 278.7, "solarenergy": 15.0, "uvindex": 7.0, "sunrise": "06:11:09", "sunriseEpoch": 1619777469, "sunset": "20:00:00", "sunsetEpoch": 1619827200, "moonphase": 0.58, "conditions": "Rain, Partially cloudy", "description": "Partly cloudy throughout the day with early morning rain.", "icon": "rain", "stations": ["KDCA", "72405013743", "72403793728", "KADW", "KDAA", "F8307", "74594013705"], "source": "obs"}], "stations": {"KDCA": {"distance": 3314.0, "latitude": 38.85, "longitude": -77.03, "useCount": 0, "id": "KDCA", "name": "KDCA", "quality": 100, "contribution": 0.0}, "72405013743": {"distance": 3749.0, "latitude": 38.847, "longitude": -77.034, "useCount": 0, "id": "72405013743", "name": "WASHINGTON REAGAN NATIONAL AIRPORT, VA US", "quality": 100, "contribution": 0.0}, "72403793728": {"distance": 23034.0, "latitude": 38.717, "longitude": -77.183, "useCount": 0, "id": "72403793728", "name": "DAVISON ARMY AIR FIELD, VA US", "quality": 100, "contribution": 0.0}, "KADW": {"distance": 14286.0, "latitude": 38.82, "longitude": -76.87, "useCount": 0, "id": "KADW", "name": "KADW", "quality": 100, "contribution": 0.0}, "KDAA": {"distance": 22568.0, "latitude": 38.72, "longitude": -77.18, "useCount": 0, "id": "KDAA", "name": "KDAA", "quality": 100, "contribution": 0.0}, "F8307": {"distance": 4243.0, "latitude": 38.908, "longitude": -76.986, "useCount": 0, "id": "F8307", "name": "FW8307 Washington Dc DC US", "quality": 0, "contribution": 0.0}, "74594013705": {"distance": 14709.0, "latitude": 38.817, "longitude": -76.867, "useCount": 0, "id": "74594013705", "name": "CAMP SPRINGS ANDREWS AFB, MD US", "quality": 100, "contribution": 0.0}}}