{"queryCost": 1, "latitude": 40.061, "longitude": -79.436, "resolvedAddress": "40.06100,-79.43600", "address": "40.06100,-79.43600", "timezone": "America/New_York", "tzoffset": -4.0, "days": [{"datetime": "2021-04-13", "datetimeEpoch": 1618286400, "tempmax": 63.2, "tempmin": 45.1, "temp": 53.4, "feelslikemax": 63.2, "feelslikemin": 43.1, "feelslike": 53.0, "dew": 42.4, "humidity": 70.2, "precip": 0.0, "precipprob": 0.0, "precipcover": 0.0, "preciptype": null, "snow": 0.0, "snowdepth": 0.0, "windgust": 19.7, "windspeed": 7.8, "winddir": 285.4, "pressure": 1017.3, "cloudcover": 56.6, "visibility": 8.5, "solarradiation": 192.7, "solarenergy": 16.7, "uvindex": 8.0, "sunrise": "06:42:22", "sunriseEpoch": 1618310542, "sunset": "19:54:40", "sunsetEpoch": 1618358080, "moonphase": 0.01, "conditions": "Partially cloudy", "description": "Partly cloudy throughout the day.", "icon": "partly-cloudy-day", "stations": ["KAGC", "KMGW", "KJST", "72520514762", "72512704726", "K2G9", "QTRP1"], "source": "obs"}], "stations": {"KAGC": {"distance": 52905.0, "latitude": 40.35, "longitude": -79.93, "useCount": 0, "id": "KAGC", "name": "KAGC", "quality": 100, "contribution": 0.0}, "KMGW": {"distance": 61676.0, "latitude": 39.65, "longitude": -79.92, "useCount": 0, "id": "KMGW", "name": "KMGW", "quality": 100, "contribution": 0.0}, "KJST": {"distance": 59050.0, "latitude": 40.32, "longitude": -78.83, "useCount": 0, "id": "KJST", "name": "KJST", "quality": 100, "contribution": 0.0}, "72520514762": {"distance": 52668.0, "latitude": 40.355, "longitude": -79.922, "useCount": 0, "id": "72520514762", "name": "PITTSBURGH ALLEGHENY CO AIRPORT, PA US", "quality": 100, "contribution": 0.0}, "72512704726": {"distance": 58550.0, "latitude": 40.316, "longitude": -78.834, "useCount": 0, "id": "72512704726", "name": "JOHNSTOWN CAMBRIA CO AIRPORT, PA US", "quality": 100, "contribution": 0.0}, "K2G9": {"distance": 36467.0, "latitude": 40.03, "longitude": -79.01, "useCount": 0, "id": "K2G9", "name": "K2G9", "quality": 100, "contribution": 0.0}, "QTRP1": {"distance": 20287.0, "latitude": 40.131, "longitude": -79.216, "useCount": 0, "id": "QTRP1", "name": "QUARRY TRAIL PA US", "quality": 0, "contribution": 0.0}}}