{"queryCost": 1, "latitude": 32.72, "longitude": -117.153, "resolvedAddress": "32.72000,-117.15300", "address": "32.72000,-117.15300", "timezone": "America/Los_Angeles", "tzoffset": -7.0, "days": [{"datetime": "2021-04-13", "datetimeEpoch": 1618297200, "tempmax": 60.7, "tempmin": 58.4, "temp": 59.8, "feelslikemax": 60.7, "feelslikemin": 58.4, "feelslike": 59.8, "dew": 48.8, "humidity": 67.2, "precip": 0.0, "precipprob": 0.0, "precipcover": 0.0, "preciptype": null, "snow": 0.0, "snowdepth": 0.0, "windgust": 17.2, "windspeed": 9.9, "winddir": 224.0, "pressure": 1013.8, "cloudcover": 99.0, "visibility": 9.9, "solarradiation": 63.2, "solarenergy": 5.5, "uvindex": 3.0, "sunrise": "06:20:57", "sunriseEpoch": 1618320057, "sunset": "19:17:36", "sunsetEpoch": 1618366656, "moonphase": 0.01, "conditions": "Overcast", "description": "Cloudy skies throughout the day.", "icon": "cloudy", "stations": ["KNZY", "KSAN", "72290693112", "72290023188", "KMYF", "E8360", "72290303131"], "source": "obs"}], "stations": {"KNZY": {"distance": 6659.0, "latitude": 32.7, "longitude": -117.22, "useCount": 0, "id": "KNZY", "name": "KNZY", "quality": 100, "contribution": 0.0}, "KSAN": {"distance": 1943.0, "latitude": 32.73, "longitude": -117.17, "useCount": 0, "id": "KSAN", "name": "SAN DIEGO/LINDBE, CA", "quality": 100, "contribution": 0.0}, "72290693112": {"distance": 4933.0, "latitude": 32.7, "longitude": -117.2, "useCount": 0, "id": "72290693112", "name": "NORTH ISLAND NAS, CA US", "quality": 100, "contribution": 0.0}, "72290023188": {"distance": 3191.0, "latitude": 32.734, "longitude": -117.183, "useCount": 0, "id": "72290023188", "name": "SAN DIEGO INTERNATIONAL AIRPORT, CA US", "quality": 100, "contribution": 0.0}, "KMYF": {"distance": 11338.0, "latitude": 32.82, "longitude": -117.13, "useCount": 0, "id": "KMYF", "name": "KMYF", "quality": 100, "contribution": 0.0}, "E8360": {"distance": 4543.0, "latitude": 32.761, "longitude": -117.159, "useCount": 0, "id": "E8360", "name": "EW8360 San Diego CA US", "quality": 0, "contribution": 0.0}, "72290303131": {"distance": 10745.0, "latitude": 32.816, "longitude": -117.139, "useCount": 0, "id": "72290303131", "name": "SAN DIEGO MONTGOMERY FIELD, CA US", "quality": 100, "contribution": 0.0}}}