{"queryCost": 1, "latitude": 44.07, "longitude": -103.091, "resolvedAddress": "44.07000,-103.09100", "address": "44.07000,-103.09100", "timezone": "America/Denver", "tzoffset": -6.0, "days": [{"datetime": "2021-05-14", "datetimeEpoch": 1620972000, "tempmax": 65.9, "tempmin": 39.7, "temp": 55.6, "feelslikemax": 65.9, "feelslikemin": 34.4, "feelslike": 54.0, "dew": 38.5, "humidity": 55.9, "precip": 0.0, "precipprob": 0.0, "precipcover": 0.0, "preciptype": null, "snow": 0.0, "snowdepth": 0.0, "windgust": 17.2, "windspeed": 11.5, "winddir": 259.5, "pressure": 1018.3, "cloudcover": 15.1, "visibility": 9.9, "solarradiation": 209.0, "solarenergy": 17.9, "uvindex": 7.0, "sunrise": "05:26:49", "sunriseEpoch": 1620991609, "sunset": "20:11:20", "sunsetEpoch": 1621044680, "moonphase": 0.03, "conditions": "Clear", "description": "Clear conditions throughout the day.", "icon": "clear-day", "stations": ["KCUT", "KRAP", "KRCA", "72651494032", "E3881", "72662524006", "72662024090"], "source": "obs"}], "stations": {"KCUT": {"distance": 56859.0, "latitude": 43.73, "longitude": -103.62, "useCount": 0, "id": "KCUT", "name": "KCUT", "quality": 100, "contribution": 0.0}, "KRAP": {"distance": 3333.0, "latitude": 44.05, "longitude": -103.06, "useCount": 0, "id": "KRAP", "name": "KRAP", "quality": 100, "contribution": 0.0}, "KRCA": {"distance": 8935.0, "latitude": 44.15, "longitude": -103.1, "useCount": 0, "id": "KRCA", "name": "KRCA", "quality": 100, "contribution": 0.0}, "72651494032": {"distance": 56090.0, "latitude": 43.733, "longitude": -103.611, "useCount": 0, "id": "72651494032", "name": "CUSTER CO AIRPORT, SD US", "quality": 100, "contribution": 0.0}, "E3881": {"distance": 4430.0, "latitude": 44.106, "longitude": -103.068, "useCount": 0, "id": "E3881", "name": "EW3881 Box Elder SD US", "quality": 0, "contribution": 0.0}, "72662524006": {"distance": 8935.0, "latitude": 44.15, "longitude": -103.1, "useCount": 0, "id": "72662524006", "name": "ELLSWORTH AFB, SD US", "quality": 100, "contribution": 0.0}, "72662024090": {"distance": 4002.0, "latitude": 44.046, "longitude": -103.054, "useCount": 0, "id": "72662024090", "name": "RAPID CITY REGIONAL AIRPORT, SD US", "quality": 100, "contribution": 0.0}}}