{"queryCost": 1, "latitude": 26.552, "longitude": -80.092, "resolvedAddress": "26.55200,-80.09200", "address": "26.55200,-80.09200", "timezone": "America/New_York", "tzoffset": -4.0, "days": [{"datetime": "2021-05-11", "datetimeEpoch": 1620705600, "tempmax": 89.2, "tempmin": 76.3, "temp": 82.5, "feelslikemax": 95.3, "feelslikemin": 76.3, "feelslike": 86.1, "dew": 71.4, "humidity": 70.2, "precip": 0.0, "precipprob": 0.0, "precipcover": 0.0, "preciptype": null, "snow": 0.0, "snowdepth": 0.0, "windgust": 19.7, "windspeed": 14.8, "winddir": 120.7, "pressure": 1018.1, "cloudcover": 46.1, "visibility": 9.9, "solarradiation": 262.4, "solarenergy": 22.6, "uvindex": 9.0, "sunrise": "06:35:25", "sunriseEpoch": 1620729325, "sunset": "19:58:25", "sunsetEpoch": 1620777505, "moonphase": 1.0, "conditions": "Partially cloudy", "description": "Partly cloudy throughout the day.", "icon": "partly-cloudy-day", "stations": ["72203012844", "72204992805", "IRS02", "72203912885", "KPMP", "KFXE", "0205W", "KPBI"], "source": "obs"}], "stations": {"72203012844": {"distance": 14790.0, "latitude": 26.685, "longitude": -80.099, "useCount": 0, "id": "72203012844", "name": "WEST PALM BEACH INTERNATIONAL AIRPORT, FL US", "quality": 100, "contribution": 0.0}, "72204992805": {"distance": 33658.0, "latitude": 26.25, "longitude": -80.108, "useCount": 0, "id": "72204992805", "name": "POMPANO BEACH AIRPARK, FL US", "quality": 99, "contribution": 0.0}, "IRS02": {"distance": 2478.0, "latitude": 26.532, "longitude": -80.104, "useCount": 0, "id": "IRS02", "name": "SBA 02", "quality": 0, "contribution": 0.0}, "72203912885": {"distance": 40303.0, "latitude": 26.197, "longitude": -80.171, "useCount": 0, "id": "72203912885", "name": "FORT LAUDERDALE EXECUTIVE AIRPORT, FL US", "quality": 99, "contribution": 0.0}, "KPMP": {"distance": 33666.0, "latitude": 26.25, "longitude": -80.11, "useCount": 0, "id": "KPMP", "name": "KPMP", "quality": 100, "contribution": 0.0}, "KFXE": {"distance": 39949.0, "latitude": 26.2, "longitude": -80.17, "useCount": 0, "id": "KFXE", "name": "KFXE", "quality": 100, "contribution": 0.0}, "0205W": {"distance": 1559.0, "latitude": 26.54, "longitude": -80.083, "useCount": 0, "id": "0205W", "name": "Boynton Beach Community High Sch FL US WEATHERSTEM", "quality": 0, "contribution": 0.0}, "KPBI": {"distance": 14519.0, "latitude": 26.68, "longitude": -80.12, "useCount": 0, "id": "KPBI", "name": "KPBI", "quality": 100, "contribution": 0.0}}}