{"queryCost": 1, "latitude": 41.22, "longitude": -95.975, "resolvedAddress": "41.22000,-95.97500", "address": "41.22000,-95.97500", "timezone": "America/Chicago", "tzoffset": -5.0, "days": [{"datetime": "2021-05-16", "datetimeEpoch": 1621141200, "tempmax": 63.3, "tempmin": 58.8, "temp": 60.6, "feelslikemax": 63.3, "feelslikemin": 58.8, "feelslike": 60.6, "dew": 57.1, "humidity": 88.2, "precip": 0.31, "precipprob": 100.0, "precipcover": 41.67, "preciptype": ["rain"], "snow": 0.0, "snowdepth": 0.0, "windgust": 17.2, "windspeed": 9.7, "winddir": 120.9, "pressure": 1016.4, "cloudcover": 78.8, "visibility": 8.0, "solarradiation": 57.2, "solarenergy": 5.0, "uvindex": 3.0, "sunrise": "06:04:17", "sunriseEpoch": 1621163057, "sunset": "20:36:55", "sunsetEpoch": 1621215415, "moonphase": 0.09, "conditions": "Rain, Partially cloudy", "description": "Partly cloudy throughout the day with rain.", "icon": "rain", "stations": ["E6254", "KOFF", "KMLE", "72030804992", "KOMA", "72550014942", "72554014949"], "source": "obs"}], "stations": {"E6254": {"distance": 5355.0, "latitude": 41.259, "longitude": -96.013, "useCount": 0, "id": "E6254", "name": "EW6254 Omaha NE US", "quality": 0, "contribution": 0.0}, "KOFF": {"distance": 12048.0, "latitude": 41.12, "longitude": -95.92, "useCount": 0, "id": "KOFF", "name": "KOFF", "quality": 100, "contribution": 0.0}, "KMLE": {"distance": 11523.0, "latitude": 41.2, "longitude": -96.11, "useCount": 0, "id": "KMLE", "name": "KMLE", "quality": 100, "contribution": 0.0}, "72030804992": {"distance": 11770.0, "latitude": 41.196, "longitude": -96.112, "useCount": 0, "id": "72030804992", "name": "MILLARD AIRPORT OMAHA, NE US", "quality": 96, "contribution": 0.0}, "KOMA": {"distance": 10895.0, "latitude": 41.3, "longitude": -95.9, "useCount": 0, "id": "KOMA", "name": "KOMA", "quality": 100, "contribution": 0.0}, "72550014942": {"distance": 11881.0, "latitude": 41.31, "longitude": -95.899, "useCount": 0, "id": "72550014942", "name": "OMAHA EPPLEY AIRFIELD, NE US", "quality": 100, "contribution": 0.0}, "72554014949": {"distance": 12494.0, "latitude": 41.117, "longitude": -95.917, "useCount": 0, "id": "72554014949", "name": "BELLEVUE OFFUTT AFB, NE US", "quality": 100, "contribution": 0.0}}}