{"queryCost": 1, "latitude": 42.548, "longitude": -84.854, "resolvedAddress": "42.54800,-84.85400", "address": "42.54800,-84.85400", "timezone": "America/Detroit", "tzoffset": -4.0, "days": [{"datetime": "2021-05-19", "datetimeEpoch": 1621396800, "tempmax": 83.2, "tempmin": 59.3, "temp": 71.0, "feelslikemax": 82.0, "feelslikemin": 59.3, "feelslike": 70.9, "dew": 52.7, "humidity": 53.4, "precip": 0.0, "precipprob": 0.0, "precipcover": 0.0, "preciptype": null, "snow": 0.0, "snowdepth": 0.0, "windgust": 20.8, "windspeed": 13.8, "winddir": 128.7, "pressure": 1024.6, "cloudcover": 28.3, "visibility": 9.9, "solarradiation": 180.4, "solarenergy": 15.8, "uvindex": 7.0, "sunrise": "06:13:23", "sunriseEpoch": 1621419203, "sunset": "20:59:06", "sunsetEpoch": 1621472346, "moonphase": 0.23, "conditions": "Partially cloudy", "description": "Becoming cloudy in the afternoon.", "icon": "partly-cloudy-day", "stations": ["72539014836", "MICLT", "72541554821", "72028404877", "KFPK", "KLAN"], "source": "obs"}], "stations": {"72539014836": {"distance": 32834.0, "latitude": 42.776, "longitude": -84.6, "useCount": 0, "id": "72539014836", "name": "LANSING CAPITAL CITY AIRPORT, MI US", "quality": 100, "contribution": 0.0}, "MICLT": {"distance": 12531.0, "latitude": 42.651, "longitude": -84.916, "useCount": 0, "id": "MICLT", "name": "Charlotte MI US MAWN", "quality": 0, "contribution": 0.0}, "72541554821": {"distance": 34090.0, "latitude": 42.251, "longitude": -84.956, "useCount": 0, "id": "72541554821", "name": "MARSHALL BROOKS FIELD AIRPORT, MI US", "quality": 100, "contribution": 0.0}, "72028404877": {"distance": 4565.0, "latitude": 42.574, "longitude": -84.811, "useCount": 0, "id": "72028404877", "name": "CHARLOTTE FITCH H BEACH AIRPORT, MI US", "quality": 100, "contribution": 0.0}, "KFPK": {"distance": 4361.0, "latitude": 42.57, "longitude": -84.81, "useCount": 0, "id": "KFPK", "name": "KFPK", "quality": 100, "contribution": 0.0}, "KLAN": {"distance": 32297.0, "latitude": 42.77, "longitude": -84.6, "useCount": 0, "id": "KLAN", "name": "KLAN", "quality": 100, "contribution": 0.0}}}