{"queryCost": 1, "latitude": 39.673, "longitude": -105.025, "resolvedAddress": "39.67300,-105.02500", "address": "39.67300,-105.02500", "timezone": "America/Denver", "tzoffset": -6.0, "days": [{"datetime": "2021-05-19", "datetimeEpoch": 1621404000, "tempmax": 71.3, "tempmin": 44.9, "temp": 58.0, "feelslikemax": 71.3, "feelslikemin": 40.9, "feelslike": 56.7, "dew": 41.8, "humidity": 58.6, "precip": 0.0, "precipprob": 0.0, "precipcover": 0.0, "preciptype": null, "snow": 0.0, "snowdepth": 0.0, "windgust": 29.8, "windspeed": 14.1, "winddir": 181.1, "pressure": 1008.5, "cloudcover": 50.5, "visibility": 9.9, "solarradiation": 297.8, "solarenergy": 25.7, "uvindex": 10.0, "sunrise": "05:42:01", "sunriseEpoch": 1621424521, "sunset": "20:11:46", "sunsetEpoch": 1621476706, "moonphase": 0.23, "conditions": "Partially cloudy", "description": "Partly cloudy throughout the day.", "icon": "partly-cloudy-day", "stations": ["KBKF", "KDEN", "KAPA", "72469523036", "E7168", "72565003017", "72466693067"], "source": "obs"}], "stations": {"KBKF": {"distance": 24129.0, "latitude": 39.72, "longitude": -104.75, "useCount": 0, "id": "KBKF", "name": "KBKF", "quality": 100, "contribution": 0.0}, "KDEN": {"distance": 36824.0, "latitude": 39.86, "longitude": -104.67, "useCount": 0, "id": "KDEN", "name": "KDEN", "quality": 100, "contribution": 0.0}, "KAPA": {"distance": 18885.0, "latitude": 39.57, "longitude": -104.85, "useCount": 0, "id": "KAPA", "name": "KAPA", "quality": 100, "contribution": 0.0}, "72469523036": {"distance": 24052.0, "latitude": 39.717, "longitude": -104.75, "useCount": 0, "id": "72469523036", "name": "AURORA BUCKLEY FIELD ANGB, CO US", "quality": 100, "contribution": 0.0}, "E7168": {"distance": 3137.0, "latitude": 39.685, "longitude": -105.058, "useCount": 0, "id": "E7168", "name": "EW7168 Golden CO US", "quality": 0, "contribution": 0.0}, "72565003017": {"distance": 36097.0, "latitude": 39.833, "longitude": -104.658, "useCount": 0, "id": "72565003017", "name": "DENVER INTERNATIONAL AIRPORT, CO US", "quality": 100, "contribution": 0.0}, "72466693067": {"distance": 18933.0, "latitude": 39.57, "longitude": -104.849, "useCount": 0, "id": "72466693067", "name": "DENVER CENTENNIAL AIRPORT, CO US", "quality": 100, "contribution": 0.0}}}