{"queryCost": 1, "latitude": 38.212, "longitude": -90.008, "resolvedAddress": "38.21200,-90.00800", "address": "38.21200,-90.00800", "timezone": "America/Chicago", "tzoffset": -5.0, "days": [{"datetime": "2021-05-23", "datetimeEpoch": 1621746000, "tempmax": 87.6, "tempmin": 60.8, "temp": 75.3, "feelslikemax": 87.4, "feelslikemin": 60.8, "feelslike": 75.5, "dew": 62.6, "humidity": 68.7, "precip": 0.0, "precipprob": 0.0, "precipcover": 0.0, "preciptype": null, "snow": 0.0, "snowdepth": 0.0, "windgust": null, "windspeed": 5.8, "winddir": 117.4, "pressure": 1022.8, "cloudcover": 19.0, "visibility": 9.4, "solarradiation": 308.0, "solarenergy": 26.4, "uvindex": 10.0, "sunrise": "05:43:00", "sunriseEpoch": 1621766580, "sunset": "20:11:09", "sunsetEpoch": 1621818669, "moonphase": 0.44, "conditions": "Clear", "description": "Clear conditions throughout the day.", "icon": "clear-day", "stations": ["KBLV", "KCPS", "KSAR", "72433813802", "72531403960", "F7051"], "source": "obs"}], "stations": {"KBLV": {"distance": 39030.0, "latitude": 38.54, "longitude": -89.85, "useCount": 0, "id": "KBLV", "name": "KBLV", "quality": 100, "contribution": 0.0}, "KCPS": {"distance": 41734.0, "latitude": 38.57, "longitude": -90.15, "useCount": 0, "id": "KCPS", "name": "KCPS", "quality": 100, "contribution": 0.0}, "KSAR": {"distance": 27821.0, "latitude": 38.15, "longitude": -89.7, "useCount": 0, "id": "KSAR", "name": "KSAR", "quality": 90, "contribution": 0.0}, "72433813802": {"distance": 40073.0, "latitude": 38.55, "longitude": -89.85, "useCount": 0, "id": "72433813802", "name": "BELLEVILLE SCOTT AFB, IL US", "quality": 99, "contribution": 0.0}, "72531403960": {"distance": 42073.0, "latitude": 38.571, "longitude": -90.157, "useCount": 0, "id": "72531403960", "name": "CAHOKIA ST LOUIS DOWNTOWN AIRPORT, IL US", "quality": 100, "contribution": 0.0}, "F7051": {"distance": 28538.0, "latitude": 38.018, "longitude": -90.221, "useCount": 0, "id": "F7051", "name": "FW7051 Bloomsdale MO US", "quality": 0, "contribution": 0.0}}}