{"queryCost": 1, "latitude": 38.846, "longitude": -76.986, "resolvedAddress": "38.84600,-76.98600", "address": "38.84600,-76.98600", "timezone": "America/New_York", "tzoffset": -4.0, "days": [{"datetime": "2021-05-24", "datetimeEpoch": 1621828800, "tempmax": 83.5, "tempmin": 60.6, "temp": 68.2, "feelslikemax": 83.9, "feelslikemin": 60.6, "feelslike": 68.3, "dew": 57.5, "humidity": 69.5, "precip": 0.33, "precipprob": null, "precipcover": 37.5, "preciptype": null, "snow": 0.0, "snowdepth": 0.0, "windgust": 21.9, "windspeed": 15.5, "winddir": 105.2, "pressure": 1022.7, "cloudcover": 95.7, "visibility": 9.0, "solarradiation": 82.6, "solarenergy": 4.5, "uvindex": 2.0, "sunrise": "05:48:37", "sunriseEpoch": 1621849717, "sunset": "20:21:32", "sunsetEpoch": 1621902092, "moonphase": 0.47, "conditions": "Rain, Overcast", "description": "Cloudy skies throughout the day with rain.", "icon": "rain", "stations": ["KDCA", "72405013743", "72403793728", "KADW", "KDAA", "F8307", "74594013705"], "source": "obs"}], "stations": {"KDCA": {"distance": 3841.0, "latitude": 38.85, "longitude": -77.03, "useCount": 0, "id": "KDCA", "name": "KDCA", "quality": 100, "contribution": 0.0}, "72405013743": {"distance": 4207.0, "latitude": 38.847, "longitude": -77.034, "useCount": 0, "id": "72405013743", "name": "WASHINGTON REAGAN NATIONAL AIRPORT, VA US", "quality": 100, "contribution": 0.0}, "72403793728": {"distance": 22368.0, "latitude": 38.717, "longitude": -77.183, "useCount": 0, "id": "72403793728", "name": "DAVISON ARMY AIR FIELD, VA US", "quality": 100, "contribution": 0.0}, "KADW": {"distance": 10467.0, "latitude": 38.82, "longitude": -76.87, "useCount": 0, "id": "KADW", "name": "KADW", "quality": 100, "contribution": 0.0}, "KDAA": {"distance": 21912.0, "latitude": 38.72, "longitude": -77.18, "useCount": 0, "id": "KDAA", "name": "KDAA", "quality": 100, "contribution": 0.0}, "F8307": {"distance": 6868.0, "latitude": 38.908, "longitude": -76.986, "useCount": 0, "id": "F8307", "name": "FW8307 Washington Dc DC US", "quality": 0, "contribution": 0.0}, "74594013705": {"distance": 10847.0, "latitude": 38.817, "longitude": -76.867, "useCount": 0, "id": "74594013705", "name": "CAMP SPRINGS ANDREWS AFB, MD US", "quality": 100, "contribution": 0.0}}}