{"queryCost": 1, "latitude": 38.93, "longitude": -92.308, "resolvedAddress": "38.93000,-92.30800", "address": "38.93000,-92.30800", "timezone": "America/Chicago", "tzoffset": -5.0, "days": [{"datetime": "2021-05-26", "datetimeEpoch": 1622005200, "tempmax": 84.1, "tempmin": 66.2, "temp": 74.2, "feelslikemax": 84.9, "feelslikemin": 66.2, "feelslike": 74.6, "dew": 64.5, "humidity": 74.1, "precip": 0.0, "precipprob": 0.0, "precipcover": 0.0, "preciptype": null, "snow": 0.0, "snowdepth": 0.0, "windgust": null, "windspeed": 9.0, "winddir": 197.0, "pressure": 1017.6, "cloudcover": 47.5, "visibility": 9.1, "solarradiation": 216.5, "solarenergy": 18.8, "uvindex": 10.0, "sunrise": "05:48:27", "sunriseEpoch": 1622026107, "sunset": "20:24:41", "sunsetEpoch": 1622078681, "moonphase": 0.5, "conditions": "Partially cloudy", "description": "Partly cloudy throughout the day.", "icon": "partly-cloudy-day", "stations": ["72445803963", "KJEF", "72086900295", "KVER", "72445003945", "KCOU", "D0359"], "source": "obs"}], "stations": {"72445803963": {"distance": 39973.0, "latitude": 38.591, "longitude": -92.156, "useCount": 0, "id": "72445803963", "name": "JEFFERSON CITY MEMORIAL AIRPORT, MO US", "quality": 100, "contribution": 0.0}, "KJEF": {"distance": 41306.0, "latitude": 38.58, "longitude": -92.15, "useCount": 0, "id": "KJEF", "name": "KJEF", "quality": 100, "contribution": 0.0}, "72086900295": {"distance": 32525.0, "latitude": 38.947, "longitude": -92.683, "useCount": 0, "id": "72086900295", "name": "JESSE VIERTEL MEMORIAL AIRPORT, MO US", "quality": 100, "contribution": 0.0}, "KVER": {"distance": 32231.0, "latitude": 38.94, "longitude": -92.68, "useCount": 0, "id": "KVER", "name": "KVER", "quality": 85, "contribution": 0.0}, "72445003945": {"distance": 14797.0, "latitude": 38.817, "longitude": -92.218, "useCount": 0, "id": "72445003945", "name": "COLUMBIA REGIONAL AIRPORT, MO US", "quality": 100, "contribution": 0.0}, "KCOU": {"distance": 14426.0, "latitude": 38.82, "longitude": -92.22, "useCount": 0, "id": "KCOU", "name": "KCOU", "quality": 100, "contribution": 0.0}, "D0359": {"distance": 4745.0, "latitude": 38.94, "longitude": -92.361, "useCount": 0, "id": "D0359", "name": "DW0359 Columbia MO US", "quality": 0, "contribution": 0.0}}}