{"queryCost": 1, "latitude": 38.197, "longitude": -120.682, "resolvedAddress": "38.19700,-120.68200", "address": "38.19700,-120.68200", "timezone": "America/Los_Angeles", "tzoffset": -7.0, "days": [{"datetime": "2021-05-06", "datetimeEpoch": 1620284400, "tempmax": 79.9, "tempmin": 54.7, "temp": 67.2, "feelslikemax": 79.9, "feelslikemin": 54.7, "feelslike": 67.2, "dew": 40.6, "humidity": 41.41, "precip": 0.0, "precipprob": null, "precipcover": 0.0, "preciptype": null, "snow": 0.0, "snowdepth": 0.0, "windgust": 30.0, "windspeed": 14.0, "winddir": 196.0, "pressure": 1015.5, "cloudcover": 0.5, "visibility": 9.9, "solarradiation": 426.3, "solarenergy": 23.0, "uvindex": 8.0, "sunrise": "06:00:11", "sunriseEpoch": 1620306011, "sunset": "19:59:03", "sunsetEpoch": 1620356343, "moonphase": 0.89, "conditions": "Clear", "description": "Clear conditions throughout the day.", "icon": "clear-day", "stations": ["KSCK", "KMOD", "KPVF", "72068199999", "AV688", "72492023237", "72064500227"], "source": "obs"}], "stations": {"KSCK": {"distance": 59769.0, "latitude": 37.9, "longitude": -121.25, "useCount": 0, "id": "KSCK", "name": "KSCK", "quality": 100, "contribution": 0.0}, "KMOD": {"distance": 67364.0, "latitude": 37.63, "longitude": -120.95, "useCount": 0, "id": "KMOD", "name": "KMOD", "quality": 100, "contribution": 0.0}, "KPVF": {"distance": 58521.0, "latitude": 38.72, "longitude": -120.75, "useCount": 0, "id": "KPVF", "name": "KPVF", "quality": 94, "contribution": 0.0}, "72068199999": {"distance": 6400.0, "latitude": 38.146, "longitude": -120.648, "useCount": 0, "id": "72068199999", "name": "CALAVERAS CO MAURY RASMUSSEN FIELD, CA US", "quality": 50, "contribution": 0.0}, "AV688": {"distance": 15044.0, "latitude": 38.064, "longitude": -120.653, "useCount": 0, "id": "AV688", "name": "KG5SWO Angels Camp CA US", "quality": 0, "contribution": 0.0}, "72492023237": {"distance": 58731.0, "latitude": 37.889, "longitude": -121.226, "useCount": 0, "id": "72492023237", "name": "STOCKTON METROPOLITAN AIRPORT, CA US", "quality": 100, "contribution": 0.0}, "72064500227": {"distance": 58189.0, "latitude": 38.717, "longitude": -120.75, "useCount": 0, "id": "72064500227", "name": "PLACERVILLE AIRPORT, CA US", "quality": 95, "contribution": 0.0}}}