{"queryCost": 1, "latitude": 29.692, "longitude": -91.221, "resolvedAddress": "29.69200,-91.22100", "address": "29.69200,-91.22100", "timezone": "America/Chicago", "tzoffset": -5.0, "days": [{"datetime": "2021-06-01", "datetimeEpoch": 1622523600, "tempmax": 84.6, "tempmin": 71.3, "temp": 77.8, "feelslikemax": 92.0, "feelslikemin": 71.3, "feelslike": 80.5, "dew": 73.6, "humidity": 87.77, "precip": 0.02, "precipprob": null, "precipcover": 16.67, "preciptype": null, "snow": 0.0, "snowdepth": 0.0, "windgust": 24.2, "windspeed": 16.1, "winddir": 133.6, "pressure": 1018.3, "cloudcover": 32.8, "visibility": 9.8, "solarradiation": 471.9, "solarenergy": 25.5, "uvindex": 10.0, "sunrise": "06:04:58", "sunriseEpoch": 1622545498, "sunset": "20:00:54", "sunsetEpoch": 1622595654, "moonphase": 0.71, "conditions": "Rain, Partially cloudy", "description": "Partly cloudy throughout the day with rain.", "icon": "rain", "stations": ["E5037", "72232912936", "72104600460", "KARA", "72240312968", "KPTN", "KP92"], "source": "obs"}], "stations": {"E5037": {"distance": 55897.0, "latitude": 29.537, "longitude": -90.672, "useCount": 0, "id": "E5037", "name": "EW5037 Houma LA US", "quality": 0, "contribution": 0.0}, "72232912936": {"distance": 11201.0, "latitude": 29.717, "longitude": -91.333, "useCount": 0, "id": "72232912936", "name": "PATTERSON, LA US", "quality": 100, "contribution": 0.0}, "72104600460": {"distance": 59960.0, "latitude": 30.173, "longitude": -90.941, "useCount": 0, "id": "72104600460", "name": "LOUISIANA REGIONAL AIRPORT, LA US", "quality": 100, "contribution": 0.0}, "KARA": {"distance": 73913.0, "latitude": 30.03, "longitude": -91.88, "useCount": 0, "id": "KARA", "name": "KARA", "quality": 100, "contribution": 0.0}, "72240312968": {"distance": 32826.0, "latitude": 29.562, "longitude": -91.526, "useCount": 0, "id": "72240312968", "name": "SALT POINT, LA US", "quality": 100, "contribution": 0.0}, "KPTN": {"distance": 10990.0, "latitude": 29.72, "longitude": -91.33, "useCount": 0, "id": "KPTN", "name": "PATTERSON, LA", "quality": 100, "contribution": 0.0}, "KP92": {"distance": 32839.0, "latitude": 29.57, "longitude": -91.53, "useCount": 0, "id": "KP92", "name": "KP92", "quality": 98, "contribution": 0.0}}}