{"queryCost": 1, "latitude": 32.754, "longitude": -97.331, "resolvedAddress": "32.75400,-97.33100", "address": "32.75400,-97.33100", "timezone": "America/Chicago", "tzoffset": -5.0, "days": [{"datetime": "2015-07-30", "datetimeEpoch": 1438232400, "tempmax": 102.7, "tempmin": 81.7, "temp": 92.7, "feelslikemax": 104.0, "feelslikemin": 84.3, "feelslike": 94.9, "dew": 64.0, "humidity": 41.0, "precip": 0.0, "precipprob": 0.0, "precipcover": 0.0, "preciptype": null, "snow": 0.0, "snowdepth": 0.0, "windgust": null, "windspeed": 8.0, "winddir": 124.1, "pressure": 1016.1, "cloudcover": 4.0, "visibility": 9.9, "solarradiation": 319.8, "solarenergy": 27.6, "uvindex": 10.0, "sunrise": "06:41:42", "sunriseEpoch": 1438256502, "sunset": "20:29:24", "sunsetEpoch": 1438306164, "moonphase": 0.49, "conditions": "Clear", "description": "Clear conditions throughout the day.", "icon": "clear-day", "stations": ["72247953907", "74739013961", "KAFW", "KNFW", "72259513911", "KFTW"], "source": "obs"}], "stations": {"72247953907": {"distance": 24382.0, "latitude": 32.664, "longitude": -97.094, "useCount": 0, "id": "72247953907", "name": "ARLINGTON MUNICIPAL AIRPORT, TX US", "quality": 100, "contribution": 0.0}, "74739013961": {"distance": 7796.0, "latitude": 32.819, "longitude": -97.361, "useCount": 0, "id": "74739013961", "name": "FORT WORTH MEACHAM FIELD, TX US", "quality": 100, "contribution": 0.0}, "KAFW": {"distance": 24067.0, "latitude": 32.97, "longitude": -97.32, "useCount": 0, "id": "KAFW", "name": "KAFW", "quality": 100, "contribution": 0.0}, "KNFW": {"distance": 11281.0, "latitude": 32.77, "longitude": -97.45, "useCount": 0, "id": "KNFW", "name": "KNFW", "quality": 100, "contribution": 0.0}, "72259513911": {"distance": 11229.0, "latitude": 32.767, "longitude": -97.45, "useCount": 0, "id": "72259513911", "name": "FORT WORTH NAS, TX US", "quality": 100, "contribution": 0.0}, "KFTW": {"distance": 8204.0, "latitude": 32.82, "longitude": -97.37, "useCount": 0, "id": "KFTW", "name": "FT WORTH/MEACHAM, TX", "quality": 100, "contribution": 0.0}}}