{"queryCost": 1, "latitude": 42.996, "longitude": -87.951, "resolvedAddress": "42.99600,-87.95100", "address": "42.99600,-87.95100", "timezone": "America/Chicago", "tzoffset": -5.0, "days": [{"datetime": "2021-05-31", "datetimeEpoch": 1622437200, "tempmax": 73.2, "tempmin": 54.0, "temp": 64.4, "feelslikemax": 73.2, "feelslikemin": 54.0, "feelslike": 64.4, "dew": 40.6, "humidity": 42.3, "precip": 0.0, "precipprob": 0.0, "precipcover": 0.0, "preciptype": null, "snow": 0.0, "snowdepth": 0.0, "windgust": 22.9, "windspeed": 16.9, "winddir": 193.9, "pressure": 1023.1, "cloudcover": 79.5, "visibility": 9.9, "solarradiation": 126.9, "solarenergy": 11.1, "uvindex": 4.0, "sunrise": "05:15:52", "sunriseEpoch": 1622456152, "sunset": "20:23:45", "sunsetEpoch": 1622510625, "moonphase": 0.66, "conditions": "Partially cloudy", "description": "Partly cloudy throughout the day.", "icon": "partly-cloudy-day", "stations": ["KENW", "72640014839", "KRAC", "D0835", "KMWC", "KMKE", "72642494818"], "source": "obs"}], "stations": {"KENW": {"distance": 44116.0, "latitude": 42.6, "longitude": -87.93, "useCount": 0, "id": "KENW", "name": "KENW", "quality": 100, "contribution": 0.0}, "72640014839": {"distance": 5936.0, "latitude": 42.955, "longitude": -87.904, "useCount": 0, "id": "72640014839", "name": "MILWAUKEE MITCHELL INTERNATIONAL AIRPORT, WI US", "quality": 100, "contribution": 0.0}, "KRAC": {"distance": 28679.0, "latitude": 42.76, "longitude": -87.81, "useCount": 0, "id": "KRAC", "name": "KRAC", "quality": 100, "contribution": 0.0}, "D0835": {"distance": 6017.0, "latitude": 42.986, "longitude": -87.878, "useCount": 0, "id": "D0835", "name": "DW0835 Milwaukee WI US", "quality": 0, "contribution": 0.0}, "KMWC": {"distance": 15226.0, "latitude": 43.12, "longitude": -88.03, "useCount": 0, "id": "KMWC", "name": "KMWC", "quality": 73, "contribution": 0.0}, "KMKE": {"distance": 6594.0, "latitude": 42.95, "longitude": -87.9, "useCount": 0, "id": "KMKE", "name": "KMKE", "quality": 100, "contribution": 0.0}, "72642494818": {"distance": 28450.0, "latitude": 42.761, "longitude": -87.814, "useCount": 0, "id": "72642494818", "name": "RACINE BATTEN AIRPORT, WI US", "quality": 100, "contribution": 0.0}}}