{"queryCost": 1, "latitude": 36.154, "longitude": -95.993, "resolvedAddress": "36.15400,-95.99300", "address": "36.15400,-95.99300", "timezone": "America/Chicago", "tzoffset": -5.0, "days": [{"datetime": "2021-06-05", "datetimeEpoch": 1622869200, "tempmax": 80.8, "tempmin": 63.2, "temp": 73.8, "feelslikemax": 82.9, "feelslikemin": 63.2, "feelslike": 74.0, "dew": 64.6, "humidity": 73.67, "precip": 0.0, "precipprob": null, "precipcover": 0.0, "preciptype": null, "snow": 0.0, "snowdepth": 0.0, "windgust": 19.7, "windspeed": 11.8, "winddir": 133.7, "pressure": 1013.1, "cloudcover": 49.2, "visibility": 9.9, "solarradiation": 298.9, "solarenergy": 17.2, "uvindex": 6.0, "sunrise": "06:07:05", "sunriseEpoch": 1622891225, "sunset": "20:38:21", "sunsetEpoch": 1622943501, "moonphase": 0.9, "conditions": "Partially cloudy", "description": "Partly cloudy throughout the day.", "icon": "partly-cloudy-day", "stations": ["72356453908", "KTUL", "KGCM", "KRVS", "72356013968", "72056100467", "C4535"], "source": "obs"}], "stations": {"72356453908": {"distance": 12781.0, "latitude": 36.039, "longitude": -95.984, "useCount": 0, "id": "72356453908", "name": "TULSA RICHARD L JONES JR AIRPORT, OK US", "quality": 100, "contribution": 0.0}, "KTUL": {"distance": 9801.0, "latitude": 36.2, "longitude": -95.9, "useCount": 0, "id": "KTUL", "name": "KTUL", "quality": 100, "contribution": 0.0}, "KGCM": {"distance": 48494.0, "latitude": 36.29, "longitude": -95.48, "useCount": 0, "id": "KGCM", "name": "KGCM", "quality": 99, "contribution": 0.0}, "KRVS": {"distance": 12744.0, "latitude": 36.04, "longitude": -95.98, "useCount": 0, "id": "KRVS", "name": "KRVS", "quality": 100, "contribution": 0.0}, "72356013968": {"distance": 10767.0, "latitude": 36.199, "longitude": -95.887, "useCount": 0, "id": "72356013968", "name": "TULSA INTERNATIONAL AIRPORT, OK US", "quality": 100, "contribution": 0.0}, "72056100467": {"distance": 14467.0, "latitude": 36.175, "longitude": -96.152, "useCount": 0, "id": "72056100467", "name": "WILLIAM R POGUE MUNICIPAL AIRPORT, OK US", "quality": 100, "contribution": 0.0}, "C4535": {"distance": 10718.0, "latitude": 36.157, "longitude": -95.874, "useCount": 0, "id": "C4535", "name": "CW4535 Tulsa OK US", "quality": 0, "contribution": 0.0}}}