{"queryCost": 1, "latitude": 33.972, "longitude": -118.055, "resolvedAddress": "33.97200,-118.05500", "address": "33.97200,-118.05500", "timezone": "America/Los_Angeles", "tzoffset": -7.0, "days": [{"datetime": "2015-07-30", "datetimeEpoch": 1438239600, "tempmax": 84.8, "tempmin": 70.4, "temp": 76.4, "feelslikemax": 86.9, "feelslikemin": 70.4, "feelslike": 77.1, "dew": 64.7, "humidity": 68.0, "precip": 0.0, "precipprob": 0.0, "precipcover": 0.0, "preciptype": null, "snow": 0.0, "snowdepth": 0.0, "windgust": null, "windspeed": 9.6, "winddir": 237.8, "pressure": 1014.8, "cloudcover": 6.5, "visibility": 9.5, "solarradiation": 272.7, "solarenergy": 23.6, "uvindex": 8.0, "sunrise": "06:02:10", "sunriseEpoch": 1438261330, "sunset": "19:54:42", "sunsetEpoch": 1438311282, "moonphase": 0.49, "conditions": "Clear", "description": "Clear conditions throughout the day.", "icon": "clear-day", "stations": ["KFUL", "72287493134", "72297603166", "KLGB", "72297023129"], "source": "obs"}], "stations": {"KFUL": {"distance": 14264.0, "latitude": 33.86, "longitude": -117.98, "useCount": 0, "id": "KFUL", "name": "KFUL", "quality": 100, "contribution": 0.0}, "72287493134": {"distance": 22525.0, "latitude": 34.024, "longitude": -118.291, "useCount": 0, "id": "72287493134", "name": "LOS ANGELES DOWNTOWN USC, CA US", "quality": 100, "contribution": 0.0}, "72297603166": {"distance": 13170.0, "latitude": 33.872, "longitude": -117.979, "useCount": 0, "id": "72297603166", "name": "FULLERTON MUNICIPAL AIRPORT, CA US", "quality": 100, "contribution": 0.0}, "KLGB": {"distance": 19062.0, "latitude": 33.82, "longitude": -118.15, "useCount": 0, "id": "KLGB", "name": "KLGB", "quality": 100, "contribution": 0.0}, "72297023129": {"distance": 19737.0, "latitude": 33.812, "longitude": -118.146, "useCount": 0, "id": "72297023129", "name": "LONG BEACH DAUGHERTY AIRPORT, CA US", "quality": 100, "contribution": 0.0}}}