{"queryCost": 1, "latitude": 38.589, "longitude": -92.255, "resolvedAddress": "38.58900,-92.25500", "address": "38.58900,-92.25500", "timezone": "America/Chicago", "tzoffset": -5.0, "days": [{"datetime": "2021-06-07", "datetimeEpoch": 1623042000, "tempmax": 81.7, "tempmin": 70.8, "temp": 75.5, "feelslikemax": 85.0, "feelslikemin": 70.8, "feelslike": 76.0, "dew": 66.7, "humidity": 74.8, "precip": 0.02, "precipprob": 100.0, "precipcover": 8.33, "preciptype": ["rain"], "snow": 0.0, "snowdepth": 0.0, "windgust": 35.7, "windspeed": 14.5, "winddir": 131.9, "pressure": 1010.9, "cloudcover": 35.2, "visibility": 9.9, "solarradiation": 208.6, "solarenergy": 18.0, "uvindex": 10.0, "sunrise": "05:44:43", "sunriseEpoch": 1623062683, "sunset": "20:31:33", "sunsetEpoch": 1623115893, "moonphase": 0.97, "conditions": "Rain, Partially cloudy", "description": "Partly cloudy throughout the day with afternoon rain.", "icon": "rain", "stations": ["72445803963", "D5315", "KJEF", "KAIZ", "72086900295", "72445003945", "KCOU"], "source": "obs"}], "stations": {"72445803963": {"distance": 8635.0, "latitude": 38.591, "longitude": -92.156, "useCount": 0, "id": "72445803963", "name": "JEFFERSON CITY MEMORIAL AIRPORT, MO US", "quality": 100, "contribution": 0.0}, "D5315": {"distance": 14773.0, "latitude": 38.722, "longitude": -92.253, "useCount": 0, "id": "D5315", "name": "DW5315 St. Louis MO US", "quality": 0, "contribution": 0.0}, "KJEF": {"distance": 9192.0, "latitude": 38.58, "longitude": -92.15, "useCount": 0, "id": "KJEF", "name": "KJEF", "quality": 100, "contribution": 0.0}, "KAIZ": {"distance": 60221.0, "latitude": 38.1, "longitude": -92.55, "useCount": 0, "id": "KAIZ", "name": "KAISER MEM, MO", "quality": 100, "contribution": 0.0}, "72086900295": {"distance": 54481.0, "latitude": 38.947, "longitude": -92.683, "useCount": 0, "id": "72086900295", "name": "JESSE VIERTEL MEMORIAL AIRPORT, MO US", "quality": 100, "contribution": 0.0}, "72445003945": {"distance": 25569.0, "latitude": 38.817, "longitude": -92.218, "useCount": 0, "id": "72445003945", "name": "COLUMBIA REGIONAL AIRPORT, MO US", "quality": 100, "contribution": 0.0}, "KCOU": {"distance": 25894.0, "latitude": 38.82, "longitude": -92.22, "useCount": 0, "id": "KCOU", "name": "KCOU", "quality": 100, "contribution": 0.0}}}