{"queryCost": 1, "latitude": 36.344, "longitude": -85.424, "resolvedAddress": "36.34400,-85.42400", "address": "36.34400,-85.42400", "timezone": "America/Chicago", "tzoffset": -5.0, "days": [{"datetime": "2021-06-04", "datetimeEpoch": 1622782800, "tempmax": 77.4, "tempmin": 58.7, "temp": 68.6, "feelslikemax": 77.4, "feelslikemin": 58.7, "feelslike": 68.6, "dew": 60.7, "humidity": 78.1, "precip": 0.0, "precipprob": 0.0, "precipcover": 0.0, "preciptype": null, "snow": 0.0, "snowdepth": 0.0, "windgust": null, "windspeed": 6.7, "winddir": 138.5, "pressure": 1018.5, "cloudcover": 19.4, "visibility": 7.7, "solarradiation": 338.4, "solarenergy": 29.2, "uvindex": 10.0, "sunrise": "05:24:31", "sunriseEpoch": 1622802271, "sunset": "19:56:01", "sunsetEpoch": 1622854561, "moonphase": 0.86, "conditions": "Clear", "description": "Clear conditions throughout the day.", "icon": "clear-day", "stations": ["99999963855", "72325003847", "KCSV", "KSRB", "D3823", "K8A3"], "source": "obs"}], "stations": {"99999963855": {"distance": 45031.0, "latitude": 36.014, "longitude": -85.134, "useCount": 0, "id": "99999963855", "name": "CROSSVILLE 7 NW, TN US", "quality": 100, "contribution": 0.0}, "72325003847": {"distance": 53515.0, "latitude": 35.951, "longitude": -85.081, "useCount": 0, "id": "72325003847", "name": "CROSSVILLE MEMORIAL AIRPORT, TN US", "quality": 100, "contribution": 0.0}, "KCSV": {"distance": 53665.0, "latitude": 35.95, "longitude": -85.08, "useCount": 0, "id": "KCSV", "name": "KCSV", "quality": 100, "contribution": 0.0}, "KSRB": {"distance": 33017.0, "latitude": 36.06, "longitude": -85.53, "useCount": 0, "id": "KSRB", "name": "KSRB", "quality": 98, "contribution": 0.0}, "D3823": {"distance": 17979.0, "latitude": 36.195, "longitude": -85.5, "useCount": 0, "id": "D3823", "name": "DW3823 Cookeville TN US", "quality": 0, "contribution": 0.0}, "K8A3": {"distance": 11970.0, "latitude": 36.4, "longitude": -85.31, "useCount": 0, "id": "K8A3", "name": "K8A3", "quality": 96, "contribution": 0.0}}}