{"queryCost": 1, "latitude": 45.53, "longitude": -122.661, "resolvedAddress": "45.53000,-122.66100", "address": "45.53000,-122.66100", "timezone": "America/Los_Angeles", "tzoffset": -7.0, "days": [{"datetime": "2021-06-24", "datetimeEpoch": 1624518000, "tempmax": 87.8, "tempmin": 56.6, "temp": 71.0, "feelslikemax": 86.6, "feelslikemin": 56.6, "feelslike": 70.8, "dew": 54.0, "humidity": 57.8, "precip": 0.0, "precipprob": 0.0, "precipcover": 0.0, "preciptype": null, "snow": 0.0, "snowdepth": 0.0, "windgust": null, "windspeed": 8.8, "winddir": 293.2, "pressure": 1016.1, "cloudcover": 34.1, "visibility": 9.9, "solarradiation": 132.4, "solarenergy": 11.4, "uvindex": 9.0, "sunrise": "05:22:49", "sunriseEpoch": 1624537369, "sunset": "21:03:35", "sunsetEpoch": 1624593815, "moonphase": 0.5, "conditions": "Partially cloudy", "description": "Clearing in the afternoon.", "icon": "partly-cloudy-day", "stations": ["72698524242", "F8831", "KVUO", "72698024229", "KPDX", "KTTD", "72791894298"], "source": "obs"}], "stations": {"72698524242": {"distance": 19788.0, "latitude": 45.551, "longitude": -122.409, "useCount": 0, "id": "72698524242", "name": "PORTLAND TROUTDALE AIRPORT, OR US", "quality": 100, "contribution": 0.0}, "F8831": {"distance": 9183.0, "latitude": 45.462, "longitude": -122.727, "useCount": 0, "id": "F8831", "name": "FW8831 Portland OR US", "quality": 0, "contribution": 0.0}, "KVUO": {"distance": 10019.0, "latitude": 45.62, "longitude": -122.66, "useCount": 0, "id": "KVUO", "name": "KVUO", "quality": 100, "contribution": 0.0}, "72698024229": {"distance": 8371.0, "latitude": 45.596, "longitude": -122.609, "useCount": 0, "id": "72698024229", "name": "PORTLAND INTERNATIONAL AIRPORT, OR US", "quality": 100, "contribution": 0.0}, "KPDX": {"distance": 9128.0, "latitude": 45.6, "longitude": -122.6, "useCount": 0, "id": "KPDX", "name": "KPDX", "quality": 100, "contribution": 0.0}, "KTTD": {"distance": 18922.0, "latitude": 45.55, "longitude": -122.42, "useCount": 0, "id": "KTTD", "name": "KTTD", "quality": 100, "contribution": 0.0}, "72791894298": {"distance": 10113.0, "latitude": 45.621, "longitude": -122.657, "useCount": 0, "id": "72791894298", "name": "VANCOUVER PEARSON AIRPORT, WA US", "quality": 100, "contribution": 0.0}}}