{"queryCost": 1, "latitude": 39.229, "longitude": -99.298, "resolvedAddress": "39.22900,-99.29800", "address": "39.22900,-99.29800", "timezone": "America/Chicago", "tzoffset": -5.0, "days": [{"datetime": "2021-06-27", "datetimeEpoch": 1624770000, "tempmax": 84.2, "tempmin": 59.9, "temp": 72.7, "feelslikemax": 82.6, "feelslikemin": 59.9, "feelslike": 72.4, "dew": 57.5, "humidity": 63.3, "precip": 0.0, "precipprob": 0.0, "precipcover": 0.0, "preciptype": null, "snow": 0.0, "snowdepth": 0.0, "windgust": null, "windspeed": 9.3, "winddir": 214.5, "pressure": 1014.5, "cloudcover": 20.6, "visibility": 9.9, "solarradiation": 253.4, "solarenergy": 21.8, "uvindex": 9.0, "sunrise": "06:13:02", "sunriseEpoch": 1624792382, "sunset": "21:07:39", "sunsetEpoch": 1624846059, "moonphase": 0.55, "conditions": "Partially cloudy", "description": "Partly cloudy throughout the day.", "icon": "partly-cloudy-day", "stations": ["KRSL", "KHYS", "KHLC", "72451803968", "KRNK1", "72458593997", "72465593990"], "source": "obs"}], "stations": {"KRSL": {"distance": 58268.0, "latitude": 38.86, "longitude": -98.82, "useCount": 0, "id": "KRSL", "name": "KRSL", "quality": 100, "contribution": 0.0}, "KHYS": {"distance": 42259.0, "latitude": 38.85, "longitude": -99.27, "useCount": 0, "id": "KHYS", "name": "HAYS, KS", "quality": 100, "contribution": 0.0}, "KHLC": {"distance": 48811.0, "latitude": 39.38, "longitude": -99.83, "useCount": 0, "id": "KHLC", "name": "KHLC", "quality": 100, "contribution": 0.0}, "72451803968": {"distance": 42277.0, "latitude": 38.85, "longitude": -99.267, "useCount": 0, "id": "72451803968", "name": "HAYS MUNICIPAL AIRPORT, KS US", "quality": 100, "contribution": 0.0}, "KRNK1": {"distance": 49352.0, "latitude": 39.665, "longitude": -99.195, "useCount": 0, "id": "KRNK1", "name": "KIRWIN KS US", "quality": 0, "contribution": 0.0}, "72458593997": {"distance": 57696.0, "latitude": 38.876, "longitude": -98.809, "useCount": 0, "id": "72458593997", "name": "RUSSELL MUNICIPAL AIRPORT, KS US", "quality": 100, "contribution": 0.0}, "72465593990": {"distance": 48621.0, "latitude": 39.376, "longitude": -99.83, "useCount": 0, "id": "72465593990", "name": "HILL CITY MUNICIPAL AIRPORT, KS US", "quality": 100, "contribution": 0.0}}}