{"queryCost": 1, "latitude": 39.09, "longitude": -108.563, "resolvedAddress": "39.09000,-108.56300", "address": "39.09000,-108.56300", "timezone": "America/Denver", "tzoffset": -6.0, "days": [{"datetime": "2021-06-25", "datetimeEpoch": 1624600800, "tempmax": 79.1, "tempmin": 56.9, "temp": 66.0, "feelslikemax": 79.1, "feelslikemin": 56.9, "feelslike": 66.0, "dew": 50.2, "humidity": 60.2, "precip": 0.04, "precipprob": 100.0, "precipcover": 8.33, "preciptype": ["rain"], "snow": 0.0, "snowdepth": 0.0, "windgust": 38.0, "windspeed": 29.8, "winddir": 174.5, "pressure": 1012.3, "cloudcover": 27.6, "visibility": 9.9, "solarradiation": 253.0, "solarenergy": 21.7, "uvindex": 10.0, "sunrise": "05:49:49", "sunriseEpoch": 1624621789, "sunset": "20:44:12", "sunsetEpoch": 1624675452, "moonphase": 0.51, "conditions": "Rain, Partially cloudy", "description": "Partly cloudy throughout the day with late afternoon rain.", "icon": "rain", "stations": ["72476023066", "KGJT", "72053100158", "KAJZ", "UCC39"], "source": "obs"}], "stations": {"72476023066": {"distance": 5306.0, "latitude": 39.134, "longitude": -108.54, "useCount": 0, "id": "72476023066", "name": "GRAND JUNCTION WALKER FIELD, CO US", "quality": 100, "contribution": 0.0}, "KGJT": {"distance": 3617.0, "latitude": 39.11, "longitude": -108.53, "useCount": 0, "id": "KGJT", "name": "KGJT", "quality": 100, "contribution": 0.0}, "72053100158": {"distance": 54886.0, "latitude": 38.783, "longitude": -108.067, "useCount": 0, "id": "72053100158", "name": "BLAKE FIELD AIRPORT, CO US", "quality": 98, "contribution": 0.0}, "KAJZ": {"distance": 55569.0, "latitude": 38.78, "longitude": -108.06, "useCount": 0, "id": "KAJZ", "name": "KAJZ", "quality": 98, "contribution": 0.0}, "UCC39": {"distance": 16680.0, "latitude": 39.094, "longitude": -108.37, "useCount": 0, "id": "UCC39", "name": "Palisade CO US UCC-AGNET", "quality": 0, "contribution": 0.0}}}