{"queryCost": 1, "latitude": 46.093, "longitude": -88.642, "resolvedAddress": "46.09300,-88.64200", "address": "46.09300,-88.64200", "timezone": "America/Menominee", "tzoffset": -5.0, "days": [{"datetime": "2021-06-24", "datetimeEpoch": 1624510800, "tempmax": 73.1, "tempmin": 64.4, "temp": 68.5, "feelslikemax": 73.1, "feelslikemin": 64.4, "feelslike": 68.5, "dew": 63.3, "humidity": 83.9, "precip": 0.26, "precipprob": 100.0, "precipcover": 12.5, "preciptype": ["rain"], "snow": 0.0, "snowdepth": 0.0, "windgust": 28.9, "windspeed": 12.0, "winddir": 216.7, "pressure": 1009.7, "cloudcover": 71.8, "visibility": 9.6, "solarradiation": 100.7, "solarenergy": 8.7, "uvindex": 5.0, "sunrise": "05:04:23", "sunriseEpoch": 1624529063, "sunset": "20:49:49", "sunsetEpoch": 1624585789, "moonphase": 0.5, "conditions": "Rain, Partially cloudy", "description": "Partly cloudy throughout the day with morning rain.", "icon": "rain", "stations": ["72650454838", "72743794893", "72312314886", "KIMT", "KEGV", "PLPW3", "KLNL"], "source": "obs"}], "stations": {"72650454838": {"distance": 51686.0, "latitude": 45.932, "longitude": -89.269, "useCount": 0, "id": "72650454838", "name": "EAGLE RIVER UNION AIRPORT, WI US", "quality": 50, "contribution": 0.0}, "72743794893": {"distance": 51013.0, "latitude": 45.818, "longitude": -88.114, "useCount": 0, "id": "72743794893", "name": "IRON MOUNTAIN FORD AIRPORT, MI US", "quality": 100, "contribution": 0.0}, "72312314886": {"distance": 44795.0, "latitude": 46.15, "longitude": -89.217, "useCount": 0, "id": "72312314886", "name": "KINGS LAND O LAKES AIRPORT, WI US", "quality": 100, "contribution": 0.0}, "KIMT": {"distance": 50552.0, "latitude": 45.82, "longitude": -88.12, "useCount": 0, "id": "KIMT", "name": "KIMT", "quality": 100, "contribution": 0.0}, "KEGV": {"distance": 51832.0, "latitude": 45.93, "longitude": -89.27, "useCount": 0, "id": "KEGV", "name": "KEGV", "quality": 50, "contribution": 0.0}, "PLPW3": {"distance": 35566.0, "latitude": 46.04, "longitude": -89.096, "useCount": 0, "id": "PLPW3", "name": "PHELPS WI US", "quality": 0, "contribution": 0.0}, "KLNL": {"distance": 44283.0, "latitude": 46.15, "longitude": -89.21, "useCount": 0, "id": "KLNL", "name": "KLNL", "quality": 99, "contribution": 0.0}}}