{"queryCost": 1, "latitude": 35.579, "longitude": -77.142, "resolvedAddress": "35.57900,-77.14200", "address": "35.57900,-77.14200", "timezone": "America/New_York", "tzoffset": -4.0, "days": [{"datetime": "2021-06-24", "datetimeEpoch": 1624507200, "tempmax": 77.8, "tempmin": 55.8, "temp": 68.1, "feelslikemax": 77.8, "feelslikemin": 55.8, "feelslike": 68.1, "dew": 55.6, "humidity": 66.52, "precip": 0.0, "precipprob": null, "precipcover": 0.0, "preciptype": null, "snow": 0.0, "snowdepth": 0.0, "windgust": 19.7, "windspeed": 10.9, "winddir": 58.3, "pressure": 1025.4, "cloudcover": 29.5, "visibility": 9.9, "solarradiation": 453.4, "solarenergy": 26.1, "uvindex": 9.0, "sunrise": "05:54:18", "sunriseEpoch": 1624528458, "sunset": "20:27:56", "sunsetEpoch": 1624580876, "moonphase": 0.5, "conditions": "Partially cloudy", "description": "Partly cloudy throughout the day.", "icon": "partly-cloudy-day", "stations": ["BNYN7", "KPGV", "72306513783", "KISO", "74692503741", "KETC", "KOCW"], "source": "obs"}], "stations": {"BNYN7": {"distance": 20110.0, "latitude": 35.521, "longitude": -76.932, "useCount": 0, "id": "BNYN7", "name": "BEAUFORT NC US", "quality": 0, "contribution": 0.0}, "KPGV": {"distance": 24032.0, "latitude": 35.63, "longitude": -77.4, "useCount": 0, "id": "KPGV", "name": "KPGV", "quality": 98, "contribution": 0.0}, "72306513783": {"distance": 22660.0, "latitude": 35.633, "longitude": -77.383, "useCount": 0, "id": "72306513783", "name": "GREENVILLE PITT GREENVILLE AIRPORT, NC US", "quality": 100, "contribution": 0.0}, "KISO": {"distance": 51449.0, "latitude": 35.33, "longitude": -77.62, "useCount": 0, "id": "KISO", "name": "KISO", "quality": 100, "contribution": 0.0}, "74692503741": {"distance": 8413.0, "latitude": 35.57, "longitude": -77.05, "useCount": 0, "id": "74692503741", "name": "WARREN FIELD AIRPORT, NC US", "quality": 100, "contribution": 0.0}, "KETC": {"distance": 53099.0, "latitude": 35.93, "longitude": -77.54, "useCount": 0, "id": "KETC", "name": "KETC", "quality": 98, "contribution": 0.0}, "KOCW": {"distance": 8390.0, "latitude": 35.57, "longitude": -77.05, "useCount": 0, "id": "KOCW", "name": "KOCW", "quality": 98, "contribution": 0.0}}}