{"queryCost": 1, "latitude": 38.152, "longitude": -90.559, "resolvedAddress": "38.15200,-90.55900", "address": "38.15200,-90.55900", "timezone": "America/Chicago", "tzoffset": -5.0, "days": [{"datetime": "2021-06-22", "datetimeEpoch": 1624338000, "tempmax": 78.4, "tempmin": 49.5, "temp": 65.6, "feelslikemax": 78.4, "feelslikemin": 49.5, "feelslike": 65.6, "dew": 48.4, "humidity": 59.5, "precip": 0.0, "precipprob": 0.0, "precipcover": 0.0, "preciptype": null, "snow": 0.0, "snowdepth": 0.0, "windgust": 16.1, "windspeed": 9.1, "winddir": 142.0, "pressure": 1017.1, "cloudcover": 1.4, "visibility": 9.8, "solarradiation": 141.6, "solarenergy": 12.3, "uvindex": 4.0, "sunrise": "05:39:50", "sunriseEpoch": 1624358390, "sunset": "20:28:55", "sunsetEpoch": 1624411735, "moonphase": 0.46, "conditions": "Clear", "description": "Clear conditions throughout the day.", "icon": "clear-day", "stations": ["KFAM", "72434503966", "KSUS", "E9598", "KCPS", "72445493996", "72531403960"], "source": "obs"}], "stations": {"KFAM": {"distance": 44005.0, "latitude": 37.77, "longitude": -90.43, "useCount": 0, "id": "KFAM", "name": "KFAM", "quality": 100, "contribution": 0.0}, "72434503966": {"distance": 56869.0, "latitude": 38.657, "longitude": -90.656, "useCount": 0, "id": "72434503966", "name": "ST LOUIS SPIRIT OF ST LOUIS AIRPORT, MO US", "quality": 100, "contribution": 0.0}, "KSUS": {"distance": 58207.0, "latitude": 38.67, "longitude": -90.65, "useCount": 0, "id": "KSUS", "name": "KSUS", "quality": 100, "contribution": 0.0}, "E9598": {"distance": 2096.0, "latitude": 38.133, "longitude": -90.558, "useCount": 0, "id": "E9598", "name": "EW9598 De Soto MO US", "quality": 0, "contribution": 0.0}, "KCPS": {"distance": 58649.0, "latitude": 38.57, "longitude": -90.15, "useCount": 0, "id": "KCPS", "name": "KCPS", "quality": 100, "contribution": 0.0}, "72445493996": {"distance": 45034.0, "latitude": 37.761, "longitude": -90.428, "useCount": 0, "id": "72445493996", "name": "FARMINGTON REGIONAL AIRPORT, MO US", "quality": 100, "contribution": 0.0}, "72531403960": {"distance": 58393.0, "latitude": 38.571, "longitude": -90.157, "useCount": 0, "id": "72531403960", "name": "CAHOKIA ST LOUIS DOWNTOWN AIRPORT, IL US", "quality": 100, "contribution": 0.0}}}