{"queryCost": 1, "latitude": 33.39, "longitude": -104.561, "resolvedAddress": "33.39000,-104.56100", "address": "33.39000,-104.56100", "timezone": "America/Denver", "tzoffset": -6.0, "days": [{"datetime": "2021-06-27", "datetimeEpoch": 1624773600, "tempmax": 80.9, "tempmin": 66.8, "temp": 73.6, "feelslikemax": 80.7, "feelslikemin": 66.8, "feelslike": 73.6, "dew": 58.0, "humidity": 59.7, "precip": 0.15, "precipprob": 100.0, "precipcover": 12.5, "preciptype": ["rain"], "snow": 0.0, "snowdepth": 0.0, "windgust": 31.7, "windspeed": 21.5, "winddir": 138.8, "pressure": 1011.4, "cloudcover": 43.2, "visibility": 9.9, "solarradiation": 250.4, "solarenergy": 21.6, "uvindex": 10.0, "sunrise": "05:50:57", "sunriseEpoch": 1624794657, "sunset": "20:11:53", "sunsetEpoch": 1624846313, "moonphase": 0.55, "conditions": "Rain, Partially cloudy", "description": "Partly cloudy throughout the day with rain.", "icon": "rain", "stations": ["72267603035", "72268023009", "REMN5", "KATS", "KROW"], "source": "obs"}], "stations": {"72267603035": {"distance": 60473.0, "latitude": 32.853, "longitude": -104.467, "useCount": 0, "id": "72267603035", "name": "ARTESIA MUNICIPAL AIRPORT, NM US", "quality": 100, "contribution": 0.0}, "72268023009": {"distance": 10423.0, "latitude": 33.308, "longitude": -104.508, "useCount": 0, "id": "72268023009", "name": "ROSWELL INDUSTRIAL AIR PARK, NM US", "quality": 100, "contribution": 0.0}, "KROW": {"distance": 11499.0, "latitude": 33.29, "longitude": -104.53, "useCount": 0, "id": "KROW", "name": "KROW", "quality": 100, "contribution": 0.0}, "REMN5": {"distance": 36574.0, "latitude": 33.651, "longitude": -104.321, "useCount": 0, "id": "REMN5", "name": "EIGHT MILE DRAW NM US", "quality": 0, "contribution": 0.0}, "KATS": {"distance": 60708.0, "latitude": 32.85, "longitude": -104.47, "useCount": 0, "id": "KATS", "name": "KATS", "quality": 99, "contribution": 0.0}}}