{"queryCost": 1, "latitude": 42.372, "longitude": -122.855, "resolvedAddress": "42.37200,-122.85500", "address": "42.37200,-122.85500", "timezone": "America/Los_Angeles", "tzoffset": -7.0, "days": [{"datetime": "2021-07-07", "datetimeEpoch": 1625641200, "tempmax": 93.8, "tempmin": 63.0, "temp": 78.3, "feelslikemax": 89.7, "feelslikemin": 63.0, "feelslike": 76.9, "dew": 41.8, "humidity": 30.0, "precip": 0.0, "precipprob": 0.0, "precipcover": 0.0, "preciptype": null, "snow": 0.0, "snowdepth": 0.0, "windgust": 26.4, "windspeed": 15.0, "winddir": 300.7, "pressure": 1013.5, "cloudcover": 0.0, "visibility": 9.9, "solarradiation": 347.2, "solarenergy": 30.0, "uvindex": 10.0, "sunrise": "05:42:16", "sunriseEpoch": 1625661736, "sunset": "20:50:22", "sunsetEpoch": 1625716222, "moonphase": 0.97, "conditions": "Clear", "description": "Clear conditions throughout the day.", "icon": "clear-day", "stations": ["C3932", "KSXT", "72595524259", "72597024225", "KSIY", "72597524235", "KMFR"], "source": "obs"}], "stations": {"C3932": {"distance": 4438.0, "latitude": 42.35, "longitude": -122.9, "useCount": 0, "id": "C3932", "name": "CW3932 Central Point OR US", "quality": 0, "contribution": 0.0}, "KSXT": {"distance": 50487.0, "latitude": 42.62, "longitude": -123.37, "useCount": 0, "id": "KSXT", "name": "KSXT", "quality": 98, "contribution": 0.0}, "72595524259": {"distance": 73109.0, "latitude": 41.781, "longitude": -122.468, "useCount": 0, "id": "72595524259", "name": "MONTAGUE SISKIYOU AIRPORT, CA US", "quality": 100, "contribution": 0.0}, "72597024225": {"distance": 1840.0, "latitude": 42.375, "longitude": -122.877, "useCount": 0, "id": "72597024225", "name": "MEDFORD INTERNATIONAL AIRPORT, OR US", "quality": 100, "contribution": 0.0}, "KSIY": {"distance": 73177.0, "latitude": 41.78, "longitude": -122.47, "useCount": 0, "id": "KSIY", "name": "KSIY", "quality": 100, "contribution": 0.0}, "72597524235": {"distance": 48906.0, "latitude": 42.6, "longitude": -123.364, "useCount": 0, "id": "72597524235", "name": "SEXTON SUMMIT, OR US", "quality": 100, "contribution": 0.0}, "KMFR": {"distance": 1254.0, "latitude": 42.37, "longitude": -122.87, "useCount": 0, "id": "KMFR", "name": "KMFR", "quality": 100, "contribution": 0.0}}}