{"queryCost": 1, "latitude": 40.308, "longitude": -88.175, "resolvedAddress": "40.30800,-88.17500", "address": "40.30800,-88.17500", "timezone": "America/Chicago", "tzoffset": -5.0, "days": [{"datetime": "2015-08-04", "datetimeEpoch": 1438664400, "tempmax": 83.2, "tempmin": 58.3, "temp": 73.1, "feelslikemax": 83.1, "feelslikemin": 58.3, "feelslike": 73.1, "dew": 59.7, "humidity": 65.4, "precip": 0.0, "precipprob": 0.0, "precipcover": 0.0, "preciptype": null, "snow": 0.0, "snowdepth": 0.0, "windgust": null, "windspeed": 9.2, "winddir": 252.0, "pressure": 1015.3, "cloudcover": 2.1, "visibility": 9.9, "solarradiation": 294.0, "solarenergy": 25.6, "uvindex": 9.0, "sunrise": "05:52:56", "sunriseEpoch": 1438685576, "sunset": "20:04:03", "sunsetEpoch": 1438736643, "moonphase": 0.61, "conditions": "Clear", "description": "Clear conditions throughout the day.", "icon": "clear-day", "stations": ["72219404896", "99999954808", "KTIP", "72207694891", "72531594870", "KCMI"], "source": "obs"}], "stations": {"72219404896": {"distance": 3230.0, "latitude": 40.293, "longitude": -88.142, "useCount": 0, "id": "72219404896", "name": "RANTOUL NATIONAL AVIATION CENTER F ELLIOTT FIELD AIRPORT, IL US", "quality": 100, "contribution": 0.0}, "99999954808": {"distance": 33020.0, "latitude": 40.053, "longitude": -88.373, "useCount": 0, "id": "99999954808", "name": "CHAMPAIGN 9 SW, IL US", "quality": 100, "contribution": 0.0}, "KTIP": {"distance": 3584.0, "latitude": 40.29, "longitude": -88.14, "useCount": 0, "id": "KTIP", "name": "KTIP", "quality": 100, "contribution": 0.0}, "72207694891": {"distance": 50308.0, "latitude": 40.2, "longitude": -87.6, "useCount": 0, "id": "72207694891", "name": "DANVILLE VERMILION CO AIRPORT, IL US", "quality": 96, "contribution": 0.0}, "72531594870": {"distance": 31121.0, "latitude": 40.04, "longitude": -88.278, "useCount": 0, "id": "72531594870", "name": "CHAMPAIGN URBANA WILLARD AIRPORT, IL US", "quality": 100, "contribution": 0.0}, "KCMI": {"distance": 32210.0, "latitude": 40.03, "longitude": -88.28, "useCount": 0, "id": "KCMI", "name": "KCMI", "quality": 100, "contribution": 0.0}}}