{"queryCost": 1, "latitude": 33.797, "longitude": -84.475, "resolvedAddress": "33.79700,-84.47500", "address": "33.79700,-84.47500", "timezone": "America/New_York", "tzoffset": -4.0, "days": [{"datetime": "2021-07-25", "datetimeEpoch": 1627185600, "tempmax": 90.8, "tempmin": 74.8, "temp": 81.2, "feelslikemax": 96.6, "feelslikemin": 74.8, "feelslike": 83.7, "dew": 72.1, "humidity": 75.8, "precip": 0.8, "precipprob": 100.0, "precipcover": 20.83, "preciptype": ["rain"], "snow": 0.0, "snowdepth": 0.0, "windgust": 32.2, "windspeed": 20.6, "winddir": 189.0, "pressure": 1015.7, "cloudcover": 40.7, "visibility": 8.6, "solarradiation": 238.7, "solarenergy": 20.7, "uvindex": 8.0, "sunrise": "06:45:05", "sunriseEpoch": 1627209905, "sunset": "20:43:28", "sunsetEpoch": 1627260208, "moonphase": 0.52, "conditions": "Rain, Partially cloudy", "description": "Partly cloudy throughout the day with late afternoon rain.", "icon": "rain", "stations": ["KFTY", "KMGE", "0353W", "72227013864", "72219503888", "KATL", "72219653863"], "source": "obs"}], "stations": {"KFTY": {"distance": 4573.0, "latitude": 33.78, "longitude": -84.52, "useCount": 0, "id": "KFTY", "name": "KFTY", "quality": 100, "contribution": 0.0}, "KMGE": {"distance": 14310.0, "latitude": 33.92, "longitude": -84.52, "useCount": 0, "id": "KMGE", "name": "KMGE", "quality": 100, "contribution": 0.0}, "0353W": {"distance": 7040.0, "latitude": 33.775, "longitude": -84.404, "useCount": 0, "id": "0353W", "name": "Georgia Tech Campus Recreation C GA US WEATHERSTEM", "quality": 0, "contribution": 0.0}, "72227013864": {"distance": 13871.0, "latitude": 33.917, "longitude": -84.517, "useCount": 0, "id": "72227013864", "name": "MARIETTA DOBBINS AFB, GA US", "quality": 99, "contribution": 0.0}, "72219503888": {"distance": 4728.0, "latitude": 33.779, "longitude": -84.521, "useCount": 0, "id": "72219503888", "name": "ATLANTA FULTON CO AIRPORT, GA US", "quality": 100, "contribution": 0.0}, "KATL": {"distance": 17138.0, "latitude": 33.65, "longitude": -84.42, "useCount": 0, "id": "KATL", "name": "KATL", "quality": 100, "contribution": 0.0}, "72219653863": {"distance": 18185.0, "latitude": 33.875, "longitude": -84.302, "useCount": 0, "id": "72219653863", "name": "ATLANTA DEKALB PEACHTREE AIRPORT, GA US", "quality": 100, "contribution": 0.0}}}