{"queryCost": 1, "latitude": 30.66, "longitude": -87.853, "resolvedAddress": "30.66000,-87.85300", "address": "30.66000,-87.85300", "timezone": "America/Chicago", "tzoffset": -5.0, "days": [{"datetime": "2021-07-18", "datetimeEpoch": 1626584400, "tempmax": 84.3, "tempmin": 72.9, "temp": 77.9, "feelslikemax": 91.7, "feelslikemin": 72.9, "feelslike": 80.3, "dew": 74.7, "humidity": 90.3, "precip": 0.07, "precipprob": 100.0, "precipcover": 12.5, "preciptype": ["rain"], "snow": 0.0, "snowdepth": 0.0, "windgust": null, "windspeed": 4.4, "winddir": 105.3, "pressure": 1020.5, "cloudcover": 14.8, "visibility": 9.6, "solarradiation": 143.4, "solarenergy": 12.6, "uvindex": 7.0, "sunrise": "06:01:01", "sunriseEpoch": 1626606061, "sunset": "19:54:09", "sunsetEpoch": 1626656049, "moonphase": 0.31, "conditions": "Rain", "description": "Clear conditions throughout the day with afternoon rain.", "icon": "rain", "stations": ["99999963869", "72223513838", "D2686", "72059200186", "KBFM", "KCQF"], "source": "obs"}], "stations": {"99999963869": {"distance": 12601.0, "latitude": 30.549, "longitude": -87.876, "useCount": 0, "id": "99999963869", "name": "FAIRHOPE 3 NE, AL US", "quality": 99, "contribution": 0.0}, "72223513838": {"distance": 20938.0, "latitude": 30.626, "longitude": -88.068, "useCount": 0, "id": "72223513838", "name": "MOBILE DOWNTOWN AIRPORT, AL US", "quality": 100, "contribution": 0.0}, "D2686": {"distance": 19144.0, "latitude": 30.526, "longitude": -87.728, "useCount": 0, "id": "D2686", "name": "DW2686 Robertsdale AL US", "quality": 0, "contribution": 0.0}, "72059200186": {"distance": 22382.0, "latitude": 30.46, "longitude": -87.877, "useCount": 0, "id": "72059200186", "name": "H L SONNY CALLAHAN AIRPORT, AL US", "quality": 100, "contribution": 0.0}, "KBFM": {"distance": 21049.0, "latitude": 30.63, "longitude": -88.07, "useCount": 0, "id": "KBFM", "name": "KBFM", "quality": 100, "contribution": 0.0}, "KCQF": {"distance": 22545.0, "latitude": 30.46, "longitude": -87.89, "useCount": 0, "id": "KCQF", "name": "KCQF", "quality": 97, "contribution": 0.0}}}