{"queryCost": 1, "latitude": 32.608, "longitude": -90.067, "resolvedAddress": "32.60800,-90.06700", "address": "32.60800,-90.06700", "timezone": "America/Chicago", "tzoffset": -5.0, "days": [{"datetime": "2021-07-17", "datetimeEpoch": 1626498000, "tempmax": 85.2, "tempmin": 71.5, "temp": 75.0, "feelslikemax": 95.5, "feelslikemin": 71.5, "feelslike": 76.0, "dew": 71.1, "humidity": 87.92, "precip": 0.76, "precipprob": null, "precipcover": 33.33, "preciptype": null, "snow": 0.0, "snowdepth": 0.0, "windgust": 20.8, "windspeed": 8.4, "winddir": 143.0, "pressure": 1019.2, "cloudcover": 61.9, "visibility": 9.2, "solarradiation": 192.5, "solarenergy": 11.8, "uvindex": 8.0, "sunrise": "06:04:55", "sunriseEpoch": 1626519895, "sunset": "20:07:47", "sunsetEpoch": 1626570467, "moonphase": 0.25, "conditions": "Rain, Partially cloudy", "description": "Partly cloudy throughout the day with rain.", "icon": "rain", "stations": ["72078700278", "KJVW", "72235413927", "MAYM6", "KHKS", "72235003940", "MSS01", "KJAN"], "source": "obs"}], "stations": {"72078700278": {"distance": 46790.0, "latitude": 32.304, "longitude": -90.411, "useCount": 0, "id": "72078700278", "name": "JOHN BELL WILLIAMS AIRPORT, MS US", "quality": 50, "contribution": 0.0}, "KJVW": {"distance": 47868.0, "latitude": 32.29, "longitude": -90.41, "useCount": 0, "id": "KJVW", "name": "KJVW", "quality": 45, "contribution": 0.0}, "72235413927": {"distance": 33502.0, "latitude": 32.337, "longitude": -90.221, "useCount": 0, "id": "72235413927", "name": "JACKSON HAWKINS FIELD, MS US", "quality": 100, "contribution": 0.0}, "MAYM6": {"distance": 50940.0, "latitude": 32.862, "longitude": -90.52, "useCount": 0, "id": "MAYM6", "name": "MAYDAY MS US SCAN", "quality": 0, "contribution": 0.0}, "KHKS": {"distance": 34120.0, "latitude": 32.33, "longitude": -90.22, "useCount": 0, "id": "KHKS", "name": "KHKS", "quality": 100, "contribution": 0.0}, "72235003940": {"distance": 32020.0, "latitude": 32.321, "longitude": -90.078, "useCount": 0, "id": "72235003940", "name": "JACKSON INTERNATIONAL AIRPORT, MS US", "quality": 100, "contribution": 0.0}, "MSS01": {"distance": 55773.0, "latitude": 33.044, "longitude": -90.36, "useCount": 0, "id": "MSS01", "name": "Bee Lake MS US MS-DELTA", "quality": 0, "contribution": 0.0}, "KJAN": {"distance": 32083.0, "latitude": 32.32, "longitude": -90.08, "useCount": 0, "id": "KJAN", "name": "KJAN", "quality": 100, "contribution": 0.0}}}