{"queryCost": 1, "latitude": 31.699, "longitude": -106.242, "resolvedAddress": "31.69900,-106.24200", "address": "31.69900,-106.24200", "timezone": "America/Denver", "tzoffset": -6.0, "days": [{"datetime": "2021-07-13", "datetimeEpoch": 1626156000, "tempmax": 91.9, "tempmin": 72.3, "temp": 82.5, "feelslikemax": 88.5, "feelslikemin": 72.3, "feelslike": 81.2, "dew": 54.3, "humidity": 40.6, "precip": 0.0, "precipprob": 0.0, "precipcover": 0.0, "preciptype": null, "snow": 0.0, "snowdepth": 0.0, "windgust": 20.8, "windspeed": 10.8, "winddir": 119.9, "pressure": 1013.0, "cloudcover": 21.4, "visibility": 9.8, "solarradiation": 293.7, "solarenergy": 25.5, "uvindex": 9.0, "sunrise": "06:09:25", "sunriseEpoch": 1626178165, "sunset": "20:11:59", "sunsetEpoch": 1626228719, "moonphase": 0.06, "conditions": "Partially cloudy", "description": "Partly cloudy throughout the day.", "icon": "partly-cloudy-day", "stations": ["KBIF", "72270499999", "72364099999", "72270023044", "E0322", "KELP"], "source": "obs"}], "stations": {"KBIF": {"distance": 21286.0, "latitude": 31.85, "longitude": -106.38, "useCount": 0, "id": "KBIF", "name": "KBIF", "quality": 98, "contribution": 0.0}, "72270499999": {"distance": 21242.0, "latitude": 31.85, "longitude": -106.38, "useCount": 0, "id": "72270499999", "name": "BIGGS ARMY AIR FIELD FORT BLISS TEXAS USA, TX US", "quality": 98, "contribution": 0.0}, "72364099999": {"distance": 48067.0, "latitude": 31.88, "longitude": -106.703, "useCount": 0, "id": "72364099999", "name": "DONA ANA CO INTERNATIONAL JETPORT ARPT SANTA TERESA, NM US", "quality": 100, "contribution": 0.0}, "72270023044": {"distance": 17793.0, "latitude": 31.811, "longitude": -106.376, "useCount": 0, "id": "72270023044", "name": "EL PASO INTERNATIONAL AIRPORT, TX US", "quality": 100, "contribution": 0.0}, "E0322": {"distance": 7581.0, "latitude": 31.752, "longitude": -106.293, "useCount": 0, "id": "E0322", "name": "EW0322 El Paso TX US", "quality": 0, "contribution": 0.0}, "KELP": {"distance": 18711.0, "latitude": 31.8, "longitude": -106.4, "useCount": 0, "id": "KELP", "name": "KELP", "quality": 100, "contribution": 0.0}}}