{"queryCost": 1, "latitude": 41.734, "longitude": -77.539, "resolvedAddress": "41.73400,-77.53900", "address": "41.73400,-77.53900", "timezone": "America/New_York", "tzoffset": -4.0, "days": [{"datetime": "2021-07-27", "datetimeEpoch": 1627358400, "tempmax": 82.5, "tempmin": 61.6, "temp": 70.5, "feelslikemax": 82.9, "feelslikemin": 61.6, "feelslike": 70.6, "dew": 61.0, "humidity": 73.35, "precip": 0.17, "precipprob": null, "precipcover": 20.83, "preciptype": null, "snow": 0.0, "snowdepth": 0.0, "windgust": 35.7, "windspeed": 11.9, "winddir": 271.5, "pressure": 1015.5, "cloudcover": 26.6, "visibility": 9.1, "solarradiation": 363.9, "solarenergy": 21.0, "uvindex": 10.0, "sunrise": "05:59:43", "sunriseEpoch": 1627379983, "sunset": "20:33:07", "sunsetEpoch": 1627432387, "moonphase": 0.57, "conditions": "Rain, Partially cloudy", "description": "Partly cloudy throughout the day with rain.", "icon": "rain", "stations": ["KIPT", "72514014778", "72515754757", "KELM", "72515614748", "C7931", "KELZ"], "source": "obs"}], "stations": {"KIPT": {"distance": 74612.0, "latitude": 41.25, "longitude": -76.92, "useCount": 0, "id": "KIPT", "name": "KIPT", "quality": 100, "contribution": 0.0}, "72514014778": {"distance": 75057.0, "latitude": 41.243, "longitude": -76.922, "useCount": 0, "id": "72514014778", "name": "WILLIAMSPORT REGIONAL AIRPORT, PA US", "quality": 100, "contribution": 0.0}, "72515754757": {"distance": 56156.0, "latitude": 42.109, "longitude": -77.992, "useCount": 0, "id": "72515754757", "name": "WELLSVILLE MUNICIPAL AIRPORT, NY US", "quality": 100, "contribution": 0.0}, "KELM": {"distance": 71793.0, "latitude": 42.17, "longitude": -76.9, "useCount": 0, "id": "KELM", "name": "KELM", "quality": 100, "contribution": 0.0}, "72515614748": {"distance": 71505.0, "latitude": 42.159, "longitude": -76.892, "useCount": 0, "id": "72515614748", "name": "ELMIRA CORNING REGIONAL AIRPORT, NY US", "quality": 100, "contribution": 0.0}, "C7931": {"distance": 20490.0, "latitude": 41.744, "longitude": -77.293, "useCount": 0, "id": "C7931", "name": "CW7931 Wellsboro PA US", "quality": 0, "contribution": 0.0}, "KELZ": {"distance": 55553.0, "latitude": 42.11, "longitude": -77.98, "useCount": 0, "id": "KELZ", "name": "KELZ", "quality": 100, "contribution": 0.0}}}