{"queryCost": 1, "latitude": 42.365, "longitude": -83.086, "resolvedAddress": "42.36500,-83.08600", "address": "42.36500,-83.08600", "timezone": "America/Detroit", "tzoffset": -4.0, "days": [{"datetime": "2021-08-08", "datetimeEpoch": 1628395200, "tempmax": 87.3, "tempmin": 70.2, "temp": 78.1, "feelslikemax": 91.2, "feelslikemin": 70.2, "feelslike": 79.9, "dew": 68.4, "humidity": 73.5, "precip": 0.0, "precipprob": 0.0, "precipcover": 0.0, "preciptype": null, "snow": 0.0, "snowdepth": 0.0, "windgust": 23.0, "windspeed": 14.5, "winddir": 192.4, "pressure": 1015.1, "cloudcover": 19.9, "visibility": 8.1, "solarradiation": 165.7, "solarenergy": 14.3, "uvindex": 6.0, "sunrise": "06:32:25", "sunriseEpoch": 1628418745, "sunset": "20:42:49", "sunsetEpoch": 1628469769, "moonphase": 1.0, "conditions": "Clear", "description": "Clear conditions throughout the day.", "icon": "clear-day", "stations": ["71538099999", "72537094847", "KONZ", "F6055", "KDET", "72537514822", "KDTW"], "source": "obs"}], "stations": {"71538099999": {"distance": 14637.0, "latitude": 42.276, "longitude": -82.956, "useCount": 0, "id": "71538099999", "name": "WINDSOR, CA", "quality": 100, "contribution": 0.0}, "72537094847": {"distance": 25056.0, "latitude": 42.231, "longitude": -83.331, "useCount": 0, "id": "72537094847", "name": "DETROIT METRO AIRPORT, MI US", "quality": 100, "contribution": 0.0}, "KONZ": {"distance": 30124.0, "latitude": 42.1, "longitude": -83.16, "useCount": 0, "id": "KONZ", "name": "KONZ", "quality": 100, "contribution": 0.0}, "F6055": {"distance": 25936.0, "latitude": 42.355, "longitude": -83.401, "useCount": 0, "id": "F6055", "name": "FW6055 Livonia MI US", "quality": 0, "contribution": 0.0}, "KDET": {"distance": 8181.0, "latitude": 42.42, "longitude": -83.02, "useCount": 0, "id": "KDET", "name": "KDET", "quality": 100, "contribution": 0.0}, "72537514822": {"distance": 7953.0, "latitude": 42.409, "longitude": -83.01, "useCount": 0, "id": "72537514822", "name": "DETROIT CITY AIRPORT, MI US", "quality": 100, "contribution": 0.0}, "KDTW": {"distance": 25089.0, "latitude": 42.23, "longitude": -83.33, "useCount": 0, "id": "KDTW", "name": "KDTW", "quality": 100, "contribution": 0.0}}}