{"queryCost": 1, "latitude": 42.231, "longitude": -85.336, "resolvedAddress": "42.23100,-85.33600", "address": "42.23100,-85.33600", "timezone": "America/Detroit", "tzoffset": -4.0, "days": [{"datetime": "2021-08-14", "datetimeEpoch": 1628913600, "tempmax": 78.2, "tempmin": 58.7, "temp": 68.3, "feelslikemax": 78.2, "feelslikemin": 58.7, "feelslike": 68.3, "dew": 51.1, "humidity": 57.8, "precip": 0.0, "precipprob": null, "precipcover": 0.0, "preciptype": null, "snow": 0.0, "snowdepth": 0.0, "windgust": null, "windspeed": 9.8, "winddir": 65.1, "pressure": 1023.9, "cloudcover": 0.0, "visibility": 9.9, "solarradiation": 201.7, "solarenergy": 17.4, "uvindex": 6.0, "sunrise": "06:48:00", "sunriseEpoch": 1628938080, "sunset": "20:43:12", "sunsetEpoch": 1628988192, "moonphase": 0.19, "conditions": "Clear", "description": "Clear conditions throughout the day.", "icon": "clear-day", "stations": ["KRMY", "72635794815", "72541554821", "72539614815", "KAZO", "MICER", "KBTL"], "source": "obs"}], "stations": {"KRMY": {"distance": 31059.0, "latitude": 42.25, "longitude": -84.96, "useCount": 0, "id": "KRMY", "name": "KRMY", "quality": 100, "contribution": 0.0}, "72635794815": {"distance": 17800.0, "latitude": 42.235, "longitude": -85.552, "useCount": 0, "id": "72635794815", "name": "KALAMAZOO BATTLE CREEK INTERNATIONAL AIRPORT, MI US", "quality": 100, "contribution": 0.0}, "72541554821": {"distance": 31429.0, "latitude": 42.251, "longitude": -84.956, "useCount": 0, "id": "72541554821", "name": "MARSHALL BROOKS FIELD AIRPORT, MI US", "quality": 100, "contribution": 0.0}, "72539614815": {"distance": 11020.0, "latitude": 42.308, "longitude": -85.251, "useCount": 0, "id": "72539614815", "name": "BATTLE CREEK KELLOGG AIRPORT, MI US", "quality": 100, "contribution": 0.0}, "KAZO": {"distance": 17640.0, "latitude": 42.23, "longitude": -85.55, "useCount": 0, "id": "KAZO", "name": "KAZO", "quality": 100, "contribution": 0.0}, "MICER": {"distance": 15168.0, "latitude": 42.22, "longitude": -85.153, "useCount": 0, "id": "MICER", "name": "Ceresco MI US MAWN", "quality": 0, "contribution": 0.0}, "KBTL": {"distance": 10449.0, "latitude": 42.3, "longitude": -85.25, "useCount": 0, "id": "KBTL", "name": "KBTL", "quality": 100, "contribution": 0.0}}}