{"queryCost": 1, "latitude": 30.466, "longitude": -97.64, "resolvedAddress": "30.46600,-97.64000", "address": "30.46600,-97.64000", "timezone": "America/Chicago", "tzoffset": -5.0, "days": [{"datetime": "2021-08-18", "datetimeEpoch": 1629262800, "tempmax": 92.5, "tempmin": 78.4, "temp": 83.1, "feelslikemax": 101.1, "feelslikemin": 78.4, "feelslike": 88.3, "dew": 74.6, "humidity": 76.67, "precip": 0.0, "precipprob": null, "precipcover": 0.0, "preciptype": null, "snow": 0.0, "snowdepth": 0.0, "windgust": 20.8, "windspeed": 10.7, "winddir": 141.0, "pressure": 1013.3, "cloudcover": 61.4, "visibility": 9.6, "solarradiation": 314.9, "solarenergy": 17.0, "uvindex": 9.0, "sunrise": "06:59:16", "sunriseEpoch": 1629287956, "sunset": "20:08:56", "sunsetEpoch": 1629335336, "moonphase": 0.4, "conditions": "Partially cloudy", "description": "Partly cloudy throughout the day.", "icon": "partly-cloudy-day", "stations": ["TWB60", "F2760", "KATT", "72254413958", "99999963904", "72254753942"], "source": "obs"}], "stations": {"TWB60": {"distance": 7905.0, "latitude": 30.527, "longitude": -97.598, "useCount": 0, "id": "TWB60", "name": "Jim Embree Williamson TX US TWDB", "quality": 0, "contribution": 0.0}, "F2760": {"distance": 7581.0, "latitude": 30.467, "longitude": -97.561, "useCount": 0, "id": "F2760", "name": "FW2760 Pflugerville TX US", "quality": 0, "contribution": 0.0}, "KATT": {"distance": 20493.0, "latitude": 30.32, "longitude": -97.77, "useCount": 0, "id": "KATT", "name": "KATT", "quality": 100, "contribution": 0.0}, "72254413958": {"distance": 19873.0, "latitude": 30.321, "longitude": -97.76, "useCount": 0, "id": "72254413958", "name": "AUSTIN CAMP MABRY, TX US", "quality": 100, "contribution": 0.0}, "99999963904": {"distance": 22333.0, "latitude": 30.573, "longitude": -97.443, "useCount": 0, "id": "99999963904", "name": null, "quality": 97, "contribution": 0.0}, "72254753942": {"distance": 24032.0, "latitude": 30.679, "longitude": -97.679, "useCount": 0, "id": "72254753942", "name": "GEORGETOWN MUNICIPAL AIRPORT, TX US", "quality": 100, "contribution": 0.0}}}