{"queryCost": 1, "latitude": 40.861, "longitude": -79.899, "resolvedAddress": "40.86100,-79.89900", "address": "40.86100,-79.89900", "timezone": "America/New_York", "tzoffset": -4.0, "days": [{"datetime": "2021-08-23", "datetimeEpoch": 1629691200, "tempmax": 87.2, "tempmin": 68.1, "temp": 75.9, "feelslikemax": 93.7, "feelslikemin": 68.1, "feelslike": 77.9, "dew": 69.8, "humidity": 82.9, "precip": 0.13, "precipprob": 100.0, "precipcover": 41.67, "preciptype": ["rain"], "snow": 0.0, "snowdepth": 0.0, "windgust": 16.2, "windspeed": 10.9, "winddir": 301.7, "pressure": 1014.3, "cloudcover": 50.1, "visibility": 7.9, "solarradiation": 127.0, "solarenergy": 10.9, "uvindex": 6.0, "sunrise": "06:37:48", "sunriseEpoch": 1629715068, "sunset": "20:05:46", "sunsetEpoch": 1629763546, "moonphase": 0.51, "conditions": "Rain, Partially cloudy", "description": "Partly cloudy throughout the day with rain.", "icon": "rain", "stations": ["KBTP", "72512464705", "KPIT", "KUCP", "F7554", "72520094823", "72037800122"], "source": "obs"}], "stations": {"KBTP": {"distance": 9988.0, "latitude": 40.78, "longitude": -79.95, "useCount": 0, "id": "KBTP", "name": "BUTLER CO., PA", "quality": 100, "contribution": 0.0}, "72512464705": {"distance": 10290.0, "latitude": 40.777, "longitude": -79.95, "useCount": 0, "id": "72512464705", "name": "BUTLER CO AIRPORT, PA US", "quality": 99, "contribution": 0.0}, "KPIT": {"distance": 48469.0, "latitude": 40.5, "longitude": -80.22, "useCount": 0, "id": "KPIT", "name": "KPIT", "quality": 100, "contribution": 0.0}, "KUCP": {"distance": 46905.0, "latitude": 41.03, "longitude": -80.41, "useCount": 0, "id": "KUCP", "name": "NEW CASTLE/NEW CAST, PA", "quality": 100, "contribution": 0.0}, "F7554": {"distance": 6544.0, "latitude": 40.905, "longitude": -79.951, "useCount": 0, "id": "F7554", "name": "FW7554 Butler PA US", "quality": 0, "contribution": 0.0}, "72520094823": {"distance": 49646.0, "latitude": 40.485, "longitude": -80.214, "useCount": 0, "id": "72520094823", "name": "PITTSBURGH ASOS, PA US", "quality": 100, "contribution": 0.0}, "72037800122": {"distance": 47577.0, "latitude": 41.033, "longitude": -80.417, "useCount": 0, "id": "72037800122", "name": "NEW CASTLE MUNICIPAL AIRPORT, PA US", "quality": 100, "contribution": 0.0}}}