{"queryCost": 1, "latitude": 34.241, "longitude": -111.323, "resolvedAddress": "34.24100,-111.32300", "address": "34.24100,-111.32300", "timezone": "America/Phoenix", "tzoffset": -7.0, "days": [{"datetime": "2021-08-24", "datetimeEpoch": 1629788400, "tempmax": 85.9, "tempmin": 60.8, "temp": 73.5, "feelslikemax": 83.4, "feelslikemin": 60.8, "feelslike": 72.8, "dew": 46.8, "humidity": 40.1, "precip": 0.0, "precipprob": 0.0, "precipcover": 0.0, "preciptype": null, "snow": 0.0, "snowdepth": 0.0, "windgust": 17.2, "windspeed": 8.1, "winddir": 142.1, "pressure": 1022.9, "cloudcover": 0.0, "visibility": 9.9, "solarradiation": 301.7, "solarenergy": 26.2, "uvindex": 10.0, "sunrise": "05:53:14", "sunriseEpoch": 1629809594, "sunset": "19:01:19", "sunsetEpoch": 1629856879, "moonphase": 0.53, "conditions": "Clear", "description": "Clear conditions throughout the day.", "icon": "clear-day", "stations": ["KPAN", "72375600375", "72374500374", "KSEZ", "QPAA3"], "source": "obs"}], "stations": {"KPAN": {"distance": 1191.0, "latitude": 34.25, "longitude": -111.33, "useCount": 0, "id": "KPAN", "name": "KPAN", "quality": 49, "contribution": 0.0}, "72375600375": {"distance": 79843.0, "latitude": 34.85, "longitude": -111.783, "useCount": 0, "id": "72375600375", "name": "SEDONA AIRPORT, AZ US", "quality": 100, "contribution": 0.0}, "72374500374": {"distance": 2311.0, "latitude": 34.257, "longitude": -111.339, "useCount": 0, "id": "72374500374", "name": "PAYSON AIRPORT, AZ US", "quality": 49, "contribution": 0.0}, "KSEZ": {"distance": 79698.0, "latitude": 34.85, "longitude": -111.78, "useCount": 0, "id": "KSEZ", "name": "KSEZ", "quality": 100, "contribution": 0.0}, "QPAA3": {"distance": 1851.0, "latitude": 34.239, "longitude": -111.303, "useCount": 0, "id": "QPAA3", "name": "PAYSON AZ US", "quality": 0, "contribution": 0.0}}}