{"queryCost": 1, "latitude": 40.031, "longitude": -75.104, "resolvedAddress": "40.03100,-75.10400", "address": "40.03100,-75.10400", "timezone": "America/New_York", "tzoffset": -4.0, "days": [{"datetime": "2021-08-18", "datetimeEpoch": 1629259200, "tempmax": 88.3, "tempmin": 74.3, "temp": 80.0, "feelslikemax": 94.2, "feelslikemin": 74.3, "feelslike": 82.8, "dew": 72.4, "humidity": 78.9, "precip": 0.04, "precipprob": 100.0, "precipcover": 8.33, "preciptype": ["rain"], "snow": 0.0, "snowdepth": 0.0, "windgust": 22.3, "windspeed": 14.4, "winddir": 134.2, "pressure": 1020.7, "cloudcover": 91.6, "visibility": 9.7, "solarradiation": 115.1, "solarenergy": 10.0, "uvindex": 6.0, "sunrise": "06:15:05", "sunriseEpoch": 1629281705, "sunset": "19:52:39", "sunsetEpoch": 1629330759, "moonphase": 0.4, "conditions": "Rain, Overcast", "description": "Cloudy skies throughout the day with late afternoon rain.", "icon": "rain", "stations": ["72408594732", "72408013739", "72030464752", "KPHL", "D8567", "KLOM", "KPNE"], "source": "obs"}], "stations": {"72408594732": {"distance": 9382.0, "latitude": 40.079, "longitude": -75.013, "useCount": 0, "id": "72408594732", "name": "NORTHEAST PHILADELPHIA AIRPORT, PA US", "quality": 100, "contribution": 0.0}, "72408013739": {"distance": 20445.0, "latitude": 39.873, "longitude": -75.227, "useCount": 0, "id": "72408013739", "name": "PHILADELPHIA INTERNATIONAL AIRPORT, PA US", "quality": 100, "contribution": 0.0}, "72030464752": {"distance": 15847.0, "latitude": 40.1, "longitude": -75.267, "useCount": 0, "id": "72030464752", "name": "WINGS FIELD, PA US", "quality": 100, "contribution": 0.0}, "KPHL": {"distance": 20923.0, "latitude": 39.88, "longitude": -75.25, "useCount": 0, "id": "KPHL", "name": "KPHL", "quality": 100, "contribution": 0.0}, "D8567": {"distance": 7416.0, "latitude": 40.043, "longitude": -75.018, "useCount": 0, "id": "D8567", "name": "DW8567 Philadelphia PA US", "quality": 0, "contribution": 0.0}, "KLOM": {"distance": 18631.0, "latitude": 40.14, "longitude": -75.27, "useCount": 0, "id": "KLOM", "name": "KLOM", "quality": 100, "contribution": 0.0}, "KPNE": {"distance": 9690.0, "latitude": 40.08, "longitude": -75.01, "useCount": 0, "id": "KPNE", "name": "KPNE", "quality": 100, "contribution": 0.0}}}