{"queryCost": 1, "latitude": 33.934, "longitude": -84.559, "resolvedAddress": "33.93400,-84.55900", "address": "33.93400,-84.55900", "timezone": "America/New_York", "tzoffset": -4.0, "days": [{"datetime": "2021-08-18", "datetimeEpoch": 1629259200, "tempmax": 89.9, "tempmin": 67.3, "temp": 78.5, "feelslikemax": 95.3, "feelslikemin": 67.3, "feelslike": 80.9, "dew": 69.6, "humidity": 76.7, "precip": 0.14, "precipprob": 100.0, "precipcover": 37.5, "preciptype": ["rain"], "snow": 0.0, "snowdepth": 0.0, "windgust": null, "windspeed": 5.6, "winddir": 144.3, "pressure": 1019.5, "cloudcover": 30.4, "visibility": 9.9, "solarradiation": 242.2, "solarenergy": 21.1, "uvindex": 9.0, "sunrise": "07:02:15", "sunriseEpoch": 1629284535, "sunset": "20:21:15", "sunsetEpoch": 1629332475, "moonphase": 0.4, "conditions": "Rain, Partially cloudy", "description": "Becoming cloudy in the afternoon with rain.", "icon": "rain", "stations": ["KMGE", "KFTY", "KRYY", "F6528", "74781263813", "72227013864", "72219503888"], "source": "obs"}], "stations": {"KMGE": {"distance": 3925.0, "latitude": 33.92, "longitude": -84.52, "useCount": 0, "id": "KMGE", "name": "KMGE", "quality": 100, "contribution": 0.0}, "KFTY": {"distance": 17518.0, "latitude": 33.78, "longitude": -84.52, "useCount": 0, "id": "KFTY", "name": "KFTY", "quality": 100, "contribution": 0.0}, "KRYY": {"distance": 9268.0, "latitude": 34.01, "longitude": -84.6, "useCount": 0, "id": "KRYY", "name": "MCCOLLUM FLD, GA", "quality": 100, "contribution": 0.0}, "F6528": {"distance": 7875.0, "latitude": 33.993, "longitude": -84.512, "useCount": 0, "id": "F6528", "name": "FW6528 Marietta GA US", "quality": 0, "contribution": 0.0}, "74781263813": {"distance": 9534.0, "latitude": 34.013, "longitude": -84.599, "useCount": 0, "id": "74781263813", "name": "MARIETTA COBB CO MCCOLLUM FIELD AIRPORT, GA US", "quality": 100, "contribution": 0.0}, "72227013864": {"distance": 4356.0, "latitude": 33.917, "longitude": -84.517, "useCount": 0, "id": "72227013864", "name": "MARIETTA DOBBINS AFB, GA US", "quality": 99, "contribution": 0.0}, "72219503888": {"distance": 17579.0, "latitude": 33.779, "longitude": -84.521, "useCount": 0, "id": "72219503888", "name": "ATLANTA FULTON CO AIRPORT, GA US", "quality": 100, "contribution": 0.0}}}