{"queryCost": 1, "latitude": 43.596, "longitude": -72.97, "resolvedAddress": "43.59600,-72.97000", "address": "43.59600,-72.97000", "timezone": "America/New_York", "tzoffset": -4.0, "days": [{"datetime": "2021-08-25", "datetimeEpoch": 1629864000, "tempmax": 86.1, "tempmin": 64.2, "temp": 75.1, "feelslikemax": 87.9, "feelslikemin": 64.2, "feelslike": 75.9, "dew": 67.1, "humidity": 79.3, "precip": 0.0, "precipprob": 0.0, "precipcover": 0.0, "preciptype": null, "snow": 0.0, "snowdepth": 0.0, "windgust": null, "windspeed": 8.8, "winddir": 158.5, "pressure": 1018.4, "cloudcover": 17.2, "visibility": 9.2, "solarradiation": 233.8, "solarenergy": 20.1, "uvindex": 9.0, "sunrise": "06:08:02", "sunriseEpoch": 1629886082, "sunset": "19:38:57", "sunsetEpoch": 1629934737, "moonphase": 0.55, "conditions": "Clear", "description": "Clear conditions throughout the day.", "icon": "clear-day", "stations": ["F6366", "72611554740", "KRUT", "72516594737", "72611694765", "K6B0", "KVSF"], "source": "obs"}], "stations": {"F6366": {"distance": 18141.0, "latitude": 43.434, "longitude": -72.99, "useCount": 0, "id": "F6366", "name": "FW6366 Wallingford VT US", "quality": 0, "contribution": 0.0}, "72611554740": {"distance": 46088.0, "latitude": 43.344, "longitude": -72.518, "useCount": 0, "id": "72611554740", "name": "SPRINGFIELD HARTNESS STATE AIRPORT, VT US", "quality": 100, "contribution": 0.0}, "KRUT": {"distance": 7522.0, "latitude": 43.53, "longitude": -72.95, "useCount": 0, "id": "KRUT", "name": "RUTLAND, VT", "quality": 100, "contribution": 0.0}, "72516594737": {"distance": 7164.0, "latitude": 43.533, "longitude": -72.95, "useCount": 0, "id": "72516594737", "name": "RUTLAND STATE AIRPORT, VT US", "quality": 100, "contribution": 0.0}, "72611694765": {"distance": 53729.0, "latitude": 43.626, "longitude": -72.305, "useCount": 0, "id": "72611694765", "name": "LEBANON MUNICIPAL AIRPORT, NH US", "quality": 100, "contribution": 0.0}, "K6B0": {"distance": 43821.0, "latitude": 43.98, "longitude": -73.09, "useCount": 0, "id": "K6B0", "name": "K6B0", "quality": 100, "contribution": 0.0}, "KVSF": {"distance": 45513.0, "latitude": 43.35, "longitude": -72.52, "useCount": 0, "id": "KVSF", "name": "KVSF", "quality": 100, "contribution": 0.0}}}