{"queryCost": 1, "latitude": 40.201, "longitude": -74.817, "resolvedAddress": "40.20100,-74.81700", "address": "40.20100,-74.81700", "timezone": "America/New_York", "tzoffset": -4.0, "days": [{"datetime": "2021-08-29", "datetimeEpoch": 1630209600, "tempmax": 77.4, "tempmin": 67.0, "temp": 71.2, "feelslikemax": 77.4, "feelslikemin": 67.0, "feelslike": 71.2, "dew": 66.2, "humidity": 84.2, "precip": 0.0, "precipprob": 0.0, "precipcover": 0.0, "preciptype": null, "snow": 0.0, "snowdepth": 0.0, "windgust": null, "windspeed": 8.0, "winddir": 60.0, "pressure": 1021.1, "cloudcover": 95.7, "visibility": 9.8, "solarradiation": 71.4, "solarenergy": 6.2, "uvindex": 3.0, "sunrise": "06:24:11", "sunriseEpoch": 1630232651, "sunset": "19:35:20", "sunsetEpoch": 1630280120, "moonphase": 0.72, "conditions": "Overcast", "description": "Cloudy skies throughout the day.", "icon": "cloudy", "stations": ["KTTN", "KWRI", "72409514792", "72408594732", "D7364", "72409614706", "KPNE"], "source": "obs"}], "stations": {"KTTN": {"distance": 8814.0, "latitude": 40.28, "longitude": -74.81, "useCount": 0, "id": "KTTN", "name": "KTTN", "quality": 100, "contribution": 0.0}, "KWRI": {"distance": 27919.0, "latitude": 40.02, "longitude": -74.59, "useCount": 0, "id": "KWRI", "name": "KWRI", "quality": 100, "contribution": 0.0}, "72409514792": {"distance": 8439.0, "latitude": 40.277, "longitude": -74.816, "useCount": 0, "id": "72409514792", "name": "TRENTON MERCER AIRPORT, NJ US", "quality": 100, "contribution": 0.0}, "72408594732": {"distance": 21543.0, "latitude": 40.079, "longitude": -75.013, "useCount": 0, "id": "72408594732", "name": "NORTHEAST PHILADELPHIA AIRPORT, PA US", "quality": 100, "contribution": 0.0}, "D7364": {"distance": 5715.0, "latitude": 40.202, "longitude": -74.884, "useCount": 0, "id": "D7364", "name": "DW7364 Langhorne PA US", "quality": 0, "contribution": 0.0}, "72409614706": {"distance": 27609.0, "latitude": 40.017, "longitude": -74.6, "useCount": 0, "id": "72409614706", "name": "MCGUIRE AFB, NJ US", "quality": 100, "contribution": 0.0}, "KPNE": {"distance": 21241.0, "latitude": 40.08, "longitude": -75.01, "useCount": 0, "id": "KPNE", "name": "KPNE", "quality": 100, "contribution": 0.0}}}