{"queryCost": 1, "latitude": 45.584, "longitude": -122.683, "resolvedAddress": "45.58400,-122.68300", "address": "45.58400,-122.68300", "timezone": "America/Los_Angeles", "tzoffset": -7.0, "days": [{"datetime": "2021-08-27", "datetimeEpoch": 1630047600, "tempmax": 72.3, "tempmin": 61.6, "temp": 66.0, "feelslikemax": 72.3, "feelslikemin": 61.6, "feelslike": 66.0, "dew": 49.5, "humidity": 56.7, "precip": 0.0, "precipprob": 0.0, "precipcover": 0.0, "preciptype": null, "snow": 0.0, "snowdepth": 0.0, "windgust": 24.2, "windspeed": 11.3, "winddir": 319.7, "pressure": 1019.7, "cloudcover": 69.2, "visibility": 9.9, "solarradiation": 139.6, "solarenergy": 11.9, "uvindex": 6.0, "sunrise": "06:26:20", "sunriseEpoch": 1630070780, "sunset": "19:57:04", "sunsetEpoch": 1630119424, "moonphase": 0.63, "conditions": "Partially cloudy", "description": "Partly cloudy throughout the day.", "icon": "partly-cloudy-day", "stations": ["KHIO", "KVUO", "72698024229", "KPDX", "KTTD", "F5667", "72791894298"], "source": "obs"}], "stations": {"KHIO": {"distance": 21149.0, "latitude": 45.55, "longitude": -122.95, "useCount": 0, "id": "KHIO", "name": "KHIO", "quality": 100, "contribution": 0.0}, "KVUO": {"distance": 4390.0, "latitude": 45.62, "longitude": -122.66, "useCount": 0, "id": "KVUO", "name": "KVUO", "quality": 100, "contribution": 0.0}, "72698024229": {"distance": 5912.0, "latitude": 45.596, "longitude": -122.609, "useCount": 0, "id": "72698024229", "name": "PORTLAND INTERNATIONAL AIRPORT, OR US", "quality": 100, "contribution": 0.0}, "KPDX": {"distance": 6706.0, "latitude": 45.6, "longitude": -122.6, "useCount": 0, "id": "KPDX", "name": "KPDX", "quality": 100, "contribution": 0.0}, "KTTD": {"distance": 20843.0, "latitude": 45.55, "longitude": -122.42, "useCount": 0, "id": "KTTD", "name": "KTTD", "quality": 100, "contribution": 0.0}, "F5667": {"distance": 9223.0, "latitude": 45.542, "longitude": -122.785, "useCount": 0, "id": "F5667", "name": "FW5667 Portland OR US", "quality": 0, "contribution": 0.0}, "72791894298": {"distance": 4570.0, "latitude": 45.621, "longitude": -122.657, "useCount": 0, "id": "72791894298", "name": "VANCOUVER PEARSON AIRPORT, WA US", "quality": 100, "contribution": 0.0}}}