{"queryCost": 1, "latitude": 38.541, "longitude": -121.424, "resolvedAddress": "38.54100,-121.42400", "address": "38.54100,-121.42400", "timezone": "America/Los_Angeles", "tzoffset": -7.0, "days": [{"datetime": "2021-09-06", "datetimeEpoch": 1630911600, "tempmax": 101.8, "tempmin": 57.9, "temp": 79.1, "feelslikemax": 96.5, "feelslikemin": 57.9, "feelslike": 77.3, "dew": 45.6, "humidity": 37.8, "precip": 0.0, "precipprob": 0.0, "precipcover": 0.0, "preciptype": null, "snow": 0.0, "snowdepth": 0.0, "windgust": null, "windspeed": 8.8, "winddir": 234.4, "pressure": 1012.2, "cloudcover": 3.5, "visibility": 8.0, "solarradiation": 309.7, "solarenergy": 26.7, "uvindex": 10.0, "sunrise": "06:39:40", "sunriseEpoch": 1630935580, "sunset": "19:27:30", "sunsetEpoch": 1630981650, "moonphase": 1.0, "conditions": "Clear", "description": "Clear conditions throughout the day.", "icon": "clear-day", "stations": ["KSMF", "TS389", "72061400205", "72483023232", "72483993225", "KSAC"], "source": "obs"}], "stations": {"KSMF": {"distance": 22302.0, "latitude": 38.7, "longitude": -121.58, "useCount": 0, "id": "KSMF", "name": "SACRAMENTO METRO, CA", "quality": 100, "contribution": 0.0}, "TS389": {"distance": 6742.0, "latitude": 38.569, "longitude": -121.493, "useCount": 0, "id": "TS389", "name": "ARB4 PORTABLE CA US", "quality": 0, "contribution": 0.0}, "72061400205": {"distance": 41453.0, "latitude": 38.909, "longitude": -121.351, "useCount": 0, "id": "72061400205", "name": "LINCOLN REGIONAL AIRPORT KARL HARDER FIELD, CA US", "quality": 100, "contribution": 0.0}, "72483023232": {"distance": 7256.0, "latitude": 38.507, "longitude": -121.495, "useCount": 0, "id": "72483023232", "name": "SACRAMENTO EXECUTIVE AIRPORT, CA US", "quality": 100, "contribution": 0.0}, "72483993225": {"distance": 22464.0, "latitude": 38.696, "longitude": -121.59, "useCount": 0, "id": "72483993225", "name": "SACRAMENTO METROPOLITAN AIRPORT, CA US", "quality": 100, "contribution": 0.0}, "KSAC": {"distance": 7019.0, "latitude": 38.52, "longitude": -121.5, "useCount": 0, "id": "KSAC", "name": "KSAC", "quality": 100, "contribution": 0.0}}}