{"queryCost": 1, "latitude": 39.067, "longitude": -104.51, "resolvedAddress": "39.06700,-104.51000", "address": "39.06700,-104.51000", "timezone": "America/Denver", "tzoffset": -6.0, "days": [{"datetime": "2021-09-01", "datetimeEpoch": 1630476000, "tempmax": 83.9, "tempmin": 57.9, "temp": 71.4, "feelslikemax": 81.2, "feelslikemin": 57.9, "feelslike": 70.6, "dew": 37.4, "humidity": 32.4, "precip": 0.07, "precipprob": 100.0, "precipcover": 8.33, "preciptype": ["rain"], "snow": 0.0, "snowdepth": 0.0, "windgust": 31.1, "windspeed": 17.5, "winddir": 153.0, "pressure": 1005.2, "cloudcover": 40.9, "visibility": 9.7, "solarradiation": 73.9, "solarenergy": 6.5, "uvindex": 4.0, "sunrise": "06:27:03", "sunriseEpoch": 1630499223, "sunset": "19:28:07", "sunsetEpoch": 1630546087, "moonphase": 0.86, "conditions": "Rain, Partially cloudy", "description": "Partly cloudy throughout the day with late afternoon rain.", "icon": "rain", "stations": ["74531093065", "KAFF", "72215503040", "72466093037", "E3562", "KCOS", "KABH"], "source": "obs"}], "stations": {"74531093065": {"distance": 28805.0, "latitude": 38.967, "longitude": -104.817, "useCount": 0, "id": "74531093065", "name": "COLORADO SPRINGS USAF ACADEMY, CO US", "quality": 96, "contribution": 0.0}, "KAFF": {"distance": 28904.0, "latitude": 38.97, "longitude": -104.82, "useCount": 0, "id": "KAFF", "name": "KAFF", "quality": 100, "contribution": 0.0}, "72215503040": {"distance": 19761.0, "latitude": 39.217, "longitude": -104.633, "useCount": 0, "id": "72215503040", "name": "MONUMENT PASS, CO US", "quality": 92, "contribution": 0.0}, "72466093037": {"distance": 32497.0, "latitude": 38.81, "longitude": -104.688, "useCount": 0, "id": "72466093037", "name": "COLORADO SPRINGS MUNICIPAL AIRPORT, CO US", "quality": 100, "contribution": 0.0}, "E3562": {"distance": 6200.0, "latitude": 39.123, "longitude": -104.51, "useCount": 0, "id": "E3562", "name": "EW3562 Peyton CO US", "quality": 0, "contribution": 0.0}, "KCOS": {"distance": 32964.0, "latitude": 38.82, "longitude": -104.72, "useCount": 0, "id": "KCOS", "name": "KCOS", "quality": 100, "contribution": 0.0}, "KABH": {"distance": 37735.0, "latitude": 38.77, "longitude": -104.3, "useCount": 0, "id": "KABH", "name": "KABH", "quality": 98, "contribution": 0.0}}}