{"queryCost": 1, "latitude": 33.926, "longitude": -78.83, "resolvedAddress": "33.92600,-78.83000", "address": "33.92600,-78.83000", "timezone": "America/New_York", "tzoffset": -4.0, "days": [{"datetime": "2021-09-11", "datetimeEpoch": 1631332800, "tempmax": 80.9, "tempmin": 61.1, "temp": 70.5, "feelslikemax": 80.6, "feelslikemin": 61.1, "feelslike": 70.5, "dew": 58.4, "humidity": 69.51, "precip": 0.0, "precipprob": null, "precipcover": 0.0, "preciptype": null, "snow": 0.0, "snowdepth": 0.0, "windgust": null, "windspeed": 8.8, "winddir": 65.7, "pressure": 1022.8, "cloudcover": 15.9, "visibility": 9.9, "solarradiation": 354.6, "solarenergy": 17.9, "uvindex": 8.0, "sunrise": "06:55:59", "sunriseEpoch": 1631357759, "sunset": "19:27:09", "sunsetEpoch": 1631402829, "moonphase": 0.12, "conditions": "Clear", "description": "Clear conditions throughout the day.", "icon": "clear-day", "stations": ["74791593718", "72061300204", "74791013717", "KCRE", "KMYR", "KHYW", "C0637", "C3776"], "source": "obs"}], "stations": {"74791593718": {"distance": 15869.0, "latitude": 33.816, "longitude": -78.72, "useCount": 0, "id": "74791593718", "name": "NORTH MYRTLE BEACH, SC US", "quality": 100, "contribution": 0.0}, "72061300204": {"distance": 29109.0, "latitude": 33.828, "longitude": -79.122, "useCount": 0, "id": "72061300204", "name": "CONWAY HORRY CO AIRPORT, SC US", "quality": 100, "contribution": 0.0}, "74791013717": {"distance": 28657.0, "latitude": 33.683, "longitude": -78.933, "useCount": 0, "id": "74791013717", "name": "MYRTLE BEACH AFB, SC US", "quality": 100, "contribution": 0.0}, "KCRE": {"distance": 15576.0, "latitude": 33.82, "longitude": -78.72, "useCount": 0, "id": "KCRE", "name": "KCRE", "quality": 100, "contribution": 0.0}, "KMYR": {"distance": 28905.0, "latitude": 33.68, "longitude": -78.93, "useCount": 0, "id": "KMYR", "name": "KMYR", "quality": 100, "contribution": 0.0}, "KHYW": {"distance": 28854.0, "latitude": 33.83, "longitude": -79.12, "useCount": 0, "id": "KHYW", "name": "KHYW", "quality": 99, "contribution": 0.0}, "C0637": {"distance": 19599.0, "latitude": 33.784, "longitude": -78.955, "useCount": 0, "id": "C0637", "name": "CW0637 Myrtle Beach SC US", "quality": 0, "contribution": 0.0}, "C3776": {"distance": 16140.0, "latitude": 34.067, "longitude": -78.87, "useCount": 0, "id": "C3776", "name": "CW3776 Loris SC US", "quality": 0, "contribution": 0.0}}}