{"queryCost": 1, "latitude": 38.736, "longitude": -85.0, "resolvedAddress": "38.73600,-85.00000", "address": "38.73600,-85.00000", "timezone": "America/New_York", "tzoffset": -4.0, "days": [{"datetime": "2021-09-18", "datetimeEpoch": 1631937600, "tempmax": 88.0, "tempmin": 66.2, "temp": 76.4, "feelslikemax": 89.1, "feelslikemin": 66.2, "feelslike": 77.2, "dew": 66.0, "humidity": 73.0, "precip": 0.0, "precipprob": 0.0, "precipcover": 0.0, "preciptype": null, "snow": 0.0, "snowdepth": 0.0, "windgust": null, "windspeed": 6.7, "winddir": 131.3, "pressure": 1019.5, "cloudcover": 41.1, "visibility": 9.1, "solarradiation": 92.8, "solarenergy": 7.7, "uvindex": 5.0, "sunrise": "07:24:21", "sunriseEpoch": 1631964261, "sunset": "19:43:03", "sunsetEpoch": 1632008583, "moonphase": 0.47, "conditions": "Partially cloudy", "description": "Partly cloudy throughout the day.", "icon": "partly-cloudy-day", "stations": ["KLUK", "72421093814", "F2103", "KCVG", "KFFT", "KI67", "72423353841"], "source": "obs"}], "stations": {"KLUK": {"distance": 64540.0, "latitude": 39.1, "longitude": -84.42, "useCount": 0, "id": "KLUK", "name": "KLUK", "quality": 100, "contribution": 0.0}, "72421093814": {"distance": 44546.0, "latitude": 39.044, "longitude": -84.672, "useCount": 0, "id": "72421093814", "name": "CINCINNATI NORTHERN KENTUCKY INTERNATIONAL AIRPORT, KY US", "quality": 100, "contribution": 0.0}, "F2103": {"distance": 26567.0, "latitude": 38.534, "longitude": -84.838, "useCount": 0, "id": "F2103", "name": "FW2103 Owenton KY US", "quality": 0, "contribution": 0.0}, "KCVG": {"distance": 44304.0, "latitude": 39.04, "longitude": -84.67, "useCount": 0, "id": "KCVG", "name": "KCVG", "quality": 100, "contribution": 0.0}, "KFFT": {"distance": 62504.0, "latitude": 38.18, "longitude": -84.9, "useCount": 0, "id": "KFFT", "name": "KFFT", "quality": 100, "contribution": 0.0}, "KI67": {"distance": 60301.0, "latitude": 39.25, "longitude": -84.78, "useCount": 0, "id": "KI67", "name": "KI67", "quality": 99, "contribution": 0.0}, "72423353841": {"distance": 61947.0, "latitude": 38.185, "longitude": -84.903, "useCount": 0, "id": "72423353841", "name": "FRANKFORT CAPITAL CITY AIRPORT, KY US", "quality": 100, "contribution": 0.0}}}