{"queryCost": 1, "latitude": 34.494, "longitude": -97.108, "resolvedAddress": "34.49400,-97.10800", "address": "34.49400,-97.10800", "timezone": "America/Chicago", "tzoffset": -5.0, "days": [{"datetime": "2021-09-15", "datetimeEpoch": 1631682000, "tempmax": 89.0, "tempmin": 63.3, "temp": 75.8, "feelslikemax": 90.0, "feelslikemin": 63.3, "feelslike": 76.3, "dew": 64.7, "humidity": 72.3, "precip": 0.0, "precipprob": 0.0, "precipcover": 0.0, "preciptype": null, "snow": 0.0, "snowdepth": 0.0, "windgust": 12.8, "windspeed": 7.2, "winddir": 37.0, "pressure": 1013.7, "cloudcover": 21.5, "visibility": 9.9, "solarradiation": 193.9, "solarenergy": 16.8, "uvindex": 9.0, "sunrise": "07:11:41", "sunriseEpoch": 1631707901, "sunset": "19:34:48", "sunsetEpoch": 1631752488, "moonphase": 0.34, "conditions": "Partially cloudy", "description": "Partly cloudy throughout the day.", "icon": "partly-cloudy-day", "stations": ["K1F0", "A0000453929", "72217353951", "D6599", "KPVJ", "KADM", "72355593940"], "source": "obs"}], "stations": {"K1F0": {"distance": 36084.0, "latitude": 34.17, "longitude": -97.12, "useCount": 0, "id": "K1F0", "name": "K1F0", "quality": 97, "contribution": 0.0}, "A0000453929": {"distance": 38662.0, "latitude": 34.147, "longitude": -97.122, "useCount": 0, "id": "A0000453929", "name": "ARDMORE DOWNTOWN AIRPORT, OK US", "quality": 90, "contribution": 0.0}, "72217353951": {"distance": 26338.0, "latitude": 34.711, "longitude": -97.223, "useCount": 0, "id": "72217353951", "name": "PAULS VALLEY MUNICIPAL AIRPORT, OK US", "quality": 99, "contribution": 0.0}, "D6599": {"distance": 37884.0, "latitude": 34.154, "longitude": -97.112, "useCount": 0, "id": "D6599", "name": "DW6599 Ardmore OK US", "quality": 0, "contribution": 0.0}, "KPVJ": {"distance": 26143.0, "latitude": 34.71, "longitude": -97.22, "useCount": 0, "id": "KPVJ", "name": "KPVJ", "quality": 98, "contribution": 0.0}, "KADM": {"distance": 24105.0, "latitude": 34.29, "longitude": -97.02, "useCount": 0, "id": "KADM", "name": "KADM", "quality": 99, "contribution": 0.0}, "72355593940": {"distance": 23167.0, "latitude": 34.3, "longitude": -97.017, "useCount": 0, "id": "72355593940", "name": "ARDMORE MUNICIPAL AIRPORT, OK US", "quality": 93, "contribution": 0.0}}}