{"queryCost": 1, "latitude": 34.612, "longitude": -89.839, "resolvedAddress": "34.61200,-89.83900", "address": "34.61200,-89.83900", "timezone": "America/Chicago", "tzoffset": -5.0, "days": [{"datetime": "2021-09-23", "datetimeEpoch": 1632373200, "tempmax": 75.1, "tempmin": 50.1, "temp": 62.0, "feelslikemax": 75.1, "feelslikemin": 50.1, "feelslike": 62.0, "dew": 49.3, "humidity": 68.1, "precip": 0.0, "precipprob": 0.0, "precipcover": 0.0, "preciptype": null, "snow": 0.0, "snowdepth": 0.0, "windgust": 16.5, "windspeed": 9.7, "winddir": 196.1, "pressure": 1019.2, "cloudcover": 3.2, "visibility": 9.9, "solarradiation": 93.9, "solarenergy": 8.0, "uvindex": 8.0, "sunrise": "06:48:18", "sunriseEpoch": 1632397698, "sunset": "18:54:22", "sunsetEpoch": 1632441262, "moonphase": 0.53, "conditions": "Clear", "description": "Clear conditions throughout the day.", "icon": "clear-day", "stations": ["KUTA", "72334013893", "72236423903", "KMEM", "KOLV", "F0416", "99999923803"], "source": "obs"}], "stations": {"KUTA": {"distance": 47406.0, "latitude": 34.68, "longitude": -90.35, "useCount": 0, "id": "KUTA", "name": "KUTA", "quality": 98, "contribution": 0.0}, "72334013893": {"distance": 51273.0, "latitude": 35.056, "longitude": -89.986, "useCount": 0, "id": "72334013893", "name": "MEMPHIS INTERNATIONAL AIRPORT, TN US", "quality": 100, "contribution": 0.0}, "72236423903": {"distance": 47127.0, "latitude": 34.681, "longitude": -90.347, "useCount": 0, "id": "72236423903", "name": "TUNICA MUNICIPAL AIRPORT, MS US", "quality": 100, "contribution": 0.0}, "KMEM": {"distance": 49865.0, "latitude": 35.04, "longitude": -90.0, "useCount": 0, "id": "KMEM", "name": "KMEM", "quality": 100, "contribution": 0.0}, "KOLV": {"distance": 40103.0, "latitude": 34.97, "longitude": -89.79, "useCount": 0, "id": "KOLV", "name": "KOLV", "quality": 100, "contribution": 0.0}, "F0416": {"distance": 32468.0, "latitude": 34.899, "longitude": -89.904, "useCount": 0, "id": "F0416", "name": "FW0416 Nesbit MS US", "quality": 0, "contribution": 0.0}, "99999923803": {"distance": 43771.0, "latitude": 34.822, "longitude": -89.435, "useCount": 0, "id": "99999923803", "name": "HOLLY SPRINGS 4 N, MS US", "quality": 100, "contribution": 0.0}}}