{"queryCost": 1, "latitude": 33.727, "longitude": -84.28, "resolvedAddress": "33.72700,-84.28000", "address": "33.72700,-84.28000", "timezone": "America/New_York", "tzoffset": -4.0, "days": [{"datetime": "2021-09-25", "datetimeEpoch": 1632542400, "tempmax": 77.2, "tempmin": 54.0, "temp": 64.9, "feelslikemax": 77.2, "feelslikemin": 54.0, "feelslike": 64.9, "dew": 53.5, "humidity": 69.9, "precip": 0.0, "precipprob": 0.0, "precipcover": 0.0, "preciptype": null, "snow": 0.0, "snowdepth": 0.0, "windgust": 21.9, "windspeed": 9.6, "winddir": 211.6, "pressure": 1018.7, "cloudcover": 18.8, "visibility": 9.8, "solarradiation": 212.8, "solarenergy": 18.2, "uvindex": 7.0, "sunrise": "07:27:27", "sunriseEpoch": 1632569247, "sunset": "19:29:23", "sunsetEpoch": 1632612563, "moonphase": 0.6, "conditions": "Clear", "description": "Clear conditions throughout the day.", "icon": "clear-day", "stations": ["0536W", "KFTY", "0349W", "72219013874", "KATL", "72219653863", "72219503888", "KPDK"], "source": "obs"}], "stations": {"0536W": {"distance": 9098.0, "latitude": 33.8, "longitude": -84.324, "useCount": 0, "id": "0536W", "name": "Emory Druid Hills GA US WEATHERSTEM", "quality": 0, "contribution": 0.0}, "KFTY": {"distance": 22983.0, "latitude": 33.78, "longitude": -84.52, "useCount": 0, "id": "KFTY", "name": "KFTY", "quality": 100, "contribution": 0.0}, "0349W": {"distance": 11595.0, "latitude": 33.772, "longitude": -84.393, "useCount": 0, "id": "0349W", "name": "Georgia Tech Bobby Dodd Stadium GA US WEATHERSTEM", "quality": 0, "contribution": 0.0}, "72219013874": {"distance": 18466.0, "latitude": 33.63, "longitude": -84.442, "useCount": 0, "id": "72219013874", "name": "ATLANTA HARTSFIELD INTERNATIONAL AIRPORT, GA US", "quality": 100, "contribution": 0.0}, "KATL": {"distance": 15544.0, "latitude": 33.65, "longitude": -84.42, "useCount": 0, "id": "KATL", "name": "KATL", "quality": 100, "contribution": 0.0}, "72219653863": {"distance": 16603.0, "latitude": 33.875, "longitude": -84.302, "useCount": 0, "id": "72219653863", "name": "ATLANTA DEKALB PEACHTREE AIRPORT, GA US", "quality": 100, "contribution": 0.0}, "72219503888": {"distance": 23086.0, "latitude": 33.779, "longitude": -84.521, "useCount": 0, "id": "72219503888", "name": "ATLANTA FULTON CO AIRPORT, GA US", "quality": 100, "contribution": 0.0}, "KPDK": {"distance": 17132.0, "latitude": 33.88, "longitude": -84.3, "useCount": 0, "id": "KPDK", "name": "KPDK", "quality": 100, "contribution": 0.0}}}