{"queryCost": 1, "latitude": 37.01, "longitude": -121.571, "resolvedAddress": "37.01000,-121.57100", "address": "37.01000,-121.57100", "timezone": "America/Los_Angeles", "tzoffset": -7.0, "days": [{"datetime": "2021-09-08", "datetimeEpoch": 1631084400, "tempmax": 87.8, "tempmin": 56.4, "temp": 68.7, "feelslikemax": 86.4, "feelslikemin": 56.4, "feelslike": 68.5, "dew": 55.9, "humidity": 67.8, "precip": 0.0, "precipprob": 0.0, "precipcover": 0.0, "preciptype": null, "snow": 0.0, "snowdepth": 0.0, "windgust": 11.4, "windspeed": 11.6, "winddir": 165.9, "pressure": 1011.9, "cloudcover": 9.3, "visibility": 7.9, "solarradiation": 208.8, "solarenergy": 17.8, "uvindex": 8.0, "sunrise": "06:43:02", "sunriseEpoch": 1631108582, "sunset": "19:23:58", "sunsetEpoch": 1631154238, "moonphase": 0.01, "conditions": "Clear", "description": "Clear conditions throughout the day.", "icon": "clear-day", "stations": ["72593023233", "74505823277", "KCVH", "74917900392", "KWVI", "KSNS", "E4769"], "source": "obs"}], "stations": {"72593023233": {"distance": 38702.0, "latitude": 36.664, "longitude": -121.608, "useCount": 0, "id": "72593023233", "name": "SALINAS AIRPORT, CA US", "quality": 100, "contribution": 0.0}, "74505823277": {"distance": 21074.0, "latitude": 36.936, "longitude": -121.789, "useCount": 0, "id": "74505823277", "name": "WATSONVILLE MUNICIPAL AIRPORT, CA US", "quality": 99, "contribution": 0.0}, "KCVH": {"distance": 19585.0, "latitude": 36.89, "longitude": -121.41, "useCount": 0, "id": "KCVH", "name": "KCVH", "quality": 100, "contribution": 0.0}, "74917900392": {"distance": 18374.0, "latitude": 36.9, "longitude": -121.417, "useCount": 0, "id": "74917900392", "name": "HOLLISTER MUNICIPAL AIRPORT, CA US", "quality": 99, "contribution": 0.0}, "KWVI": {"distance": 20977.0, "latitude": 36.94, "longitude": -121.79, "useCount": 0, "id": "KWVI", "name": "KWVI", "quality": 100, "contribution": 0.0}, "KSNS": {"distance": 37937.0, "latitude": 36.67, "longitude": -121.6, "useCount": 0, "id": "KSNS", "name": "KSNS", "quality": 99, "contribution": 0.0}, "E4769": {"distance": 4731.0, "latitude": 37.05, "longitude": -121.59, "useCount": 0, "id": "E4769", "name": "EW4769 Scotts Valley CA US", "quality": 0, "contribution": 0.0}}}