{"queryCost": 1, "latitude": 36.739, "longitude": -108.133, "resolvedAddress": "36.73900,-108.13300", "address": "36.73900,-108.13300", "timezone": "America/Denver", "tzoffset": -6.0, "days": [{"datetime": "2021-09-13", "datetimeEpoch": 1631512800, "tempmax": 89.7, "tempmin": 56.7, "temp": 73.3, "feelslikemax": 85.7, "feelslikemin": 56.7, "feelslike": 72.1, "dew": 36.6, "humidity": 28.84, "precip": 0.0, "precipprob": null, "precipcover": 0.0, "preciptype": null, "snow": 0.0, "snowdepth": 0.0, "windgust": 26.4, "windspeed": 17.2, "winddir": 175.4, "pressure": 1013.6, "cloudcover": 9.8, "visibility": 9.9, "solarradiation": 77.6, "solarenergy": 6.4, "uvindex": 2.0, "sunrise": "06:53:25", "sunriseEpoch": 1631537605, "sunset": "19:22:36", "sunsetEpoch": 1631582556, "moonphase": 0.23, "conditions": "Clear", "description": "Clear conditions throughout the day.", "icon": "clear-day", "stations": ["99999903061", "KDRO", "NMC03", "72365823090", "KCEZ", "KFMN", "72462593005"], "source": "obs"}], "stations": {"99999903061": {"distance": 66266.0, "latitude": 37.255, "longitude": -108.504, "useCount": 0, "id": "99999903061", "name": "CORTEZ 8 SE, CO US", "quality": 100, "contribution": 0.0}, "KDRO": {"distance": 57047.0, "latitude": 37.15, "longitude": -107.75, "useCount": 0, "id": "KDRO", "name": "KDRO", "quality": 100, "contribution": 0.0}, "NMC03": {"distance": 16842.0, "latitude": 36.687, "longitude": -108.31, "useCount": 0, "id": "NMC03", "name": "Farmington ASC NM US NMCC", "quality": 0, "contribution": 0.0}, "72365823090": {"distance": 8579.0, "latitude": 36.744, "longitude": -108.229, "useCount": 0, "id": "72365823090", "name": "FARMINGTON FOUR CORNERS REGIONAL AIRPORT, NM US", "quality": 100, "contribution": 0.0}, "KCEZ": {"distance": 75589.0, "latitude": 37.29, "longitude": -108.63, "useCount": 0, "id": "KCEZ", "name": "KCEZ", "quality": 100, "contribution": 0.0}, "KFMN": {"distance": 8739.0, "latitude": 36.75, "longitude": -108.23, "useCount": 0, "id": "KFMN", "name": "KFMN", "quality": 100, "contribution": 0.0}, "72462593005": {"distance": 55901.0, "latitude": 37.143, "longitude": -107.76, "useCount": 0, "id": "72462593005", "name": "DURANGO LA PLATA CO AIRPORT, CO US", "quality": 100, "contribution": 0.0}}}