{"queryCost": 1, "latitude": 35.385, "longitude": -94.399, "resolvedAddress": "35.38500,-94.39900", "address": "35.38500,-94.39900", "timezone": "America/Chicago", "tzoffset": -5.0, "days": [{"datetime": "2021-10-17", "datetimeEpoch": 1634446800, "tempmax": 75.7, "tempmin": 44.8, "temp": 58.1, "feelslikemax": 75.7, "feelslikemin": 44.8, "feelslike": 58.1, "dew": 43.3, "humidity": 64.3, "precip": 0.0, "precipprob": 0.0, "precipcover": 0.0, "preciptype": null, "snow": 0.0, "snowdepth": 0.0, "windgust": null, "windspeed": 6.8, "winddir": 102.1, "pressure": 1024.9, "cloudcover": 0.0, "visibility": 9.9, "solarradiation": 102.3, "solarenergy": 8.7, "uvindex": 6.0, "sunrise": "07:25:49", "sunriseEpoch": 1634473549, "sunset": "18:39:24", "sunsetEpoch": 1634513964, "moonphase": 0.45, "conditions": "Clear", "description": "Clear conditions throughout the day.", "icon": "clear-day", "stations": ["72217853953", "KFSM", "F8395", "72213353946", "72344013964", "KRKR"], "source": "obs"}], "stations": {"72217853953": {"distance": 45237.0, "latitude": 35.021, "longitude": -94.621, "useCount": 0, "id": "72217853953", "name": "POTEAU ROBERT S KERR AIRPORT, OK US", "quality": 100, "contribution": 0.0}, "KFSM": {"distance": 6665.0, "latitude": 35.33, "longitude": -94.37, "useCount": 0, "id": "KFSM", "name": "KFSM", "quality": 100, "contribution": 0.0}, "F8395": {"distance": 4485.0, "latitude": 35.354, "longitude": -94.367, "useCount": 0, "id": "F8395", "name": "FW8395 Fort Smith AR US", "quality": 0, "contribution": 0.0}, "72213353946": {"distance": 37109.0, "latitude": 35.438, "longitude": -94.803, "useCount": 0, "id": "72213353946", "name": "SALLISAW MUNICIPAL AIRPORT, OK US", "quality": 100, "contribution": 0.0}, "72344013964": {"distance": 6670.0, "latitude": 35.333, "longitude": -94.362, "useCount": 0, "id": "72344013964", "name": "FORT SMITH REGIONAL AIRPORT, AR US", "quality": 100, "contribution": 0.0}, "KRKR": {"distance": 45332.0, "latitude": 35.02, "longitude": -94.62, "useCount": 0, "id": "KRKR", "name": "KRKR", "quality": 100, "contribution": 0.0}}}