{"queryCost": 1, "latitude": 40.479, "longitude": -74.614, "resolvedAddress": "40.47900,-74.61400", "address": "40.47900,-74.61400", "timezone": "America/New_York", "tzoffset": -4.0, "days": [{"datetime": "2021-09-28", "datetimeEpoch": 1632801600, "tempmax": 73.3, "tempmin": 57.6, "temp": 64.2, "feelslikemax": 73.3, "feelslikemin": 57.6, "feelslike": 64.1, "dew": 59.4, "humidity": 84.86, "precip": 0.1, "precipprob": null, "precipcover": 12.5, "preciptype": null, "snow": 0.0, "snowdepth": 0.0, "windgust": null, "windspeed": 7.2, "winddir": 298.5, "pressure": 1010.4, "cloudcover": 43.8, "visibility": 9.7, "solarradiation": 114.2, "solarenergy": 5.3, "uvindex": 3.0, "sunrise": "06:52:08", "sunriseEpoch": 1632826328, "sunset": "18:45:13", "sunsetEpoch": 1632869113, "moonphase": 0.73, "conditions": "Rain, Partially cloudy", "description": "Partly cloudy throughout the day with rain in the morning and afternoon.", "icon": "rain", "stations": ["KTTN", "72409514792", "72224754785", "72502014734", "72058100178", "F6261", "KSMQ", "F7617"], "source": "obs"}], "stations": {"KTTN": {"distance": 27695.0, "latitude": 40.28, "longitude": -74.81, "useCount": 0, "id": "KTTN", "name": "KTTN", "quality": 100, "contribution": 0.0}, "72409514792": {"distance": 28281.0, "latitude": 40.277, "longitude": -74.816, "useCount": 0, "id": "72409514792", "name": "TRENTON MERCER AIRPORT, NJ US", "quality": 100, "contribution": 0.0}, "72224754785": {"distance": 16811.0, "latitude": 40.624, "longitude": -74.669, "useCount": 0, "id": "72224754785", "name": "SOMERSET AIRPORT, NJ US", "quality": 100, "contribution": 0.0}, "72502014734": {"distance": 43888.0, "latitude": 40.683, "longitude": -74.169, "useCount": 0, "id": "72502014734", "name": "NEWARK LIBERTY INTERNATIONAL AIRPORT, NJ US", "quality": 100, "contribution": 0.0}, "72058100178": {"distance": 34409.0, "latitude": 40.617, "longitude": -74.25, "useCount": 0, "id": "72058100178", "name": "LINDEN AIRPORT, NJ US", "quality": 91, "contribution": 0.0}, "F6261": {"distance": 10308.0, "latitude": 40.572, "longitude": -74.62, "useCount": 0, "id": "F6261", "name": "FW6261 Somerville NJ US", "quality": 0, "contribution": 0.0}, "KSMQ": {"distance": 17464.0, "latitude": 40.63, "longitude": -74.67, "useCount": 0, "id": "KSMQ", "name": "KSMQ", "quality": 100, "contribution": 0.0}, "F7617": {"distance": 11681.0, "latitude": 40.582, "longitude": -74.589, "useCount": 0, "id": "F7617", "name": "FW7617 Bridgewater NJ US", "quality": 0, "contribution": 0.0}}}