{"queryCost": 1, "latitude": 43.049, "longitude": -76.183, "resolvedAddress": "43.04900,-76.18300", "address": "43.04900,-76.18300", "timezone": "America/New_York", "tzoffset": -4.0, "days": [{"datetime": "2021-10-20", "datetimeEpoch": 1634702400, "tempmax": 73.7, "tempmin": 56.9, "temp": 63.1, "feelslikemax": 73.7, "feelslikemin": 56.9, "feelslike": 63.1, "dew": 52.9, "humidity": 70.8, "precip": 0.0, "precipprob": null, "precipcover": 0.0, "preciptype": null, "snow": 0.0, "snowdepth": 0.0, "windgust": 32.2, "windspeed": 19.3, "winddir": 256.6, "pressure": 1015.0, "cloudcover": 51.8, "visibility": 9.9, "solarradiation": 215.6, "solarenergy": 10.9, "uvindex": 6.0, "sunrise": "07:24:39", "sunriseEpoch": 1634729079, "sunset": "18:13:36", "sunsetEpoch": 1634768016, "moonphase": 0.5, "conditions": "Partially cloudy", "description": "Becoming cloudy in the afternoon.", "icon": "partly-cloudy-day", "stations": ["KSYR", "72519014771", "72514654773", "KFZY", "AS511", "72519664775", "GVAN6", "KRME"], "source": "obs"}], "stations": {"KSYR": {"distance": 9418.0, "latitude": 43.12, "longitude": -76.12, "useCount": 0, "id": "KSYR", "name": "KSYR", "quality": 100, "contribution": 0.0}, "72519014771": {"distance": 9448.0, "latitude": 43.111, "longitude": -76.104, "useCount": 0, "id": "72519014771", "name": "SYRACUSE HANCOCK INTERNATIONAL AIRPORT, NY US", "quality": 100, "contribution": 0.0}, "72514654773": {"distance": 37261.0, "latitude": 43.35, "longitude": -76.385, "useCount": 0, "id": "72514654773", "name": "FULTON OSWEGO CO AIRPORT, NY US", "quality": 100, "contribution": 0.0}, "KFZY": {"distance": 37482.0, "latitude": 43.35, "longitude": -76.39, "useCount": 0, "id": "KFZY", "name": "KFZY", "quality": 100, "contribution": 0.0}, "AS511": {"distance": 2269.0, "latitude": 43.047, "longitude": -76.155, "useCount": 0, "id": "AS511", "name": "K2MST Syracuse NY US", "quality": 0, "contribution": 0.0}, "72519664775": {"distance": 65944.0, "latitude": 43.234, "longitude": -75.412, "useCount": 0, "id": "72519664775", "name": "ROME GRIFFISS AIRFIELD, NY US", "quality": 100, "contribution": 0.0}, "GVAN6": {"distance": 71678.0, "latitude": 42.883, "longitude": -77.033, "useCount": 0, "id": "GVAN6", "name": "GENEVA #1 NY US SCAN", "quality": 0, "contribution": 0.0}, "KRME": {"distance": 66717.0, "latitude": 43.23, "longitude": -75.4, "useCount": 0, "id": "KRME", "name": "KRME", "quality": 100, "contribution": 0.0}}}