{"queryCost": 1, "latitude": 29.592, "longitude": -90.726, "resolvedAddress": "29.59200,-90.72600", "address": "29.59200,-90.72600", "timezone": "America/Chicago", "tzoffset": -5.0, "days": [{"datetime": "2021-10-04", "datetimeEpoch": 1633323600, "tempmax": 84.2, "tempmin": 72.5, "temp": 76.8, "feelslikemax": 90.1, "feelslikemin": 72.5, "feelslike": 78.2, "dew": 73.1, "humidity": 89.23, "precip": 0.06, "precipprob": null, "precipcover": 12.5, "preciptype": null, "snow": 0.0, "snowdepth": 0.0, "windgust": null, "windspeed": 8.6, "winddir": 200.4, "pressure": 1013.9, "cloudcover": 68.4, "visibility": 8.6, "solarradiation": 248.3, "solarenergy": 11.6, "uvindex": 8.0, "sunrise": "06:58:00", "sunriseEpoch": 1633348680, "sunset": "18:44:35", "sunsetEpoch": 1633391075, "moonphase": 0.98, "conditions": "Rain, Partially cloudy", "description": "Partly cloudy throughout the day with late afternoon rain.", "icon": "rain", "stations": ["72232912936", "72104600460", "72231012916", "KMSY", "KNBG", "72240312968", "KPTN", "E3833", "72231612958"], "source": "obs"}], "stations": {"72232912936": {"distance": 60368.0, "latitude": 29.717, "longitude": -91.333, "useCount": 0, "id": "72232912936", "name": "PATTERSON, LA US", "quality": 100, "contribution": 0.0}, "72104600460": {"distance": 67881.0, "latitude": 30.173, "longitude": -90.941, "useCount": 0, "id": "72104600460", "name": "LOUISIANA REGIONAL AIRPORT, LA US", "quality": 100, "contribution": 0.0}, "72231012916": {"distance": 62521.0, "latitude": 29.997, "longitude": -90.277, "useCount": 0, "id": "72231012916", "name": "NEW ORLEANS AIRPORT, LA US", "quality": 100, "contribution": 0.0}, "KMSY": {"distance": 63090.0, "latitude": 29.98, "longitude": -90.25, "useCount": 0, "id": "KMSY", "name": "KMSY", "quality": 100, "contribution": 0.0}, "KNBG": {"distance": 72320.0, "latitude": 29.83, "longitude": -90.03, "useCount": 0, "id": "KNBG", "name": "KNBG", "quality": 97, "contribution": 0.0}, "72240312968": {"distance": 77483.0, "latitude": 29.562, "longitude": -91.526, "useCount": 0, "id": "72240312968", "name": "SALT POINT, LA US", "quality": 100, "contribution": 0.0}, "KPTN": {"distance": 60142.0, "latitude": 29.72, "longitude": -91.33, "useCount": 0, "id": "KPTN", "name": "PATTERSON, LA", "quality": 100, "contribution": 0.0}, "E3833": {"distance": 38294.0, "latitude": 29.934, "longitude": -90.68, "useCount": 0, "id": "E3833", "name": "EW3833 Vacherie LA US", "quality": 0, "contribution": 0.0}, "72231612958": {"distance": 73002.0, "latitude": 29.817, "longitude": -90.017, "useCount": 0, "id": "72231612958", "name": "NEW ORLEANS ALVIN CALLENDER FIELD, LA US", "quality": 96, "contribution": 0.0}}}