{"queryCost": 1, "latitude": 39.921, "longitude": -82.897, "resolvedAddress": "39.92100,-82.89700", "address": "39.92100,-82.89700", "timezone": "America/New_York", "tzoffset": -4.0, "days": [{"datetime": "2021-09-29", "datetimeEpoch": 1632888000, "tempmax": 76.8, "tempmin": 50.8, "temp": 63.2, "feelslikemax": 76.8, "feelslikemin": 50.8, "feelslike": 63.2, "dew": 48.7, "humidity": 62.2, "precip": 0.0, "precipprob": 0.0, "precipcover": 0.0, "preciptype": null, "snow": 0.0, "snowdepth": 0.0, "windgust": null, "windspeed": 7.6, "winddir": 96.2, "pressure": 1018.0, "cloudcover": 1.9, "visibility": 9.9, "solarradiation": 77.6, "solarenergy": 6.7, "uvindex": 5.0, "sunrise": "07:26:09", "sunriseEpoch": 1632914769, "sunset": "19:16:48", "sunsetEpoch": 1632957408, "moonphase": 0.77, "conditions": "Clear", "description": "Clear conditions throughout the day.", "icon": "clear-day", "stations": ["KCMH", "KOSU", "KLHQ", "72428804804", "72429453844", "F7605", "72428014821"], "source": "obs"}], "stations": {"KCMH": {"distance": 8913.0, "latitude": 40.0, "longitude": -82.88, "useCount": 0, "id": "KCMH", "name": "KCMH", "quality": 100, "contribution": 0.0}, "KOSU": {"distance": 23042.0, "latitude": 40.08, "longitude": -83.07, "useCount": 0, "id": "KOSU", "name": "KOSU", "quality": 100, "contribution": 0.0}, "KLHQ": {"distance": 27048.0, "latitude": 39.76, "longitude": -82.66, "useCount": 0, "id": "KLHQ", "name": "KLHQ", "quality": 100, "contribution": 0.0}, "72428804804": {"distance": 23331.0, "latitude": 40.078, "longitude": -83.078, "useCount": 0, "id": "72428804804", "name": "COLUMBUS OHIO STATE UNIVERSITY AIRPORT, OH US", "quality": 100, "contribution": 0.0}, "72429453844": {"distance": 27553.0, "latitude": 39.756, "longitude": -82.657, "useCount": 0, "id": "72429453844", "name": "LANCASTER FAIRFIELD CO AIRPORT, OH US", "quality": 100, "contribution": 0.0}, "F7605": {"distance": 12068.0, "latitude": 39.996, "longitude": -82.794, "useCount": 0, "id": "F7605", "name": "FW7605 Blacklick OH US", "quality": 0, "contribution": 0.0}, "72428014821": {"distance": 7944.0, "latitude": 39.991, "longitude": -82.877, "useCount": 0, "id": "72428014821", "name": "PORT COLUMBUS INTERNATIONAL AIRPORT, OH US", "quality": 100, "contribution": 0.0}}}