{"queryCost": 1, "latitude": 42.882, "longitude": -85.642, "resolvedAddress": "42.88200,-85.64200", "address": "42.88200,-85.64200", "timezone": "America/Detroit", "tzoffset": -4.0, "days": [{"datetime": "2021-10-24", "datetimeEpoch": 1635048000, "tempmax": 48.0, "tempmin": 30.9, "temp": 40.3, "feelslikemax": 45.4, "feelslikemin": 29.4, "feelslike": 37.5, "dew": 38.3, "humidity": 92.95, "precip": 0.43, "precipprob": null, "precipcover": 25.0, "preciptype": null, "snow": 0.0, "snowdepth": 0.0, "windgust": 26.4, "windspeed": 14.6, "winddir": 82.0, "pressure": 1016.7, "cloudcover": 70.0, "visibility": 7.5, "solarradiation": 50.8, "solarenergy": 2.2, "uvindex": 1.0, "sunrise": "08:07:12", "sunriseEpoch": 1635077232, "sunset": "18:45:35", "sunsetEpoch": 1635115535, "moonphase": 0.57, "conditions": "Rain, Partially cloudy", "description": "Partly cloudy throughout the day with late afternoon rain.", "icon": "rain", "stations": ["72635094860", "A0735900240", "KY70", "KBIV", "72539404839", "E7706", "MISTN", "C1502", "KGRR"], "source": "obs"}], "stations": {"72635094860": {"distance": 9634.0, "latitude": 42.883, "longitude": -85.524, "useCount": 0, "id": "72635094860", "name": "GRAND RAPIDS GERALD R FORD INTERNATIONAL AIRPORT, MI US", "quality": 100, "contribution": 0.0}, "A0735900240": {"distance": 47779.0, "latitude": 42.938, "longitude": -85.061, "useCount": 0, "id": "A0735900240", "name": "IONIA CO AIRPORT, MI US", "quality": 100, "contribution": 0.0}, "KY70": {"distance": 47889.0, "latitude": 42.94, "longitude": -85.06, "useCount": 0, "id": "KY70", "name": "KY70", "quality": 100, "contribution": 0.0}, "KBIV": {"distance": 40182.0, "latitude": 42.75, "longitude": -86.1, "useCount": 0, "id": "KBIV", "name": "KBIV", "quality": 100, "contribution": 0.0}, "72539404839": {"distance": 40094.0, "latitude": 42.746, "longitude": -86.097, "useCount": 0, "id": "72539404839", "name": "HOLLAND TULIP CITY AIRPORT, MI US", "quality": 100, "contribution": 0.0}, "E7706": {"distance": 5140.0, "latitude": 42.928, "longitude": -85.651, "useCount": 0, "id": "E7706", "name": "EW7706 Grand Rapids MI US", "quality": 0, "contribution": 0.0}, "MISTN": {"distance": 12177.0, "latitude": 42.956, "longitude": -85.752, "useCount": 0, "id": "MISTN", "name": "Standale MI US MAWN", "quality": 0, "contribution": 0.0}, "C1502": {"distance": 11341.0, "latitude": 42.897, "longitude": -85.779, "useCount": 0, "id": "C1502", "name": "CW1502 Grandville MI US", "quality": 0, "contribution": 0.0}, "KGRR": {"distance": 9954.0, "latitude": 42.88, "longitude": -85.52, "useCount": 0, "id": "KGRR", "name": "KGRR", "quality": 100, "contribution": 0.0}}}