{"queryCost": 1, "latitude": 34.372, "longitude": -118.57, "resolvedAddress": "34.37200,-118.57000", "address": "34.37200,-118.57000", "timezone": "America/Los_Angeles", "tzoffset": -7.0, "days": [{"datetime": "2021-10-03", "datetimeEpoch": 1633244400, "tempmax": 94.2, "tempmin": 60.9, "temp": 78.0, "feelslikemax": 89.5, "feelslikemin": 60.9, "feelslike": 76.3, "dew": 31.2, "humidity": 20.31, "precip": 0.0, "precipprob": null, "precipcover": 0.0, "preciptype": null, "snow": 0.0, "snowdepth": 0.0, "windgust": 19.7, "windspeed": 11.8, "winddir": 155.9, "pressure": 1012.4, "cloudcover": 0.0, "visibility": 9.9, "solarradiation": 400.1, "solarenergy": 18.7, "uvindex": 8.0, "sunrise": "06:50:36", "sunriseEpoch": 1633269036, "sunset": "18:35:13", "sunsetEpoch": 1633311313, "moonphase": 0.95, "conditions": "Clear", "description": "Clear conditions throughout the day.", "icon": "clear-day", "stations": ["KVNY", "72288593197", "KBUR", "KSMO", "72288623130", "72288023152", "SE131"], "source": "obs"}], "stations": {"KVNY": {"distance": 18836.0, "latitude": 34.22, "longitude": -118.48, "useCount": 0, "id": "KVNY", "name": "KVNY", "quality": 100, "contribution": 0.0}, "72288593197": {"distance": 41138.0, "latitude": 34.016, "longitude": -118.451, "useCount": 0, "id": "72288593197", "name": "SANTA MONICA MUNICIPAL AIRPORT, CA US", "quality": 100, "contribution": 0.0}, "KBUR": {"distance": 27858.0, "latitude": 34.2, "longitude": -118.35, "useCount": 0, "id": "KBUR", "name": "KBUR", "quality": 100, "contribution": 0.0}, "KSMO": {"distance": 40712.0, "latitude": 34.02, "longitude": -118.45, "useCount": 0, "id": "KSMO", "name": "KSMO", "quality": 97, "contribution": 0.0}, "72288623130": {"distance": 19543.0, "latitude": 34.21, "longitude": -118.489, "useCount": 0, "id": "72288623130", "name": "VAN NUYS AIRPORT, CA US", "quality": 100, "contribution": 0.0}, "72288023152": {"distance": 27347.0, "latitude": 34.201, "longitude": -118.357, "useCount": 0, "id": "72288023152", "name": "BURBANK GLENDALE PASADENA AIRPORT, CA US", "quality": 100, "contribution": 0.0}, "SE131": {"distance": 1318.0, "latitude": 34.367, "longitude": -118.557, "useCount": 0, "id": "SE131", "name": "SCE I5 Newhall CA US SC-EDISON", "quality": 0, "contribution": 0.0}}}