{"queryCost": 1, "latitude": 35.236, "longitude": -85.164, "resolvedAddress": "35.23600,-85.16400", "address": "35.23600,-85.16400", "timezone": "America/New_York", "tzoffset": -4.0, "days": [{"datetime": "2021-10-01", "datetimeEpoch": 1633060800, "tempmax": 83.6, "tempmin": 66.0, "temp": 72.9, "feelslikemax": 84.5, "feelslikemin": 66.0, "feelslike": 73.2, "dew": 64.9, "humidity": 77.9, "precip": 0.0, "precipprob": 0.0, "precipcover": 0.0, "preciptype": null, "snow": 0.0, "snowdepth": 0.0, "windgust": null, "windspeed": 7.1, "winddir": 77.0, "pressure": 1021.5, "cloudcover": 46.8, "visibility": 8.6, "solarradiation": 151.8, "solarenergy": 13.0, "uvindex": 8.0, "sunrise": "07:35:40", "sunriseEpoch": 1633088140, "sunset": "19:24:12", "sunsetEpoch": 1633130652, "moonphase": 0.87, "conditions": "Partially cloudy", "description": "Partly cloudy throughout the day.", "icon": "partly-cloudy-day", "stations": ["KCHA", "72324013882", "72325003847", "F7113", "KCSV", "KRZR", "KMMI", "AU405"], "source": "obs"}], "stations": {"KCHA": {"distance": 23165.0, "latitude": 35.03, "longitude": -85.2, "useCount": 0, "id": "KCHA", "name": "KCHA", "quality": 100, "contribution": 0.0}, "72324013882": {"distance": 22773.0, "latitude": 35.034, "longitude": -85.2, "useCount": 0, "id": "72324013882", "name": "CHATTANOOGA AIRPORT, TN US", "quality": 100, "contribution": 0.0}, "72325003847": {"distance": 79934.0, "latitude": 35.951, "longitude": -85.081, "useCount": 0, "id": "72325003847", "name": "CROSSVILLE MEMORIAL AIRPORT, TN US", "quality": 100, "contribution": 0.0}, "F7113": {"distance": 13511.0, "latitude": 35.125, "longitude": -85.104, "useCount": 0, "id": "F7113", "name": "FW7113 Ooltewah TN US", "quality": 0, "contribution": 0.0}, "KCSV": {"distance": 79845.0, "latitude": 35.95, "longitude": -85.08, "useCount": 0, "id": "KCSV", "name": "KCSV", "quality": 100, "contribution": 0.0}, "KRZR": {"distance": 33147.0, "latitude": 35.22, "longitude": -84.8, "useCount": 0, "id": "KRZR", "name": "KRZR", "quality": 95, "contribution": 0.0}, "KMMI": {"distance": 56959.0, "latitude": 35.4, "longitude": -84.57, "useCount": 0, "id": "KMMI", "name": "KMMI", "quality": 100, "contribution": 0.0}, "AU405": {"distance": 11997.0, "latitude": 35.295, "longitude": -85.053, "useCount": 0, "id": "AU405", "name": "w4emz Harrison TN US", "quality": 0, "contribution": 0.0}}}