{"queryCost": 1, "latitude": 29.435, "longitude": -98.716, "resolvedAddress": "29.43500,-98.71600", "address": "29.43500,-98.71600", "timezone": "America/Chicago", "tzoffset": -5.0, "days": [{"datetime": "2021-09-30", "datetimeEpoch": 1632978000, "tempmax": 92.7, "tempmin": 75.3, "temp": 81.1, "feelslikemax": 97.5, "feelslikemin": 75.3, "feelslike": 83.5, "dew": 72.1, "humidity": 76.33, "precip": 0.0, "precipprob": null, "precipcover": 0.0, "preciptype": null, "snow": 0.0, "snowdepth": 0.0, "windgust": 33.7, "windspeed": 18.9, "winddir": 92.5, "pressure": 1011.9, "cloudcover": 60.1, "visibility": 9.8, "solarradiation": 138.2, "solarenergy": 11.9, "uvindex": 8.0, "sunrise": "07:27:41", "sunriseEpoch": 1633004861, "sunset": "19:21:20", "sunsetEpoch": 1633047680, "moonphase": 0.82, "conditions": "Partially cloudy", "description": "Partly cloudy throughout the day.", "icon": "partly-cloudy-day", "stations": ["KSKF", "EA007", "KCVB", "F6246", "KSAT", "72253012921", "72252312970", "72253512909"], "source": "obs"}], "stations": {"KSKF": {"distance": 14541.0, "latitude": 29.38, "longitude": -98.58, "useCount": 0, "id": "KSKF", "name": "KSKF", "quality": 100, "contribution": 0.0}, "EA007": {"distance": 15187.0, "latitude": 29.539, "longitude": -98.817, "useCount": 0, "id": "EA007", "name": "San Geronimo Dam TX US EAA", "quality": 0, "contribution": 0.0}, "KCVB": {"distance": 16756.0, "latitude": 29.34, "longitude": -98.85, "useCount": 0, "id": "KCVB", "name": "KCVB", "quality": 97, "contribution": 0.0}, "F6246": {"distance": 4971.0, "latitude": 29.478, "longitude": -98.729, "useCount": 0, "id": "F6246", "name": "NQ9B San Antonio TX US", "quality": 0, "contribution": 0.0}, "KSAT": {"distance": 26079.0, "latitude": 29.53, "longitude": -98.47, "useCount": 0, "id": "KSAT", "name": "KSAT", "quality": 100, "contribution": 0.0}, "72253012921": {"distance": 25570.0, "latitude": 29.544, "longitude": -98.484, "useCount": 0, "id": "72253012921", "name": "SAN ANTONIO INTERNATIONAL AIRPORT, TX US", "quality": 100, "contribution": 0.0}, "72252312970": {"distance": 25972.0, "latitude": 29.339, "longitude": -98.472, "useCount": 0, "id": "72252312970", "name": "SAN ANTONIO STINSON MUNICIPAL AIRPORT, TX US", "quality": 100, "contribution": 0.0}, "72253512909": {"distance": 14097.0, "latitude": 29.383, "longitude": -98.583, "useCount": 0, "id": "72253512909", "name": "SAN ANTONIO KELLY FIELD AFB, TX US", "quality": 98, "contribution": 0.0}}}