{"queryCost": 1, "latitude": 37.355, "longitude": -121.843, "resolvedAddress": "37.35500,-121.84300", "address": "37.35500,-121.84300", "timezone": "America/Los_Angeles", "tzoffset": -7.0, "days": [{"datetime": "2015-08-09", "datetimeEpoch": 1439103600, "tempmax": 78.2, "tempmin": 57.1, "temp": 67.4, "feelslikemax": 78.2, "feelslikemin": 57.1, "feelslike": 67.4, "dew": 55.4, "humidity": 66.8, "precip": 0.0, "precipprob": 0.0, "precipcover": 0.0, "preciptype": null, "snow": 0.0, "snowdepth": 0.0, "windgust": 21.9, "windspeed": 17.2, "winddir": 259.3, "pressure": 1013.6, "cloudcover": 40.6, "visibility": 9.9, "solarradiation": 323.2, "solarenergy": 28.1, "uvindex": 10.0, "sunrise": "06:18:21", "sunriseEpoch": 1439126301, "sunset": "20:06:49", "sunsetEpoch": 1439176009, "moonphase": 0.88, "conditions": "Partially cloudy", "description": "Partly cloudy throughout the day.", "icon": "partly-cloudy-day", "stations": ["72585093228", "KSJC", "KLVK", "72492723285", "KHWD", "72494523293"], "source": "obs"}], "stations": {"72585093228": {"distance": 41065.0, "latitude": 37.654, "longitude": -122.115, "useCount": 0, "id": "72585093228", "name": "HAYWARD AIR TERMINAL, CA US", "quality": 100, "contribution": 0.0}, "KSJC": {"distance": 6836.0, "latitude": 37.36, "longitude": -121.92, "useCount": 0, "id": "KSJC", "name": "KSJC", "quality": 100, "contribution": 0.0}, "KLVK": {"distance": 38459.0, "latitude": 37.7, "longitude": -121.82, "useCount": 0, "id": "KLVK", "name": "LIVERMORE, CA", "quality": 100, "contribution": 0.0}, "72492723285": {"distance": 37680.0, "latitude": 37.693, "longitude": -121.814, "useCount": 0, "id": "72492723285", "name": "LIVERMORE MUNICIPAL AIRPORT, CA US", "quality": 100, "contribution": 0.0}, "KHWD": {"distance": 42753.0, "latitude": 37.67, "longitude": -122.12, "useCount": 0, "id": "KHWD", "name": "KHWD", "quality": 100, "contribution": 0.0}, "72494523293": {"distance": 7182.0, "latitude": 37.359, "longitude": -121.924, "useCount": 0, "id": "72494523293", "name": "SAN JOSE, CA US", "quality": 100, "contribution": 0.0}}}