{"queryCost": 1, "latitude": 29.604, "longitude": -98.271, "resolvedAddress": "29.60400,-98.27100", "address": "29.60400,-98.27100", "timezone": "America/Chicago", "tzoffset": -5.0, "days": [{"datetime": "2021-09-11", "datetimeEpoch": 1631336400, "tempmax": 91.7, "tempmin": 64.8, "temp": 78.2, "feelslikemax": 88.2, "feelslikemin": 64.8, "feelslike": 77.1, "dew": 56.6, "humidity": 54.9, "precip": 0.0, "precipprob": 0.0, "precipcover": 0.0, "preciptype": null, "snow": 0.0, "snowdepth": 0.0, "windgust": 20.7, "windspeed": 12.6, "winddir": 129.0, "pressure": 1017.0, "cloudcover": 2.6, "visibility": 9.9, "solarradiation": 271.3, "solarenergy": 23.5, "uvindex": 9.0, "sunrise": "07:15:48", "sunriseEpoch": 1631362548, "sunset": "19:42:54", "sunsetEpoch": 1631407374, "moonphase": 0.12, "conditions": "Clear", "description": "Clear conditions throughout the day.", "icon": "clear-day", "stations": ["72253612911", "KBAZ", "72241612971", "AV397", "KSAT", "72253012921", "KRND"], "source": "obs"}], "stations": {"72253612911": {"distance": 8004.0, "latitude": 29.533, "longitude": -98.262, "useCount": 0, "id": "72253612911", "name": "RANDOLPH AFB, TX US", "quality": 99, "contribution": 0.0}, "KBAZ": {"distance": 24419.0, "latitude": 29.71, "longitude": -98.05, "useCount": 0, "id": "KBAZ", "name": "KBAZ", "quality": 100, "contribution": 0.0}, "72241612971": {"distance": 24718.0, "latitude": 29.709, "longitude": -98.046, "useCount": 0, "id": "72241612971", "name": "NEW BRAUNFELS MUNICIPAL AIRPORT, TX US", "quality": 100, "contribution": 0.0}, "AV397": {"distance": 5762.0, "latitude": 29.562, "longitude": -98.305, "useCount": 0, "id": "AV397", "name": "KF5FGL Universal City TX US", "quality": 0, "contribution": 0.0}, "KSAT": {"distance": 20955.0, "latitude": 29.53, "longitude": -98.47, "useCount": 0, "id": "KSAT", "name": "KSAT", "quality": 100, "contribution": 0.0}, "72253012921": {"distance": 21657.0, "latitude": 29.544, "longitude": -98.484, "useCount": 0, "id": "72253012921", "name": "SAN ANTONIO INTERNATIONAL AIRPORT, TX US", "quality": 100, "contribution": 0.0}, "KRND": {"distance": 8284.0, "latitude": 29.53, "longitude": -98.28, "useCount": 0, "id": "KRND", "name": "KRND", "quality": 100, "contribution": 0.0}}}