{"queryCost": 1, "latitude": 29.347, "longitude": -98.556, "resolvedAddress": "29.34700,-98.55600", "address": "29.34700,-98.55600", "timezone": "America/Chicago", "tzoffset": -5.0, "days": [{"datetime": "2021-09-12", "datetimeEpoch": 1631422800, "tempmax": 92.1, "tempmin": 74.9, "temp": 81.9, "feelslikemax": 96.8, "feelslikemin": 74.9, "feelslike": 84.6, "dew": 70.5, "humidity": 69.8, "precip": 0.0, "precipprob": 0.0, "precipcover": 0.0, "preciptype": null, "snow": 0.0, "snowdepth": 0.0, "windgust": 16.1, "windspeed": 11.4, "winddir": 112.1, "pressure": 1016.5, "cloudcover": 43.3, "visibility": 9.9, "solarradiation": 193.7, "solarenergy": 16.8, "uvindex": 8.0, "sunrise": "07:17:34", "sunriseEpoch": 1631449054, "sunset": "19:42:43", "sunsetEpoch": 1631493763, "moonphase": 0.17, "conditions": "Partially cloudy", "description": "Partly cloudy throughout the day.", "icon": "partly-cloudy-day", "stations": ["KSKF", "KSSF", "KSAT", "72253012921", "F6098", "72252312970", "72253512909"], "source": "obs"}], "stations": {"KSKF": {"distance": 4349.0, "latitude": 29.38, "longitude": -98.58, "useCount": 0, "id": "KSKF", "name": "KSKF", "quality": 100, "contribution": 0.0}, "KSSF": {"distance": 8557.0, "latitude": 29.33, "longitude": -98.47, "useCount": 0, "id": "KSSF", "name": "KSSF", "quality": 100, "contribution": 0.0}, "KSAT": {"distance": 22012.0, "latitude": 29.53, "longitude": -98.47, "useCount": 0, "id": "KSAT", "name": "KSAT", "quality": 100, "contribution": 0.0}, "72253012921": {"distance": 23049.0, "latitude": 29.544, "longitude": -98.484, "useCount": 0, "id": "72253012921", "name": "SAN ANTONIO INTERNATIONAL AIRPORT, TX US", "quality": 100, "contribution": 0.0}, "F6098": {"distance": 17632.0, "latitude": 29.505, "longitude": -98.575, "useCount": 0, "id": "F6098", "name": "FW6098 San Antonio TX US", "quality": 0, "contribution": 0.0}, "72252312970": {"distance": 8201.0, "latitude": 29.339, "longitude": -98.472, "useCount": 0, "id": "72252312970", "name": "SAN ANTONIO STINSON MUNICIPAL AIRPORT, TX US", "quality": 100, "contribution": 0.0}, "72253512909": {"distance": 4832.0, "latitude": 29.383, "longitude": -98.583, "useCount": 0, "id": "72253512909", "name": "SAN ANTONIO KELLY FIELD AFB, TX US", "quality": 98, "contribution": 0.0}}}