{"queryCost": 1, "latitude": 48.282, "longitude": -116.561, "resolvedAddress": "48.28200,-116.56100", "address": "48.28200,-116.56100", "timezone": "America/Los_Angeles", "tzoffset": -7.0, "days": [{"datetime": "2015-08-11", "datetimeEpoch": 1439276400, "tempmax": 93.2, "tempmin": 54.5, "temp": 72.1, "feelslikemax": 89.1, "feelslikemin": 54.5, "feelslike": 71.2, "dew": 49.8, "humidity": 52.2, "precip": 0.0, "precipprob": 0.0, "precipcover": 0.0, "preciptype": null, "snow": 0.0, "snowdepth": 0.0, "windgust": 20.8, "windspeed": 8.1, "winddir": 158.0, "pressure": null, "cloudcover": 0.0, "visibility": 9.9, "solarradiation": 305.7, "solarenergy": 26.6, "uvindex": 9.0, "sunrise": "05:34:39", "sunriseEpoch": 1439296479, "sunset": "20:07:18", "sunsetEpoch": 1439348838, "moonphase": 0.96, "conditions": "Clear", "description": "Clear conditions throughout the day.", "icon": "clear-day", "stations": ["KSZT", "72092300310", "72032204129", "72783424136", "K65S", "KCOE"], "source": "obs"}], "stations": {"KSZT": {"distance": 2005.0, "latitude": 48.3, "longitude": -116.56, "useCount": 0, "id": "KSZT", "name": "KSZT", "quality": 50, "contribution": 0.0}, "72092300310": {"distance": 53177.0, "latitude": 48.726, "longitude": -116.295, "useCount": 0, "id": "72092300310", "name": "BOUNDARY CO AIRPORT, ID US", "quality": 96, "contribution": 0.0}, "72032204129": {"distance": 1938.0, "latitude": 48.299, "longitude": -116.56, "useCount": 0, "id": "72032204129", "name": "SANDPOINT AIRPORT, ID US", "quality": 50, "contribution": 0.0}, "72783424136": {"distance": 60446.0, "latitude": 47.767, "longitude": -116.817, "useCount": 0, "id": "72783424136", "name": "COEUR D ALENE AIR TERMINAL, ID US", "quality": 100, "contribution": 0.0}, "K65S": {"distance": 53457.0, "latitude": 48.73, "longitude": -116.3, "useCount": 0, "id": "K65S", "name": "K65S", "quality": 99, "contribution": 0.0}, "KCOE": {"distance": 60169.0, "latitude": 47.77, "longitude": -116.82, "useCount": 0, "id": "KCOE", "name": "KCOE", "quality": 100, "contribution": 0.0}}}