{"queryCost": 1, "latitude": 37.074, "longitude": -94.51, "resolvedAddress": "37.07400,-94.51000", "address": "37.07400,-94.51000", "timezone": "America/Chicago", "tzoffset": -5.0, "days": [{"datetime": "2021-10-30", "datetimeEpoch": 1635570000, "tempmax": 63.0, "tempmin": 37.1, "temp": 48.0, "feelslikemax": 63.0, "feelslikemin": 34.5, "feelslike": 47.3, "dew": 40.6, "humidity": 78.21, "precip": 0.0, "precipprob": null, "precipcover": 8.33, "preciptype": null, "snow": 0.0, "snowdepth": 0.0, "windgust": null, "windspeed": 5.5, "winddir": 149.1, "pressure": 1012.3, "cloudcover": 0.0, "visibility": 8.9, "solarradiation": 151.7, "solarenergy": 6.6, "uvindex": 6.0, "sunrise": "07:40:33", "sunriseEpoch": 1635597633, "sunset": "18:22:17", "sunsetEpoch": 1635636137, "moonphase": 0.84, "conditions": "Clear", "description": "Clear conditions throughout the day.", "icon": "clear-day", "stations": ["KJLN", "F8200", "99999923908", "72349513987", "KPTS", "72043600142"], "source": "obs"}], "stations": {"KJLN": {"distance": 8507.0, "latitude": 37.15, "longitude": -94.5, "useCount": 0, "id": "KJLN", "name": "KJLN", "quality": 100, "contribution": 0.0}, "F8200": {"distance": 16358.0, "latitude": 37.081, "longitude": -94.694, "useCount": 0, "id": "F8200", "name": "FW8200 Riverton KS US", "quality": 0, "contribution": 0.0}, "99999923908": {"distance": 39900.0, "latitude": 37.428, "longitude": -94.583, "useCount": 0, "id": "99999923908", "name": "JOPLIN 24 N, MO US", "quality": 100, "contribution": 0.0}, "72349513987": {"distance": 8802.0, "latitude": 37.152, "longitude": -94.495, "useCount": 0, "id": "72349513987", "name": "JOPLIN REGIONAL AIRPORT, MO US", "quality": 100, "contribution": 0.0}, "KPTS": {"distance": 46172.0, "latitude": 37.45, "longitude": -94.73, "useCount": 0, "id": "KPTS", "name": "KPTS", "quality": 99, "contribution": 0.0}, "72043600142": {"distance": 46285.0, "latitude": 37.45, "longitude": -94.733, "useCount": 0, "id": "72043600142", "name": "ATKINSON MUNICIPAL AIRPORT, KS US", "quality": 100, "contribution": 0.0}}}