{"queryCost": 1, "latitude": 40.403, "longitude": -76.729, "resolvedAddress": "40.40300,-76.72900", "address": "40.40300,-76.72900", "timezone": "America/New_York", "tzoffset": -4.0, "days": [{"datetime": "2021-10-31", "datetimeEpoch": 1635652800, "tempmax": 61.5, "tempmin": 44.4, "temp": 53.0, "feelslikemax": 61.5, "feelslikemin": 44.4, "feelslike": 53.0, "dew": 46.5, "humidity": 79.7, "precip": 0.08, "precipprob": 100.0, "precipcover": 20.83, "preciptype": ["rain"], "snow": 0.0, "snowdepth": 0.0, "windgust": 25.3, "windspeed": 16.5, "winddir": 250.9, "pressure": 1004.7, "cloudcover": 63.0, "visibility": 7.5, "solarradiation": 73.3, "solarenergy": 6.4, "uvindex": 6.0, "sunrise": "07:35:51", "sunriseEpoch": 1635680151, "sunset": "18:04:37", "sunsetEpoch": 1635717877, "moonphase": 0.88, "conditions": "Rain, Partially cloudy", "description": "Partly cloudy throughout the day with rain in the morning and afternoon.", "icon": "rain", "stations": ["72514454723", "KMDT", "KMUI", "TT462", "MNGP1", "72511814751", "KCXY", "72399014711"], "source": "obs"}], "stations": {"72514454723": {"distance": 14163.0, "latitude": 40.433, "longitude": -76.567, "useCount": 0, "id": "72514454723", "name": "MUIR ARMY AIR FIELD, PA US", "quality": 95, "contribution": 0.0}, "KMDT": {"distance": 22864.0, "latitude": 40.2, "longitude": -76.77, "useCount": 0, "id": "KMDT", "name": "KMDT", "quality": 100, "contribution": 0.0}, "KMUI": {"distance": 14635.0, "latitude": 40.43, "longitude": -76.56, "useCount": 0, "id": "KMUI", "name": "KMUI", "quality": 100, "contribution": 0.0}, "TT462": {"distance": 11355.0, "latitude": 40.459, "longitude": -76.617, "useCount": 0, "id": "TT462", "name": "INDIANTOWN RUN PA US", "quality": 0, "contribution": 0.0}, "MNGP1": {"distance": 1767.0, "latitude": 40.411, "longitude": -76.711, "useCount": 0, "id": "MNGP1", "name": "MANADA GAP PA US", "quality": 0, "contribution": 0.0}, "72511814751": {"distance": 23146.0, "latitude": 40.217, "longitude": -76.851, "useCount": 0, "id": "72511814751", "name": "HARRISBURG CAPITAL CITY AIRPORT, PA US", "quality": 100, "contribution": 0.0}, "KCXY": {"distance": 22445.0, "latitude": 40.22, "longitude": -76.84, "useCount": 0, "id": "KCXY", "name": "KCXY", "quality": 100, "contribution": 0.0}, "72399014711": {"distance": 23314.0, "latitude": 40.196, "longitude": -76.772, "useCount": 0, "id": "72399014711", "name": "MIDDLETOWN HARRISBURG INTERNATIONAL AIRPORT, PA US", "quality": 100, "contribution": 0.0}}}