{"queryCost": 1, "latitude": 27.741, "longitude": -97.429, "resolvedAddress": "27.74100,-97.42900", "address": "27.74100,-97.42900", "timezone": "America/Chicago", "tzoffset": -5.0, "days": [{"datetime": "2021-11-02", "datetimeEpoch": 1635829200, "tempmax": 83.3, "tempmin": 62.3, "temp": 73.4, "feelslikemax": 85.6, "feelslikemin": 62.3, "feelslike": 74.1, "dew": 64.8, "humidity": 76.32, "precip": 0.0, "precipprob": null, "precipcover": 0.0, "preciptype": null, "snow": 0.0, "snowdepth": 0.0, "windgust": 19.7, "windspeed": 14.8, "winddir": 100.9, "pressure": 1020.1, "cloudcover": 37.7, "visibility": 9.9, "solarradiation": 289.8, "solarenergy": 12.5, "uvindex": 7.0, "sunrise": "07:41:32", "sunriseEpoch": 1635856892, "sunset": "18:44:39", "sunsetEpoch": 1635896679, "moonphase": 0.96, "conditions": "Partially cloudy", "description": "Becoming cloudy in the afternoon.", "icon": "partly-cloudy-day", "stations": ["C9770", "KCRP", "72251012924", "KRBO", "72251512926", "KNGP"], "source": "obs"}], "stations": {"C9770": {"distance": 24136.0, "latitude": 27.599, "longitude": -97.244, "useCount": 0, "id": "C9770", "name": "CW9770 North Padre Island TX US", "quality": 0, "contribution": 0.0}, "KCRP": {"distance": 7703.0, "latitude": 27.77, "longitude": -97.5, "useCount": 0, "id": "KCRP", "name": "KCRP", "quality": 100, "contribution": 0.0}, "72251012924": {"distance": 8991.0, "latitude": 27.774, "longitude": -97.512, "useCount": 0, "id": "72251012924", "name": "CORPUS CHRISTI INTERNATIONAL AIRPORT, TX US", "quality": 100, "contribution": 0.0}, "KRBO": {"distance": 26074.0, "latitude": 27.78, "longitude": -97.69, "useCount": 0, "id": "KRBO", "name": "KRBO", "quality": 94, "contribution": 0.0}, "72251512926": {"distance": 15730.0, "latitude": 27.683, "longitude": -97.283, "useCount": 0, "id": "72251512926", "name": "CORPUS CHRISTI NAS, TX US", "quality": 100, "contribution": 0.0}, "KNGP": {"distance": 15376.0, "latitude": 27.7, "longitude": -97.28, "useCount": 0, "id": "KNGP", "name": "KNGP", "quality": 99, "contribution": 0.0}}}