{"queryCost": 1, "latitude": 29.639, "longitude": -82.607, "resolvedAddress": "29.63900,-82.60700", "address": "29.63900,-82.60700", "timezone": "America/New_York", "tzoffset": -4.0, "days": [{"datetime": "2021-09-23", "datetimeEpoch": 1632369600, "tempmax": 83.3, "tempmin": 66.3, "temp": 74.6, "feelslikemax": 85.1, "feelslikemin": 66.3, "feelslike": 74.9, "dew": 63.5, "humidity": 69.7, "precip": 0.0, "precipprob": null, "precipcover": 0.0, "preciptype": null, "snow": 0.0, "snowdepth": 0.0, "windgust": 19.7, "windspeed": 10.2, "winddir": 202.7, "pressure": 1013.7, "cloudcover": 42.6, "visibility": 9.9, "solarradiation": 547.0, "solarenergy": 47.3, "uvindex": 8.0, "sunrise": "07:19:26", "sunriseEpoch": 1632395966, "sunset": "19:25:29", "sunsetEpoch": 1632439529, "moonphase": 0.53, "conditions": "Partially cloudy", "description": "Partly cloudy throughout the day.", "icon": "partly-cloudy-day", "stations": ["74756012816", "KGNV", "0651W", "0310W", "KLCQ", "72205512861"], "source": "obs"}], "stations": {"74756012816": {"distance": 32602.0, "latitude": 29.692, "longitude": -82.275, "useCount": 0, "id": "74756012816", "name": "GAINESVILLE REGIONAL AIRPORT, FL US", "quality": 100, "contribution": 0.0}, "KGNV": {"distance": 32350.0, "latitude": 29.7, "longitude": -82.28, "useCount": 0, "id": "KGNV", "name": "KGNV", "quality": 100, "contribution": 0.0}, "0651W": {"distance": 8024.0, "latitude": 29.637, "longitude": -82.69, "useCount": 0, "id": "0651W", "name": "GCEM Fire Department Station 4 FL US WEATHERSTEM", "quality": 0, "contribution": 0.0}, "0310W": {"distance": 19494.0, "latitude": 29.465, "longitude": -82.629, "useCount": 0, "id": "0310W", "name": "Bronson Middle High School FL US WEATHERSTEM", "quality": 0, "contribution": 0.0}, "KLCQ": {"distance": 60280.0, "latitude": 30.18, "longitude": -82.58, "useCount": 0, "id": "KLCQ", "name": "KLCQ", "quality": 98, "contribution": 0.0}, "72205512861": {"distance": 63857.0, "latitude": 29.167, "longitude": -82.233, "useCount": 0, "id": "72205512861", "name": "OCALA JIM TAYLOR FIELD, FL US", "quality": 100, "contribution": 0.0}}}