{"queryCost": 1, "latitude": 38.6, "longitude": -84.615, "resolvedAddress": "38.60000,-84.61500", "address": "38.60000,-84.61500", "timezone": "America/New_York", "tzoffset": -4.0, "days": [{"datetime": "2021-11-03", "datetimeEpoch": 1635912000, "tempmax": 48.5, "tempmin": 28.0, "temp": 37.2, "feelslikemax": 47.6, "feelslikemin": 28.0, "feelslike": 36.6, "dew": 26.7, "humidity": 69.3, "precip": 0.0, "precipprob": 0.0, "precipcover": 0.0, "preciptype": null, "snow": 0.0, "snowdepth": 0.0, "windgust": null, "windspeed": 5.3, "winddir": 74.0, "pressure": 1028.6, "cloudcover": 23.7, "visibility": 9.6, "solarradiation": 92.1, "solarenergy": 7.9, "uvindex": 5.0, "sunrise": "08:07:39", "sunriseEpoch": 1635941259, "sunset": "18:35:53", "sunsetEpoch": 1635978953, "moonphase": 0.99, "conditions": "Partially cloudy", "description": "Partly cloudy throughout the day.", "icon": "partly-cloudy-day", "stations": ["KLUK", "CRIK2", "72421093814", "F2103", "KCVG", "KFFT", "72423353841", "99999963838"], "source": "obs"}], "stations": {"KLUK": {"distance": 58170.0, "latitude": 39.1, "longitude": -84.42, "useCount": 0, "id": "KLUK", "name": "KLUK", "quality": 100, "contribution": 0.0}, "CRIK2": {"distance": 18870.0, "latitude": 38.769, "longitude": -84.602, "useCount": 0, "id": "CRIK2", "name": "CRITTENDEN KY US", "quality": 0, "contribution": 0.0}, "72421093814": {"distance": 49720.0, "latitude": 39.044, "longitude": -84.672, "useCount": 0, "id": "72421093814", "name": "CINCINNATI NORTHERN KENTUCKY INTERNATIONAL AIRPORT, KY US", "quality": 100, "contribution": 0.0}, "F2103": {"distance": 20737.0, "latitude": 38.534, "longitude": -84.838, "useCount": 0, "id": "F2103", "name": "FW2103 Owenton KY US", "quality": 0, "contribution": 0.0}, "KCVG": {"distance": 49212.0, "latitude": 39.04, "longitude": -84.67, "useCount": 0, "id": "KCVG", "name": "KCVG", "quality": 100, "contribution": 0.0}, "KFFT": {"distance": 52956.0, "latitude": 38.18, "longitude": -84.9, "useCount": 0, "id": "KFFT", "name": "KFFT", "quality": 100, "contribution": 0.0}, "72423353841": {"distance": 52631.0, "latitude": 38.185, "longitude": -84.903, "useCount": 0, "id": "72423353841", "name": "FRANKFORT CAPITAL CITY AIRPORT, KY US", "quality": 100, "contribution": 0.0}, "99999963838": {"distance": 57431.0, "latitude": 38.095, "longitude": -84.746, "useCount": 0, "id": "99999963838", "name": "VERSAILLES 3 NNW, KY US", "quality": 100, "contribution": 0.0}}}