{"queryCost": 1, "latitude": 39.942, "longitude": -104.98, "resolvedAddress": "39.94200,-104.98000", "address": "39.94200,-104.98000", "timezone": "America/Denver", "tzoffset": -6.0, "days": [{"datetime": "2021-08-18", "datetimeEpoch": 1629266400, "tempmax": 95.1, "tempmin": 63.1, "temp": 79.1, "feelslikemax": 90.6, "feelslikemin": 63.1, "feelslike": 77.4, "dew": 43.0, "humidity": 30.5, "precip": 0.0, "precipprob": 0.0, "precipcover": 0.0, "preciptype": null, "snow": 0.0, "snowdepth": 0.0, "windgust": 36.8, "windspeed": 16.0, "winddir": 179.0, "pressure": 1006.3, "cloudcover": 31.0, "visibility": 9.0, "solarradiation": 238.9, "solarenergy": 20.5, "uvindex": 8.0, "sunrise": "06:14:48", "sunriseEpoch": 1629288888, "sunset": "19:51:54", "sunsetEpoch": 1629337914, "moonphase": 0.4, "conditions": "Partially cloudy", "description": "Partly cloudy throughout the day.", "icon": "partly-cloudy-day", "stations": ["KLMO", "KDEN", "KBKF", "72469523036", "72565003017", "C9688", "72053800164"], "source": "obs"}], "stations": {"KLMO": {"distance": 27774.0, "latitude": 40.15, "longitude": -105.16, "useCount": 0, "id": "KLMO", "name": "KLMO", "quality": 96, "contribution": 0.0}, "KDEN": {"distance": 28003.0, "latitude": 39.86, "longitude": -104.67, "useCount": 0, "id": "KDEN", "name": "KDEN", "quality": 100, "contribution": 0.0}, "KBKF": {"distance": 31580.0, "latitude": 39.72, "longitude": -104.75, "useCount": 0, "id": "KBKF", "name": "KBKF", "quality": 100, "contribution": 0.0}, "72469523036": {"distance": 31869.0, "latitude": 39.717, "longitude": -104.75, "useCount": 0, "id": "72469523036", "name": "AURORA BUCKLEY FIELD ANGB, CO US", "quality": 100, "contribution": 0.0}, "72565003017": {"distance": 30071.0, "latitude": 39.833, "longitude": -104.658, "useCount": 0, "id": "72565003017", "name": "DENVER INTERNATIONAL AIRPORT, CO US", "quality": 100, "contribution": 0.0}, "C9688": {"distance": 5145.0, "latitude": 39.916, "longitude": -104.93, "useCount": 0, "id": "C9688", "name": "CW9688 Thornton CO US", "quality": 0, "contribution": 0.0}, "72053800164": {"distance": 29686.0, "latitude": 40.167, "longitude": -105.167, "useCount": 0, "id": "72053800164", "name": "VANCE BRAND AIRPORT, CO US", "quality": 96, "contribution": 0.0}}}