{"queryCost": 1, "latitude": 41.684, "longitude": -85.978, "resolvedAddress": "41.68400,-85.97800", "address": "41.68400,-85.97800", "timezone": "America/Indiana/Indianapolis", "tzoffset": -4.0, "days": [{"datetime": "2021-08-27", "datetimeEpoch": 1630036800, "tempmax": 87.6, "tempmin": 70.3, "temp": 78.4, "feelslikemax": 93.8, "feelslikemin": 70.3, "feelslike": 81.2, "dew": 70.3, "humidity": 77.3, "precip": 0.0, "precipprob": 0.0, "precipcover": 0.0, "preciptype": null, "snow": 0.0, "snowdepth": 0.0, "windgust": null, "windspeed": 8.7, "winddir": 154.8, "pressure": 1018.3, "cloudcover": 32.2, "visibility": 9.5, "solarradiation": 210.8, "solarenergy": 18.2, "uvindex": 8.0, "sunrise": "07:05:00", "sunriseEpoch": 1630062300, "sunset": "20:24:56", "sunsetEpoch": 1630110296, "moonphase": 0.63, "conditions": "Partially cloudy", "description": "Partly cloudy throughout the day.", "icon": "partly-cloudy-day", "stations": ["C1697", "KGSH", "72438814829", "72026654809", "KSBN", "72535014848", "KIRS"], "source": "obs"}], "stations": {"C1697": {"distance": 7020.0, "latitude": 41.642, "longitude": -86.041, "useCount": 0, "id": "C1697", "name": "CW1697 Jamestown IN US", "quality": 0, "contribution": 0.0}, "KGSH": {"distance": 23211.0, "latitude": 41.53, "longitude": -85.79, "useCount": 0, "id": "KGSH", "name": "KGSH", "quality": 99, "contribution": 0.0}, "72438814829": {"distance": 23325.0, "latitude": 41.533, "longitude": -85.783, "useCount": 0, "id": "72438814829", "name": "GOSHEN MUNICIPAL AIRPORT, IN US", "quality": 100, "contribution": 0.0}, "72026654809": {"distance": 46994.0, "latitude": 41.275, "longitude": -85.84, "useCount": 0, "id": "72026654809", "name": "WARSAW MUNICIPAL AIRPORT, IN US", "quality": 100, "contribution": 0.0}, "KSBN": {"distance": 28574.0, "latitude": 41.71, "longitude": -86.32, "useCount": 0, "id": "KSBN", "name": "KSBN", "quality": 100, "contribution": 0.0}, "72535014848": {"distance": 28238.0, "latitude": 41.707, "longitude": -86.316, "useCount": 0, "id": "72535014848", "name": "SOUTH BEND AIRPORT, IN US", "quality": 100, "contribution": 0.0}, "KIRS": {"distance": 46833.0, "latitude": 41.81, "longitude": -85.44, "useCount": 0, "id": "KIRS", "name": "KIRS", "quality": 100, "contribution": 0.0}}}