{"queryCost": 1, "latitude": 40.484, "longitude": -76.569, "resolvedAddress": "40.48400,-76.56900", "address": "40.48400,-76.56900", "timezone": "America/New_York", "tzoffset": -4.0, "days": [{"datetime": "2021-11-07", "datetimeEpoch": 1636257600, "tempmax": 58.0, "tempmin": 25.4, "temp": 40.3, "feelslikemax": 58.0, "feelslikemin": 25.4, "feelslike": 40.2, "dew": 27.6, "humidity": 64.64, "precip": 0.0, "precipprob": null, "precipcover": 0.0, "preciptype": null, "snow": 0.0, "snowdepth": 0.0, "windgust": null, "windspeed": 9.1, "winddir": 277.2, "pressure": 1023.2, "cloudcover": 0.7, "visibility": 9.6, "solarradiation": 250.9, "solarenergy": 12.6, "uvindex": 6.0, "sunrise": "06:43:31", "sunriseEpoch": 1636285411, "sunset": "16:55:56", "sunsetEpoch": 1636322156, "moonphase": 0.05, "conditions": "Clear", "description": "Clear conditions throughout the day.", "icon": "clear-day", "stations": ["72514454723", "KMDT", "F7017", "KMUI", "TT462", "MNGP1", "72511814751", "72399014711", "KCXY"], "source": "obs"}], "stations": {"72514454723": {"distance": 5647.0, "latitude": 40.433, "longitude": -76.567, "useCount": 0, "id": "72514454723", "name": "MUIR ARMY AIR FIELD, PA US", "quality": 95, "contribution": 0.0}, "KMDT": {"distance": 35921.0, "latitude": 40.2, "longitude": -76.77, "useCount": 0, "id": "KMDT", "name": "KMDT", "quality": 100, "contribution": 0.0}, "F7017": {"distance": 41378.0, "latitude": 40.763, "longitude": -76.892, "useCount": 0, "id": "F7017", "name": "FW7017 Selinsgrove PA US", "quality": 0, "contribution": 0.0}, "KMUI": {"distance": 6059.0, "latitude": 40.43, "longitude": -76.56, "useCount": 0, "id": "KMUI", "name": "KMUI", "quality": 100, "contribution": 0.0}, "TT462": {"distance": 4926.0, "latitude": 40.459, "longitude": -76.617, "useCount": 0, "id": "TT462", "name": "INDIANTOWN RUN PA US", "quality": 0, "contribution": 0.0}, "MNGP1": {"distance": 14517.0, "latitude": 40.411, "longitude": -76.711, "useCount": 0, "id": "MNGP1", "name": "MANADA GAP PA US", "quality": 0, "contribution": 0.0}, "72511814751": {"distance": 38158.0, "latitude": 40.217, "longitude": -76.851, "useCount": 0, "id": "72511814751", "name": "HARRISBURG CAPITAL CITY AIRPORT, PA US", "quality": 100, "contribution": 0.0}, "72399014711": {"distance": 36390.0, "latitude": 40.196, "longitude": -76.772, "useCount": 0, "id": "72399014711", "name": "MIDDLETOWN HARRISBURG INTERNATIONAL AIRPORT, PA US", "quality": 100, "contribution": 0.0}, "KCXY": {"distance": 37312.0, "latitude": 40.22, "longitude": -76.84, "useCount": 0, "id": "KCXY", "name": "KCXY", "quality": 100, "contribution": 0.0}}}