{"queryCost": 1, "latitude": 36.653, "longitude": -78.691, "resolvedAddress": "36.65300,-78.69100", "address": "36.65300,-78.69100", "timezone": "America/New_York", "tzoffset": -4.0, "days": [{"datetime": "2021-11-06", "datetimeEpoch": 1636171200, "tempmax": 52.4, "tempmin": 33.2, "temp": 43.3, "feelslikemax": 52.4, "feelslikemin": 27.8, "feelslike": 40.9, "dew": 32.8, "humidity": 67.68, "precip": 0.0, "precipprob": null, "precipcover": 0.0, "preciptype": null, "snow": 0.0, "snowdepth": 0.0, "windgust": 20.8, "windspeed": 11.5, "winddir": 44.4, "pressure": 1025.6, "cloudcover": 50.8, "visibility": 9.9, "solarradiation": 107.4, "solarenergy": 4.6, "uvindex": 2.0, "sunrise": "07:43:39", "sunriseEpoch": 1636199019, "sunset": "18:12:42", "sunsetEpoch": 1636236762, "moonphase": 0.02, "conditions": "Partially cloudy", "description": "Becoming cloudy in the afternoon.", "icon": "partly-cloudy-day", "stations": ["CGLN7", "72028803711", "KCXE", "72219303722", "KW63", "KHNZ", "F5745", "KW78"], "source": "obs"}], "stations": {"CGLN7": {"distance": 61454.0, "latitude": 36.386, "longitude": -79.292, "useCount": 0, "id": "CGLN7", "name": "CASWELL GAME LANDS NC US", "quality": 0, "contribution": 0.0}, "72028803711": {"distance": 35554.0, "latitude": 36.361, "longitude": -78.529, "useCount": 0, "id": "72028803711", "name": "HENDERSON OXFORD AIRPORT, NC US", "quality": 95, "contribution": 0.0}, "KCXE": {"distance": 22144.0, "latitude": 36.78, "longitude": -78.5, "useCount": 0, "id": "KCXE", "name": "KCXE", "quality": 100, "contribution": 0.0}, "72219303722": {"distance": 48681.0, "latitude": 36.285, "longitude": -78.984, "useCount": 0, "id": "72219303722", "name": "ROXBORO PERSON CO AIRPORT, NC US", "quality": 100, "contribution": 0.0}, "KW63": {"distance": 13910.0, "latitude": 36.6, "longitude": -78.55, "useCount": 0, "id": "KW63", "name": "KW63", "quality": 97, "contribution": 0.0}, "KHNZ": {"distance": 35656.0, "latitude": 36.36, "longitude": -78.53, "useCount": 0, "id": "KHNZ", "name": "KHNZ", "quality": 94, "contribution": 0.0}, "F5745": {"distance": 51532.0, "latitude": 36.229, "longitude": -78.923, "useCount": 0, "id": "F5745", "name": "FW5745 Rougemont NC US", "quality": 0, "contribution": 0.0}, "KW78": {"distance": 13640.0, "latitude": 36.68, "longitude": -78.84, "useCount": 0, "id": "KW78", "name": "KW78", "quality": 96, "contribution": 0.0}}}