{"queryCost": 1, "latitude": 41.494, "longitude": -88.074, "resolvedAddress": "41.49400,-88.07400", "address": "41.49400,-88.07400", "timezone": "America/Chicago", "tzoffset": -5.0, "days": [{"datetime": "2021-11-06", "datetimeEpoch": 1636174800, "tempmax": 60.0, "tempmin": 30.2, "temp": 44.7, "feelslikemax": 60.0, "feelslikemin": 29.9, "feelslike": 43.8, "dew": 34.8, "humidity": 70.7, "precip": 0.0, "precipprob": 0.0, "precipcover": 0.0, "preciptype": null, "snow": 0.0, "snowdepth": 0.0, "windgust": 18.3, "windspeed": 12.9, "winddir": 161.8, "pressure": 1022.7, "cloudcover": 0.0, "visibility": 9.6, "solarradiation": 140.9, "solarenergy": 12.4, "uvindex": 5.0, "sunrise": "07:30:27", "sunriseEpoch": 1636201827, "sunset": "17:40:55", "sunsetEpoch": 1636238455, "moonphase": 0.02, "conditions": "Clear", "description": "Clear conditions throughout the day.", "icon": "clear-day", "stations": ["KC09", "72534804831", "WMGI2", "KLOT", "KJOT", "72013704867", "72534514834"], "source": "obs"}], "stations": {"KC09": {"distance": 30019.0, "latitude": 41.42, "longitude": -88.42, "useCount": 0, "id": "KC09", "name": "KC09", "quality": 95, "contribution": 0.0}, "72534804831": {"distance": 12290.0, "latitude": 41.604, "longitude": -88.085, "useCount": 0, "id": "72534804831", "name": "ROMEOVILLE WEATHER FORECAST OFFICE, IL US", "quality": 100, "contribution": 0.0}, "WMGI2": {"distance": 17605.0, "latitude": 41.342, "longitude": -88.131, "useCount": 0, "id": "WMGI2", "name": "MIDEWIN TALLGRASS PRAIRIE IL US", "quality": 0, "contribution": 0.0}, "KLOT": {"distance": 12982.0, "latitude": 41.61, "longitude": -88.09, "useCount": 0, "id": "KLOT", "name": "KLOT", "quality": 99, "contribution": 0.0}, "KJOT": {"distance": 9299.0, "latitude": 41.52, "longitude": -88.18, "useCount": 0, "id": "KJOT", "name": "KJOT", "quality": 98, "contribution": 0.0}, "72013704867": {"distance": 29748.0, "latitude": 41.425, "longitude": -88.419, "useCount": 0, "id": "72013704867", "name": "MORRIS MUNICIPAL JR WASHBURN FIELD AIRPORT, IL US", "quality": 100, "contribution": 0.0}, "72534514834": {"distance": 7758.0, "latitude": 41.5, "longitude": -88.167, "useCount": 0, "id": "72534514834", "name": "JOLIET, IL US", "quality": 100, "contribution": 0.0}}}