{"queryCost": 1, "latitude": 34.503, "longitude": -82.65, "resolvedAddress": "34.50300,-82.65000", "address": "34.50300,-82.65000", "timezone": "America/New_York", "tzoffset": -4.0, "days": [{"datetime": "2021-10-14", "datetimeEpoch": 1634184000, "tempmax": 83.0, "tempmin": 61.0, "temp": 71.2, "feelslikemax": 84.8, "feelslikemin": 61.0, "feelslike": 71.6, "dew": 64.8, "humidity": 82.6, "precip": 0.0, "precipprob": 0.0, "precipcover": 0.0, "preciptype": null, "snow": 0.0, "snowdepth": 0.0, "windgust": null, "windspeed": 8.7, "winddir": 126.8, "pressure": 1015.7, "cloudcover": 12.0, "visibility": 8.2, "solarradiation": 193.0, "solarenergy": 16.8, "uvindex": 7.0, "sunrise": "07:35:29", "sunriseEpoch": 1634211329, "sunset": "18:57:02", "sunsetEpoch": 1634252222, "moonphase": 0.33, "conditions": "Clear", "description": "Clear conditions throughout the day.", "icon": "clear-day", "stations": ["72074400271", "E3585", "KLQK", "KCEU", "72311853850", "72319093846", "KAND"], "source": "obs"}], "stations": {"72074400271": {"distance": 35253.0, "latitude": 34.817, "longitude": -82.7, "useCount": 0, "id": "72074400271", "name": "PICKENS CO AIRPORT, SC US", "quality": 100, "contribution": 0.0}, "E3585": {"distance": 25337.0, "latitude": 34.6, "longitude": -82.9, "useCount": 0, "id": "E3585", "name": "EW3585 Seneca SC US", "quality": 0, "contribution": 0.0}, "KLQK": {"distance": 34480.0, "latitude": 34.81, "longitude": -82.7, "useCount": 0, "id": "KLQK", "name": "KLQK", "quality": 99, "contribution": 0.0}, "KCEU": {"distance": 28105.0, "latitude": 34.67, "longitude": -82.88, "useCount": 0, "id": "KCEU", "name": "KCEU", "quality": 100, "contribution": 0.0}, "72311853850": {"distance": 28686.0, "latitude": 34.672, "longitude": -82.886, "useCount": 0, "id": "72311853850", "name": "CLEMSON OCONEE CO AIRPORT, SC US", "quality": 100, "contribution": 0.0}, "72319093846": {"distance": 5509.0, "latitude": 34.498, "longitude": -82.71, "useCount": 0, "id": "72319093846", "name": "ANDERSON FAA AIRPORT, SC US", "quality": 100, "contribution": 0.0}, "KAND": {"distance": 6430.0, "latitude": 34.5, "longitude": -82.72, "useCount": 0, "id": "KAND", "name": "KAND", "quality": 100, "contribution": 0.0}}}