{"queryCost": 1, "latitude": 42.064, "longitude": -70.877, "resolvedAddress": "42.06400,-70.87700", "address": "42.06400,-70.87700", "timezone": "America/New_York", "tzoffset": -4.0, "days": [{"datetime": "2015-08-15", "datetimeEpoch": 1439611200, "tempmax": 86.3, "tempmin": 65.3, "temp": 75.2, "feelslikemax": 91.6, "feelslikemin": 65.3, "feelslike": 76.4, "dew": 65.6, "humidity": 73.6, "precip": 0.16, "precipprob": 100.0, "precipcover": 8.33, "preciptype": ["rain"], "snow": 0.0, "snowdepth": 0.0, "windgust": 20.5, "windspeed": 9.9, "winddir": 223.3, "pressure": 1018.9, "cloudcover": 20.7, "visibility": 9.9, "solarradiation": 262.2, "solarenergy": 22.5, "uvindex": 8.0, "sunrise": "05:50:54", "sunriseEpoch": 1439632254, "sunset": "19:44:23", "sunsetEpoch": 1439682263, "moonphase": 0.0, "conditions": "Rain, Partially cloudy", "description": "Partly cloudy throughout the day with late afternoon rain.", "icon": "rain", "stations": ["72506854777", "KTAN", "KGHG", "KPYM", "72506454769", "72225664774"], "source": "obs"}], "stations": {"72506854777": {"distance": 24127.0, "latitude": 41.876, "longitude": -71.021, "useCount": 0, "id": "72506854777", "name": "TAUNTON MUNICIPAL AIRPORT, MA US", "quality": 100, "contribution": 0.0}, "KTAN": {"distance": 24627.0, "latitude": 41.87, "longitude": -71.02, "useCount": 0, "id": "KTAN", "name": "KTAN", "quality": 100, "contribution": 0.0}, "KGHG": {"distance": 16762.0, "latitude": 42.1, "longitude": -70.68, "useCount": 0, "id": "KGHG", "name": "KGHG", "quality": 100, "contribution": 0.0}, "KPYM": {"distance": 20122.0, "latitude": 41.92, "longitude": -70.73, "useCount": 0, "id": "KPYM", "name": "KPYM", "quality": 100, "contribution": 0.0}, "72506454769": {"distance": 21076.0, "latitude": 41.91, "longitude": -70.729, "useCount": 0, "id": "72506454769", "name": "PLYMOUTH MUNICIPAL AIRPORT, MA US", "quality": 100, "contribution": 0.0}, "72225664774": {"distance": 17346.0, "latitude": 42.098, "longitude": -70.672, "useCount": 0, "id": "72225664774", "name": "MARSHFIELD MUNICIPAL AIRPORT, MA US", "quality": 100, "contribution": 0.0}}}