{"queryCost": 1, "latitude": 42.975, "longitude": -83.666, "resolvedAddress": "42.97500,-83.66600", "address": "42.97500,-83.66600", "timezone": "America/Detroit", "tzoffset": -5.0, "days": [{"datetime": "2021-12-21", "datetimeEpoch": 1640062800, "tempmax": 37.1, "tempmin": 19.2, "temp": 30.2, "feelslikemax": 29.4, "feelslikemin": 15.5, "feelslike": 24.3, "dew": 25.3, "humidity": 81.92, "precip": 0.0, "precipprob": null, "precipcover": 0.0, "preciptype": null, "snow": 0.0, "snowdepth": 1.49, "windgust": 32.9, "windspeed": 18.5, "winddir": 182.5, "pressure": 1012.5, "cloudcover": 46.5, "visibility": 6.7, "solarradiation": 70.1, "solarenergy": 4.3, "uvindex": 4.0, "sunrise": "08:02:53", "sunriseEpoch": 1640091773, "sunset": "17:03:06", "sunsetEpoch": 1640124186, "moonphase": 0.53, "conditions": "Partially cloudy", "description": "Becoming cloudy in the afternoon.", "icon": "partly-cloudy-day", "stations": ["72090200298", "KFNT", "HRAM4", "MIRVL", "72637594817", "KD95", "72637014826", "MIFLT", "KPTK"], "source": "obs"}], "stations": {"72090200298": {"distance": 34050.0, "latitude": 43.067, "longitude": -83.267, "useCount": 0, "id": "72090200298", "name": "DUPONT LAPEER AIRPORT, MI US", "quality": 100, "contribution": 0.0}, "KFNT": {"distance": 6864.0, "latitude": 42.97, "longitude": -83.75, "useCount": 0, "id": "KFNT", "name": "KFNT", "quality": 100, "contribution": 0.0}, "HRAM4": {"distance": 17589.0, "latitude": 42.817, "longitude": -83.679, "useCount": 0, "id": "HRAM4", "name": "HOLLY RAWS NEAR FENTON 2NE HADS", "quality": 0, "contribution": 0.0}, "MIRVL": {"distance": 47326.0, "latitude": 43.4, "longitude": -83.698, "useCount": 0, "id": "MIRVL", "name": "Richville MI US MAWN", "quality": 0, "contribution": 0.0}, "72637594817": {"distance": 40007.0, "latitude": 42.665, "longitude": -83.418, "useCount": 0, "id": "72637594817", "name": "PONTIAC OAKLAND CO INTERNATIONAL AIRPORT, MI US", "quality": 100, "contribution": 0.0}, "KD95": {"distance": 34373.0, "latitude": 43.06, "longitude": -83.26, "useCount": 0, "id": "KD95", "name": "KD95", "quality": 100, "contribution": 0.0}, "72637014826": {"distance": 6857.0, "latitude": 42.967, "longitude": -83.749, "useCount": 0, "id": "72637014826", "name": "FLINT FCWOS, MI US", "quality": 100, "contribution": 0.0}, "MIFLT": {"distance": 5509.0, "latitude": 43.024, "longitude": -83.674, "useCount": 0, "id": "MIFLT", "name": "Flint MI US MAWN", "quality": 0, "contribution": 0.0}, "KPTK": {"distance": 39449.0, "latitude": 42.67, "longitude": -83.42, "useCount": 0, "id": "KPTK", "name": "KPTK", "quality": 100, "contribution": 0.0}}}