{"queryCost": 1, "latitude": 42.309, "longitude": -85.175, "resolvedAddress": "42.30900,-85.17500", "address": "42.30900,-85.17500", "timezone": "America/Detroit", "tzoffset": -5.0, "days": [{"datetime": "2021-12-22", "datetimeEpoch": 1640149200, "tempmax": 32.0, "tempmin": 19.5, "temp": 24.7, "feelslikemax": 20.1, "feelslikemin": 10.9, "feelslike": 14.5, "dew": 15.8, "humidity": 68.8, "precip": 0.02, "precipprob": 100.0, "precipcover": 4.17, "preciptype": ["snow"], "snow": 0.0, "snowdepth": 0.0, "windgust": 37.3, "windspeed": 21.6, "winddir": 273.6, "pressure": 1014.7, "cloudcover": 91.3, "visibility": 8.2, "solarradiation": 47.1, "solarenergy": 4.0, "uvindex": 4.0, "sunrise": "08:07:10", "sunriseEpoch": 1640178430, "sunset": "17:11:55", "sunsetEpoch": 1640211115, "moonphase": 0.55, "conditions": "Snow, Overcast", "description": "Cloudy skies throughout the day with afternoon snow.", "icon": "rain", "stations": ["KRMY", "72635794815", "72541554821", "72539614815", "KAZO", "MICER", "KBTL"], "source": "obs"}], "stations": {"KRMY": {"distance": 18887.0, "latitude": 42.25, "longitude": -84.96, "useCount": 0, "id": "KRMY", "name": "KRMY", "quality": 100, "contribution": 0.0}, "72635794815": {"distance": 32129.0, "latitude": 42.235, "longitude": -85.552, "useCount": 0, "id": "72635794815", "name": "KALAMAZOO BATTLE CREEK INTERNATIONAL AIRPORT, MI US", "quality": 100, "contribution": 0.0}, "72541554821": {"distance": 19185.0, "latitude": 42.251, "longitude": -84.956, "useCount": 0, "id": "72541554821", "name": "MARSHALL BROOKS FIELD AIRPORT, MI US", "quality": 100, "contribution": 0.0}, "72539614815": {"distance": 6267.0, "latitude": 42.308, "longitude": -85.251, "useCount": 0, "id": "72539614815", "name": "BATTLE CREEK KELLOGG AIRPORT, MI US", "quality": 100, "contribution": 0.0}, "KAZO": {"distance": 32118.0, "latitude": 42.23, "longitude": -85.55, "useCount": 0, "id": "KAZO", "name": "KAZO", "quality": 100, "contribution": 0.0}, "MICER": {"distance": 10078.0, "latitude": 42.22, "longitude": -85.153, "useCount": 0, "id": "MICER", "name": "Ceresco MI US MAWN", "quality": 0, "contribution": 0.0}, "KBTL": {"distance": 6255.0, "latitude": 42.3, "longitude": -85.25, "useCount": 0, "id": "KBTL", "name": "KBTL", "quality": 100, "contribution": 0.0}}}