{"queryCost": 1, "latitude": 32.19, "longitude": -89.986, "resolvedAddress": "32.19000,-89.98600", "address": "32.19000,-89.98600", "timezone": "America/Chicago", "tzoffset": -6.0, "days": [{"datetime": "2021-12-21", "datetimeEpoch": 1640066400, "tempmax": 54.5, "tempmin": 37.2, "temp": 44.3, "feelslikemax": 54.5, "feelslikemin": 35.7, "feelslike": 42.5, "dew": 37.3, "humidity": 77.62, "precip": 0.04, "precipprob": null, "precipcover": 4.17, "preciptype": null, "snow": 0.0, "snowdepth": 0.0, "windgust": 11.4, "windspeed": 8.3, "winddir": 261.8, "pressure": 1017.8, "cloudcover": 58.1, "visibility": 9.9, "solarradiation": 205.9, "solarenergy": 8.9, "uvindex": 5.0, "sunrise": "06:57:11", "sunriseEpoch": 1640091431, "sunset": "16:59:23", "sunsetEpoch": 1640127563, "moonphase": 0.53, "conditions": "Rain, Partially cloudy", "description": "Partly cloudy throughout the day with early morning rain.", "icon": "rain", "stations": ["72078700278", "KJVW", "72235413927", "KHKS", "72235003940", "KJAN", "CYSM6"], "source": "obs"}], "stations": {"72078700278": {"distance": 41978.0, "latitude": 32.304, "longitude": -90.411, "useCount": 0, "id": "72078700278", "name": "JOHN BELL WILLIAMS AIRPORT, MS US", "quality": 50, "contribution": 0.0}, "KJVW": {"distance": 41445.0, "latitude": 32.29, "longitude": -90.41, "useCount": 0, "id": "KJVW", "name": "KJVW", "quality": 45, "contribution": 0.0}, "72235413927": {"distance": 27526.0, "latitude": 32.337, "longitude": -90.221, "useCount": 0, "id": "72235413927", "name": "JACKSON HAWKINS FIELD, MS US", "quality": 100, "contribution": 0.0}, "KHKS": {"distance": 26983.0, "latitude": 32.33, "longitude": -90.22, "useCount": 0, "id": "KHKS", "name": "KHKS", "quality": 100, "contribution": 0.0}, "72235003940": {"distance": 16899.0, "latitude": 32.321, "longitude": -90.078, "useCount": 0, "id": "72235003940", "name": "JACKSON INTERNATIONAL AIRPORT, MS US", "quality": 100, "contribution": 0.0}, "KJAN": {"distance": 16963.0, "latitude": 32.32, "longitude": -90.08, "useCount": 0, "id": "KJAN", "name": "KJAN", "quality": 100, "contribution": 0.0}, "CYSM6": {"distance": 45838.0, "latitude": 31.95, "longitude": -90.381, "useCount": 0, "id": "CYSM6", "name": "COPIAH MS US", "quality": 0, "contribution": 0.0}}}