{"queryCost": 1, "latitude": 37.273, "longitude": -121.828, "resolvedAddress": "37.27300,-121.82800", "address": "37.27300,-121.82800", "timezone": "America/Los_Angeles", "tzoffset": -7.0, "days": [{"datetime": "2015-08-17", "datetimeEpoch": 1439794800, "tempmax": 89.9, "tempmin": 64.4, "temp": 75.4, "feelslikemax": 87.3, "feelslikemin": 64.4, "feelslike": 75.1, "dew": 57.2, "humidity": 56.3, "precip": 0.0, "precipprob": 0.0, "precipcover": 0.0, "preciptype": null, "snow": 0.0, "snowdepth": 0.0, "windgust": null, "windspeed": 13.2, "winddir": 212.7, "pressure": 1010.3, "cloudcover": 22.2, "visibility": 8.2, "solarradiation": 287.9, "solarenergy": 24.9, "uvindex": 9.0, "sunrise": "06:25:10", "sunriseEpoch": 1439817910, "sunset": "19:56:58", "sunsetEpoch": 1439866618, "moonphase": 0.04, "conditions": "Partially cloudy", "description": "Partly cloudy throughout the day.", "icon": "partly-cloudy-day", "stations": ["KSJC", "74505823277", "KLVK", "72492723285", "72494523293", "KWVI"], "source": "obs"}], "stations": {"KSJC": {"distance": 12654.0, "latitude": 37.36, "longitude": -121.92, "useCount": 0, "id": "KSJC", "name": "KSJC", "quality": 100, "contribution": 0.0}, "74505823277": {"distance": 37696.0, "latitude": 36.936, "longitude": -121.789, "useCount": 0, "id": "74505823277", "name": "WATSONVILLE MUNICIPAL AIRPORT, CA US", "quality": 99, "contribution": 0.0}, "KLVK": {"distance": 47539.0, "latitude": 37.7, "longitude": -121.82, "useCount": 0, "id": "KLVK", "name": "LIVERMORE, CA", "quality": 100, "contribution": 0.0}, "72492723285": {"distance": 46737.0, "latitude": 37.693, "longitude": -121.814, "useCount": 0, "id": "72492723285", "name": "LIVERMORE MUNICIPAL AIRPORT, CA US", "quality": 100, "contribution": 0.0}, "72494523293": {"distance": 12810.0, "latitude": 37.359, "longitude": -121.924, "useCount": 0, "id": "72494523293", "name": "SAN JOSE, CA US", "quality": 100, "contribution": 0.0}, "KWVI": {"distance": 37223.0, "latitude": 36.94, "longitude": -121.79, "useCount": 0, "id": "KWVI", "name": "KWVI", "quality": 100, "contribution": 0.0}}}