{"queryCost": 1, "latitude": 35.411, "longitude": -119.047, "resolvedAddress": "35.41100,-119.04700", "address": "35.41100,-119.04700", "timezone": "America/Los_Angeles", "tzoffset": -7.0, "days": [{"datetime": "2015-08-22", "datetimeEpoch": 1440226800, "tempmax": 97.1, "tempmin": 72.0, "temp": 83.5, "feelslikemax": 93.7, "feelslikemin": 72.0, "feelslike": 82.1, "dew": 50.9, "humidity": 34.0, "precip": 0.0, "precipprob": 0.0, "precipcover": 0.0, "preciptype": null, "snow": 0.0, "snowdepth": 0.0, "windgust": 24.2, "windspeed": 12.7, "winddir": 308.8, "pressure": 1009.8, "cloudcover": 0.0, "visibility": 9.7, "solarradiation": 325.1, "solarenergy": 28.1, "uvindex": 10.0, "sunrise": "06:20:46", "sunriseEpoch": 1440249646, "sunset": "19:36:48", "sunsetEpoch": 1440297408, "moonphase": 0.23, "conditions": "Clear", "description": "Clear conditions throughout the day.", "icon": "clear-day", "stations": ["72389523149", "KPTV", "KTSP", "74917100479", "72384023155", "KBFL"], "source": "obs"}], "stations": {"72389523149": {"distance": 68853.0, "latitude": 36.029, "longitude": -119.062, "useCount": 0, "id": "72389523149", "name": "PORTERVILLE MUNICIPAL AIRPORT, CA US", "quality": 100, "contribution": 0.0}, "KPTV": {"distance": 68938.0, "latitude": 36.03, "longitude": -119.07, "useCount": 0, "id": "KPTV", "name": "PORTERVILLE, CA", "quality": 100, "contribution": 0.0}, "KTSP": {"distance": 63673.0, "latitude": 35.14, "longitude": -118.43, "useCount": 0, "id": "KTSP", "name": "KTSP", "quality": 97, "contribution": 0.0}, "74917100479": {"distance": 63229.0, "latitude": 35.135, "longitude": -118.439, "useCount": 0, "id": "74917100479", "name": "TEHACHAPI MUNICIPAL AIRPORT, CA US", "quality": 98, "contribution": 0.0}, "72384023155": {"distance": 2681.0, "latitude": 35.434, "longitude": -119.054, "useCount": 0, "id": "72384023155", "name": "BAKERSFIELD AIRPORT, CA US", "quality": 99, "contribution": 0.0}, "KBFL": {"distance": 2133.0, "latitude": 35.43, "longitude": -119.05, "useCount": 0, "id": "KBFL", "name": "KBFL", "quality": 99, "contribution": 0.0}}}