{"queryCost": 1, "latitude": 41.46, "longitude": -87.065, "resolvedAddress": "41.46000,-87.06500", "address": "41.46000,-87.06500", "timezone": "America/Chicago", "tzoffset": -6.0, "days": [{"datetime": "2021-01-01", "datetimeEpoch": 1609480800, "tempmax": 33.1, "tempmin": 21.0, "temp": 29.1, "feelslikemax": 32.0, "feelslikemin": 11.5, "feelslike": 21.2, "dew": 26.0, "humidity": 88.2, "precip": 0.68, "precipprob": 100.0, "precipcover": 54.17, "preciptype": ["rain", "snow"], "snow": 0.7, "snowdepth": 1.1, "windgust": 29.6, "windspeed": 19.2, "winddir": 102.8, "pressure": 1016.5, "cloudcover": 69.0, "visibility": 4.0, "solarradiation": 12.1, "solarenergy": 0.9, "uvindex": 1.0, "sunrise": "07:14:46", "sunriseEpoch": 1609506886, "sunset": "16:29:31", "sunsetEpoch": 1609540171, "moonphase": 0.53, "conditions": "Snow, Rain, Partially cloudy", "description": "Partly cloudy throughout the day with rain or snow.", "icon": "snow", "stations": ["D5677", "72212604879", "KVPZ", "72102900347", "KPPO", "72532704846", "TT351", "KIGQ", "TS480"], "source": "obs"}], "stations": {"D5677": {"distance": 19493.0, "latitude": 41.316, "longitude": -87.198, "useCount": 0, "id": "D5677", "name": "DW5677 Hebron IN US", "quality": 0, "contribution": 0.0}, "72212604879": {"distance": 39925.0, "latitude": 41.54, "longitude": -87.532, "useCount": 0, "id": "72212604879", "name": "CHICAGO LANSING MUNICIPAL AIRPORT, IL US", "quality": 100, "contribution": 0.0}, "KVPZ": {"distance": 5536.0, "latitude": 41.45, "longitude": -87.0, "useCount": 0, "id": "KVPZ", "name": "KVPZ", "quality": 99, "contribution": 0.0}, "72102900347": {"distance": 30200.0, "latitude": 41.572, "longitude": -86.735, "useCount": 0, "id": "72102900347", "name": "LA PORTE MUNICIPAL AIRPORT, IN US", "quality": 99, "contribution": 0.0}, "KPPO": {"distance": 30490.0, "latitude": 41.57, "longitude": -86.73, "useCount": 0, "id": "KPPO", "name": "KPPO", "quality": 100, "contribution": 0.0}, "72532704846": {"distance": 5009.0, "latitude": 41.453, "longitude": -87.006, "useCount": 0, "id": "72532704846", "name": "VALPARAISO PORTER CO MUNICIPAL AIRPORT, IN US", "quality": 98, "contribution": 0.0}, "TT351": {"distance": 21684.0, "latitude": 41.616, "longitude": -87.22, "useCount": 0, "id": "TT351", "name": "INDU PORTABLE IN US", "quality": 0, "contribution": 0.0}, "KIGQ": {"distance": 39778.0, "latitude": 41.54, "longitude": -87.53, "useCount": 0, "id": "KIGQ", "name": "KIGQ", "quality": 100, "contribution": 0.0}, "TS480": {"distance": 19208.0, "latitude": 41.632, "longitude": -87.088, "useCount": 0, "id": "TS480", "name": "BAILLY IN US", "quality": 0, "contribution": 0.0}}}