{"queryCost": 1, "latitude": 37.673, "longitude": -97.413, "resolvedAddress": "37.67300,-97.41300", "address": "37.67300,-97.41300", "timezone": "America/Chicago", "tzoffset": -5.0, "days": [{"datetime": "2015-08-22", "datetimeEpoch": 1440219600, "tempmax": 88.9, "tempmin": 66.0, "temp": 77.2, "feelslikemax": 94.3, "feelslikemin": 66.0, "feelslike": 79.2, "dew": 67.1, "humidity": 72.5, "precip": 0.01, "precipprob": 100.0, "precipcover": 4.17, "preciptype": ["rain"], "snow": 0.0, "snowdepth": 0.0, "windgust": 34.4, "windspeed": 25.0, "winddir": 166.3, "pressure": 1009.7, "cloudcover": 50.9, "visibility": 9.9, "solarradiation": 273.5, "solarenergy": 23.4, "uvindex": 9.0, "sunrise": "06:51:05", "sunriseEpoch": 1440244265, "sunset": "20:13:23", "sunsetEpoch": 1440292403, "moonphase": 0.23, "conditions": "Rain, Partially cloudy", "description": "Clearing in the afternoon with morning rain.", "icon": "rain", "stations": ["72450503923", "72450403974", "KAAO", "KICT", "KIAB", "72450003928"], "source": "obs"}], "stations": {"72450503923": {"distance": 14338.0, "latitude": 37.617, "longitude": -97.267, "useCount": 0, "id": "72450503923", "name": "WICHITA MCCONNELL AFB, KS US", "quality": 100, "contribution": 0.0}, "72450403974": {"distance": 18757.0, "latitude": 37.746, "longitude": -97.221, "useCount": 0, "id": "72450403974", "name": "WICHITA COLONEL JAMES JABARA AIRPORT, KS US", "quality": 100, "contribution": 0.0}, "KAAO": {"distance": 19036.0, "latitude": 37.75, "longitude": -97.22, "useCount": 0, "id": "KAAO", "name": "KAAO", "quality": 98, "contribution": 0.0}, "KICT": {"distance": 2966.0, "latitude": 37.65, "longitude": -97.43, "useCount": 0, "id": "KICT", "name": "KICT", "quality": 100, "contribution": 0.0}, "KIAB": {"distance": 14425.0, "latitude": 37.61, "longitude": -97.27, "useCount": 0, "id": "KIAB", "name": "KIAB", "quality": 100, "contribution": 0.0}, "72450003928": {"distance": 3210.0, "latitude": 37.648, "longitude": -97.43, "useCount": 0, "id": "72450003928", "name": "WICHITA DWIGHT D. EISENHOWER NATIONAL AIRPORT, KS US", "quality": 100, "contribution": 0.0}}}