{"queryCost": 1, "latitude": 35.606, "longitude": -106.035, "resolvedAddress": "35.60600,-106.03500", "address": "35.60600,-106.03500", "timezone": "America/Denver", "tzoffset": -6.0, "days": [{"datetime": "2015-08-25", "datetimeEpoch": 1440482400, "tempmax": 85.9, "tempmin": 56.1, "temp": 70.9, "feelslikemax": 82.7, "feelslikemin": 56.1, "feelslike": 70.2, "dew": 47.2, "humidity": 48.8, "precip": 0.0, "precipprob": 0.0, "precipcover": 0.0, "preciptype": null, "snow": 0.0, "snowdepth": 0.0, "windgust": 25.3, "windspeed": 18.2, "winddir": 153.7, "pressure": 1017.9, "cloudcover": 5.6, "visibility": 9.9, "solarradiation": 268.7, "solarenergy": 23.1, "uvindex": 9.0, "sunrise": "06:30:44", "sunriseEpoch": 1440505844, "sunset": "19:41:09", "sunsetEpoch": 1440553269, "moonphase": 0.38, "conditions": "Clear", "description": "Clear conditions throughout the day.", "icon": "clear-day", "stations": ["72365623049", "K0E0", "KCQC", "72365493091", "KSAF", "KLAM"], "source": "obs"}], "stations": {"72365623049": {"distance": 5035.0, "latitude": 35.617, "longitude": -106.089, "useCount": 0, "id": "72365623049", "name": "SANTA FE CO MUNICIPAL AIRPORT, NM US", "quality": 100, "contribution": 0.0}, "K0E0": {"distance": 70871.0, "latitude": 34.97, "longitude": -106.0, "useCount": 0, "id": "K0E0", "name": "K0E0", "quality": 100, "contribution": 0.0}, "KCQC": {"distance": 75169.0, "latitude": 35.0, "longitude": -105.67, "useCount": 0, "id": "KCQC", "name": "KCQC", "quality": 100, "contribution": 0.0}, "72365493091": {"distance": 38144.0, "latitude": 35.883, "longitude": -106.283, "useCount": 0, "id": "72365493091", "name": "LOS ALAMOS MUNICIPAL AIRPORT, NM US", "quality": 100, "contribution": 0.0}, "KSAF": {"distance": 4097.0, "latitude": 35.61, "longitude": -106.08, "useCount": 0, "id": "KSAF", "name": "KSAF", "quality": 100, "contribution": 0.0}, "KLAM": {"distance": 37688.0, "latitude": 35.88, "longitude": -106.28, "useCount": 0, "id": "KLAM", "name": "KLAM", "quality": 100, "contribution": 0.0}}}