{"queryCost": 1, "latitude": 40.099, "longitude": -74.138, "resolvedAddress": "40.09900,-74.13800", "address": "40.09900,-74.13800", "timezone": "America/New_York", "tzoffset": -4.0, "days": [{"datetime": "2015-08-23", "datetimeEpoch": 1440302400, "tempmax": 79.8, "tempmin": 61.5, "temp": 71.2, "feelslikemax": 79.8, "feelslikemin": 61.5, "feelslike": 71.2, "dew": 61.2, "humidity": 71.2, "precip": 0.0, "precipprob": 0.0, "precipcover": 0.0, "preciptype": null, "snow": 0.0, "snowdepth": 0.0, "windgust": null, "windspeed": 8.1, "winddir": 172.0, "pressure": 1015.3, "cloudcover": 48.7, "visibility": 9.9, "solarradiation": 204.0, "solarenergy": 17.5, "uvindex": 7.0, "sunrise": "06:15:19", "sunriseEpoch": 1440324919, "sunset": "19:42:24", "sunsetEpoch": 1440373344, "moonphase": 0.28, "conditions": "Partially cloudy", "description": "Partly cloudy throughout the day.", "icon": "partly-cloudy-day", "stations": ["KMJX", "72040700462", "KNEL", "72408454760", "KBLM", "72409014780"], "source": "obs"}], "stations": {"KMJX": {"distance": 25169.0, "latitude": 39.91, "longitude": -74.3, "useCount": 0, "id": "KMJX", "name": "TOMS RIVER, NJ", "quality": 99, "contribution": 0.0}, "72040700462": {"distance": 23185.0, "latitude": 39.928, "longitude": -74.292, "useCount": 0, "id": "72040700462", "name": "OCEAN CO AIRPORT, NJ US", "quality": 98, "contribution": 0.0}, "KNEL": {"distance": 18846.0, "latitude": 40.03, "longitude": -74.34, "useCount": 0, "id": "KNEL", "name": "KNEL", "quality": 82, "contribution": 0.0}, "72408454760": {"distance": 9393.0, "latitude": 40.183, "longitude": -74.133, "useCount": 0, "id": "72408454760", "name": "BELMAR FARMINGDALE ALLAIRE AIRPORT, NJ US", "quality": 100, "contribution": 0.0}, "KBLM": {"distance": 9043.0, "latitude": 40.18, "longitude": -74.13, "useCount": 0, "id": "KBLM", "name": "ALLAIRE, NJ", "quality": 100, "contribution": 0.0}, "72409014780": {"distance": 19486.0, "latitude": 40.033, "longitude": -74.35, "useCount": 0, "id": "72409014780", "name": "LAKEHURST NAS, NJ US", "quality": 80, "contribution": 0.0}}}