{"queryCost": 1, "latitude": 25.942, "longitude": -80.307, "resolvedAddress": "25.94200,-80.30700", "address": "25.94200,-80.30700", "timezone": "America/New_York", "tzoffset": -5.0, "days": [{"datetime": "2022-03-11", "datetimeEpoch": 1646974800, "tempmax": 85.5, "tempmin": 72.2, "temp": 78.6, "feelslikemax": 89.5, "feelslikemin": 72.2, "feelslike": 80.1, "dew": 70.0, "humidity": 76.4, "precip": 0.05, "precipprob": 100.0, "precipcover": 4.17, "preciptype": ["rain"], "snow": 0.0, "snowdepth": 0.0, "windgust": 28.9, "windspeed": 17.7, "winddir": 142.8, "pressure": 1016.0, "cloudcover": 15.8, "visibility": 9.5, "solarradiation": 226.0, "solarenergy": 19.6, "uvindex": 8.0, "severerisk": 60.0, "sunrise": "06:34:31", "sunriseEpoch": 1646998471, "sunset": "18:28:14", "sunsetEpoch": 1647041294, "moonphase": 0.3, "conditions": "Rain", "description": "Clear conditions throughout the day with storms possible.", "icon": "rain", "stations": ["KHWO", "F1651", "72202412882", "72203792809", "KOPF", "KMIA", "72202012839"], "source": "obs"}], "stations": {"KHWO": {"distance": 10053.0, "latitude": 26.0, "longitude": -80.23, "useCount": 0, "id": "KHWO", "name": "KHWO", "quality": 94, "contribution": 0.0}, "F1651": {"distance": 12735.0, "latitude": 26.015, "longitude": -80.405, "useCount": 0, "id": "F1651", "name": "FW1651 Pembroke Pines FL US", "quality": 0, "contribution": 0.0}, "72202412882": {"distance": 4734.0, "latitude": 25.907, "longitude": -80.28, "useCount": 0, "id": "72202412882", "name": "MIAMI OPA LOCKA AIRPORT, FL US", "quality": 100, "contribution": 0.0}, "72203792809": {"distance": 9144.0, "latitude": 25.999, "longitude": -80.241, "useCount": 0, "id": "72203792809", "name": "HOLLYWOOD NORTH PERRY AIRPORT, FL US", "quality": 93, "contribution": 0.0}, "KOPF": {"distance": 5401.0, "latitude": 25.9, "longitude": -80.28, "useCount": 0, "id": "KOPF", "name": "KOPF", "quality": 100, "contribution": 0.0}, "KMIA": {"distance": 17006.0, "latitude": 25.79, "longitude": -80.29, "useCount": 0, "id": "KMIA", "name": "KMIA", "quality": 100, "contribution": 0.0}, "72202012839": {"distance": 17161.0, "latitude": 25.788, "longitude": -80.317, "useCount": 0, "id": "72202012839", "name": "MIAMI INTERNATIONAL AIRPORT, FL US", "quality": 100, "contribution": 0.0}}}