{"queryCost": 1, "latitude": 32.811, "longitude": -97.334, "resolvedAddress": "32.81100,-97.33400", "address": "32.81100,-97.33400", "timezone": "America/Chicago", "tzoffset": -6.0, "days": [{"datetime": "2015-01-17", "datetimeEpoch": 1421474400, "tempmax": 68.0, "tempmin": 43.0, "temp": 54.0, "feelslikemax": 68.0, "feelslikemin": 36.5, "feelslike": 51.6, "dew": 35.1, "humidity": 52.1, "precip": 0.0, "precipprob": 0.0, "precipcover": 0.0, "preciptype": null, "snow": 0.0, "snowdepth": 0.0, "windgust": 29.2, "windspeed": 21.0, "winddir": 251.8, "pressure": 1017.4, "cloudcover": 1.3, "visibility": 9.7, "solarradiation": 169.6, "solarenergy": 14.7, "uvindex": 7.0, "sunrise": "07:31:34", "sunriseEpoch": 1421501494, "sunset": "17:47:33", "sunsetEpoch": 1421538453, "moonphase": 0.94, "conditions": "Clear", "description": "Clear conditions throughout the day.", "icon": "clear-day", "stations": ["74739013961", "72259453909", "KAFW", "KNFW", "72259513911", "KFTW"], "source": "obs"}], "stations": {"74739013961": {"distance": 2721.0, "latitude": 32.819, "longitude": -97.361, "useCount": 0, "id": "74739013961", "name": "FORT WORTH MEACHAM FIELD, TX US", "quality": 100, "contribution": 0.0}, "72259453909": {"distance": 18128.0, "latitude": 32.973, "longitude": -97.318, "useCount": 0, "id": "72259453909", "name": "FORT WORTH ALLIANCE AIRPORT, TX US", "quality": 100, "contribution": 0.0}, "KAFW": {"distance": 17748.0, "latitude": 32.97, "longitude": -97.32, "useCount": 0, "id": "KAFW", "name": "KAFW", "quality": 100, "contribution": 0.0}, "KNFW": {"distance": 11776.0, "latitude": 32.77, "longitude": -97.45, "useCount": 0, "id": "KNFW", "name": "KNFW", "quality": 100, "contribution": 0.0}, "72259513911": {"distance": 11923.0, "latitude": 32.767, "longitude": -97.45, "useCount": 0, "id": "72259513911", "name": "FORT WORTH NAS, TX US", "quality": 100, "contribution": 0.0}, "KFTW": {"distance": 3514.0, "latitude": 32.82, "longitude": -97.37, "useCount": 0, "id": "KFTW", "name": "FT WORTH/MEACHAM, TX", "quality": 100, "contribution": 0.0}}}