{"queryCost": 1, "latitude": 25.84, "longitude": -80.213, "resolvedAddress": "25.84000,-80.21300", "address": "25.84000,-80.21300", "timezone": "America/New_York", "tzoffset": -5.0, "days": [{"datetime": "2022-03-08", "datetimeEpoch": 1646715600, "tempmax": 83.1, "tempmin": 74.4, "temp": 77.8, "feelslikemax": 87.1, "feelslikemin": 74.4, "feelslike": 78.9, "dew": 69.7, "humidity": 76.9, "precip": 0.0, "precipprob": 0.0, "precipcover": 0.0, "preciptype": ["rain"], "snow": 0.0, "snowdepth": 0.0, "windgust": 26.4, "windspeed": 16.9, "winddir": 142.5, "pressure": 1017.6, "cloudcover": 53.9, "visibility": 9.9, "solarradiation": 128.7, "solarenergy": 11.2, "uvindex": 10.0, "severerisk": 60.0, "sunrise": "06:37:10", "sunriseEpoch": 1646739430, "sunset": "18:26:22", "sunsetEpoch": 1646781982, "moonphase": 0.16, "conditions": "Partially cloudy", "description": "Partly cloudy throughout the day with storms possible.", "icon": "partly-cloudy-day", "stations": ["KHWO", "72202412882", "72203792809", "F8130", "0235W", "KOPF", "KMIA", "72202012839"], "source": "obs"}], "stations": {"KHWO": {"distance": 17892.0, "latitude": 26.0, "longitude": -80.23, "useCount": 0, "id": "KHWO", "name": "KHWO", "quality": 94, "contribution": 0.0}, "72202412882": {"distance": 10045.0, "latitude": 25.907, "longitude": -80.28, "useCount": 0, "id": "72202412882", "name": "MIAMI OPA LOCKA AIRPORT, FL US", "quality": 100, "contribution": 0.0}, "72203792809": {"distance": 17911.0, "latitude": 25.999, "longitude": -80.241, "useCount": 0, "id": "72203792809", "name": "HOLLYWOOD NORTH PERRY AIRPORT, FL US", "quality": 93, "contribution": 0.0}, "F8130": {"distance": 3834.0, "latitude": 25.871, "longitude": -80.197, "useCount": 0, "id": "F8130", "name": "FW8130 Miami Shores FL US", "quality": 0, "contribution": 0.0}, "0235W": {"distance": 5819.0, "latitude": 25.788, "longitude": -80.216, "useCount": 0, "id": "0235W", "name": "U of Miami Health System FL US WEATHERSTEM", "quality": 0, "contribution": 0.0}, "KOPF": {"distance": 9468.0, "latitude": 25.9, "longitude": -80.28, "useCount": 0, "id": "KOPF", "name": "KOPF", "quality": 100, "contribution": 0.0}, "KMIA": {"distance": 9514.0, "latitude": 25.79, "longitude": -80.29, "useCount": 0, "id": "KMIA", "name": "KMIA", "quality": 100, "contribution": 0.0}, "72202012839": {"distance": 11907.0, "latitude": 25.788, "longitude": -80.317, "useCount": 0, "id": "72202012839", "name": "MIAMI INTERNATIONAL AIRPORT, FL US", "quality": 100, "contribution": 0.0}}}