{"queryCost": 1, "latitude": 35.444, "longitude": -97.49, "resolvedAddress": "35.44400,-97.49000", "address": "35.44400,-97.49000", "timezone": "America/Chicago", "tzoffset": -6.0, "days": [{"datetime": "2022-03-02", "datetimeEpoch": 1646200800, "tempmax": 76.0, "tempmin": 38.5, "temp": 56.9, "feelslikemax": 76.0, "feelslikemin": 32.8, "feelslike": 55.2, "dew": 24.9, "humidity": 32.4, "precip": 0.0, "precipprob": 0.0, "precipcover": 0.0, "preciptype": null, "snow": 0.0, "snowdepth": 0.0, "windgust": 20.8, "windspeed": 11.4, "winddir": 208.0, "pressure": 1019.8, "cloudcover": 9.8, "visibility": 9.9, "solarradiation": 157.0, "solarenergy": 13.4, "uvindex": 6.0, "severerisk": 10.0, "sunrise": "06:58:14", "sunriseEpoch": 1646225894, "sunset": "18:26:24", "sunsetEpoch": 1646267184, "moonphase": 1.0, "conditions": "Clear", "description": "Clear conditions throughout the day.", "icon": "clear-day", "stations": ["F2084", "72354013919", "72353013967", "KTIK", "KPWA", "KOKC", "72354403954"], "source": "obs"}], "stations": {"F2084": {"distance": 15482.0, "latitude": 35.491, "longitude": -97.329, "useCount": 0, "id": "F2084", "name": "FW2084 Nicoma Park OK US", "quality": 0, "contribution": 0.0}, "72354013919": {"distance": 10144.0, "latitude": 35.417, "longitude": -97.383, "useCount": 0, "id": "72354013919", "name": "OKLAHOMA CITY TINKER AFB, OK US", "quality": 99, "contribution": 0.0}, "72353013967": {"distance": 11760.0, "latitude": 35.389, "longitude": -97.601, "useCount": 0, "id": "72353013967", "name": "OKLAHOMA CITY WILL ROGERS WORLD AIRPORT, OK US", "quality": 100, "contribution": 0.0}, "KTIK": {"distance": 10329.0, "latitude": 35.42, "longitude": -97.38, "useCount": 0, "id": "KTIK", "name": "KTIK", "quality": 100, "contribution": 0.0}, "KPWA": {"distance": 17378.0, "latitude": 35.53, "longitude": -97.65, "useCount": 0, "id": "KPWA", "name": "KPWA", "quality": 100, "contribution": 0.0}, "KOKC": {"distance": 11116.0, "latitude": 35.4, "longitude": -97.6, "useCount": 0, "id": "KOKC", "name": "KOKC", "quality": 100, "contribution": 0.0}, "72354403954": {"distance": 17409.0, "latitude": 35.534, "longitude": -97.647, "useCount": 0, "id": "72354403954", "name": "OKLAHOMA CITY WILEY POST AIRPORT, OK US", "quality": 100, "contribution": 0.0}}}