{"queryCost": 1, "latitude": 39.051, "longitude": -77.387, "resolvedAddress": "39.05100,-77.38700", "address": "39.05100,-77.38700", "timezone": "America/New_York", "tzoffset": -4.0, "days": [{"datetime": "2022-03-18", "datetimeEpoch": 1647576000, "tempmax": 74.5, "tempmin": 41.3, "temp": 59.3, "feelslikemax": 74.5, "feelslikemin": 41.3, "feelslike": 59.3, "dew": 48.6, "humidity": 72.6, "precip": 0.0, "precipprob": 0.0, "precipcover": 0.0, "preciptype": ["rain"], "snow": 0.0, "snowdepth": 0.0, "windgust": 28.2, "windspeed": 13.6, "winddir": 121.8, "pressure": 1015.3, "cloudcover": 52.5, "visibility": 6.9, "solarradiation": 183.4, "solarenergy": 16.8, "uvindex": 8.0, "severerisk": 10.0, "sunrise": "07:16:03", "sunriseEpoch": 1647602163, "sunset": "19:19:41", "sunsetEpoch": 1647645581, "moonphase": 0.5, "conditions": "Partially cloudy", "description": "Partly cloudy throughout the day.", "icon": "partly-cloudy-day", "stations": ["72405503714", "KIAD", "72403093738", "KJYO", "KGAI", "72033493764", "C6668"], "source": "obs"}], "stations": {"72405503714": {"distance": 15036.0, "latitude": 39.078, "longitude": -77.557, "useCount": 0, "id": "72405503714", "name": "LEESBURG EXECUTIVE AIRPORT, VA US", "quality": 98, "contribution": 0.0}, "KIAD": {"distance": 12495.0, "latitude": 38.95, "longitude": -77.45, "useCount": 0, "id": "KIAD", "name": "KIAD", "quality": 100, "contribution": 0.0}, "72403093738": {"distance": 13937.0, "latitude": 38.935, "longitude": -77.447, "useCount": 0, "id": "72403093738", "name": "WASHINGTON DULLES INTERNATIONAL AIRPORT, VA US", "quality": 100, "contribution": 0.0}, "KJYO": {"distance": 15297.0, "latitude": 39.08, "longitude": -77.56, "useCount": 0, "id": "KJYO", "name": "KJYO", "quality": 98, "contribution": 0.0}, "KGAI": {"distance": 22952.0, "latitude": 39.17, "longitude": -77.17, "useCount": 0, "id": "KGAI", "name": "GAITHERSBURG, MD", "quality": 100, "contribution": 0.0}, "72033493764": {"distance": 22978.0, "latitude": 39.167, "longitude": -77.167, "useCount": 0, "id": "72033493764", "name": "GAITHERSBURG MONTGOMERY CO AIR PARK, MD US", "quality": 100, "contribution": 0.0}, "C6668": {"distance": 8151.0, "latitude": 39.089, "longitude": -77.306, "useCount": 0, "id": "C6668", "name": "CW6668 Darnestown1-SW MD US", "quality": 0, "contribution": 0.0}}}