{"queryCost": 1, "latitude": 26.582, "longitude": -81.714, "resolvedAddress": "26.58200,-81.71400", "address": "26.58200,-81.71400", "timezone": "America/New_York", "tzoffset": -4.0, "days": [{"datetime": "2022-03-17", "datetimeEpoch": 1647489600, "tempmax": 86.1, "tempmin": 70.8, "temp": 77.7, "feelslikemax": 87.1, "feelslikemin": 70.8, "feelslike": 78.3, "dew": 67.2, "humidity": 72.6, "precip": 0.0, "precipprob": 0.0, "precipcover": 0.0, "preciptype": null, "snow": 0.0, "snowdepth": 0.0, "windgust": 23.0, "windspeed": 10.0, "winddir": 226.8, "pressure": 1016.2, "cloudcover": 33.4, "visibility": 9.4, "solarradiation": 243.6, "solarenergy": 20.9, "uvindex": 9.0, "severerisk": 75.0, "sunrise": "07:33:55", "sunriseEpoch": 1647516835, "sunset": "19:36:46", "sunsetEpoch": 1647560206, "moonphase": 0.5, "conditions": "Partially cloudy", "description": "Partly cloudy throughout the day with strong storms possible.", "icon": "partly-cloudy-day", "stations": ["KPGD", "KFMY", "72210612835", "72210812894", "KRSW", "72203412812", "0433W"], "source": "obs"}], "stations": {"KPGD": {"distance": 47159.0, "latitude": 26.92, "longitude": -82.0, "useCount": 0, "id": "KPGD", "name": "KPGD", "quality": 100, "contribution": 0.0}, "KFMY": {"distance": 15532.0, "latitude": 26.58, "longitude": -81.87, "useCount": 0, "id": "KFMY", "name": "KFMY", "quality": 100, "contribution": 0.0}, "72210612835": {"distance": 14678.0, "latitude": 26.585, "longitude": -81.861, "useCount": 0, "id": "72210612835", "name": "FORT MYERS PAGE FIELD AIRPORT, FL US", "quality": 100, "contribution": 0.0}, "72210812894": {"distance": 6540.0, "latitude": 26.536, "longitude": -81.755, "useCount": 0, "id": "72210812894", "name": "FORT MYERS SW FLORIDA REGIONAL AIRPORT, FL US", "quality": 100, "contribution": 0.0}, "KRSW": {"distance": 6809.0, "latitude": 26.53, "longitude": -81.75, "useCount": 0, "id": "KRSW", "name": "KRSW", "quality": 100, "contribution": 0.0}, "72203412812": {"distance": 46398.0, "latitude": 26.917, "longitude": -81.991, "useCount": 0, "id": "72203412812", "name": "PUNTA GORDA CHARLOTTE CO AIRPORT, FL US", "quality": 100, "contribution": 0.0}, "0433W": {"distance": 4600.0, "latitude": 26.622, "longitude": -81.726, "useCount": 0, "id": "0433W", "name": "Varsity Lakes Middle School FL US WEATHERSTEM", "quality": 0, "contribution": 0.0}}}