{"queryCost": 1, "latitude": 32.792, "longitude": -117.1, "resolvedAddress": "32.79200,-117.10000", "address": "32.79200,-117.10000", "timezone": "America/Los_Angeles", "tzoffset": -7.0, "days": [{"datetime": "2015-08-27", "datetimeEpoch": 1440658800, "tempmax": 92.6, "tempmin": 72.4, "temp": 80.5, "feelslikemax": 91.5, "feelslikemin": 72.4, "feelslike": 80.5, "dew": 63.8, "humidity": 60.2, "precip": 0.0, "precipprob": 0.0, "precipcover": 0.0, "preciptype": null, "snow": 0.0, "snowdepth": 0.0, "windgust": null, "windspeed": 9.9, "winddir": 225.9, "pressure": 1013.7, "cloudcover": 10.6, "visibility": 9.3, "solarradiation": 303.7, "solarenergy": 26.2, "uvindex": 9.0, "sunrise": "06:19:37", "sunriseEpoch": 1440681577, "sunset": "19:19:41", "sunsetEpoch": 1440728381, "moonphase": 0.46, "conditions": "Clear", "description": "Clear conditions throughout the day.", "icon": "clear-day", "stations": ["KNKX", "KSAN", "72290023188", "KMYF", "72290303131", "72293193107"], "source": "obs"}], "stations": {"KNKX": {"distance": 6722.0, "latitude": 32.85, "longitude": -117.12, "useCount": 0, "id": "KNKX", "name": "KNKX", "quality": 98, "contribution": 0.0}, "KSAN": {"distance": 9517.0, "latitude": 32.73, "longitude": -117.17, "useCount": 0, "id": "KSAN", "name": "SAN DIEGO/LINDBE, CA", "quality": 100, "contribution": 0.0}, "72290023188": {"distance": 10131.0, "latitude": 32.734, "longitude": -117.183, "useCount": 0, "id": "72290023188", "name": "SAN DIEGO INTERNATIONAL AIRPORT, CA US", "quality": 100, "contribution": 0.0}, "KMYF": {"distance": 4195.0, "latitude": 32.82, "longitude": -117.13, "useCount": 0, "id": "KMYF", "name": "KMYF", "quality": 100, "contribution": 0.0}, "72290303131": {"distance": 4509.0, "latitude": 32.816, "longitude": -117.139, "useCount": 0, "id": "72290303131", "name": "SAN DIEGO MONTGOMERY FIELD, CA US", "quality": 100, "contribution": 0.0}, "72293193107": {"distance": 8870.0, "latitude": 32.867, "longitude": -117.133, "useCount": 0, "id": "72293193107", "name": "SAN DIEGO MIRAMAR NAS, CA US", "quality": 99, "contribution": 0.0}}}