{"queryCost": 1, "latitude": 29.546, "longitude": -95.031, "resolvedAddress": "29.54600,-95.03100", "address": "29.54600,-95.03100", "timezone": "America/Chicago", "tzoffset": -6.0, "days": [{"datetime": "2022-03-09", "datetimeEpoch": 1646805600, "tempmax": 60.0, "tempmin": 44.8, "temp": 51.2, "feelslikemax": 60.0, "feelslikemin": 37.6, "feelslike": 48.6, "dew": 40.6, "humidity": 68.5, "precip": 0.0, "precipprob": 0.0, "precipcover": 0.0, "preciptype": null, "snow": 0.0, "snowdepth": 0.0, "windgust": 35.7, "windspeed": 16.4, "winddir": 81.4, "pressure": 1016.5, "cloudcover": 65.4, "visibility": 9.9, "solarradiation": 149.5, "solarenergy": 13.0, "uvindex": 8.0, "severerisk": 10.0, "sunrise": "06:36:43", "sunriseEpoch": 1646829403, "sunset": "18:24:54", "sunsetEpoch": 1646871894, "moonphase": 0.21, "conditions": "Partially cloudy", "description": "Partly cloudy throughout the day.", "icon": "partly-cloudy-day", "stations": ["KHOU", "KGLS", "72242012923", "72242712975", "KLVJ", "72244012918", "D1183"], "source": "obs"}], "stations": {"KHOU": {"distance": 25854.0, "latitude": 29.63, "longitude": -95.28, "useCount": 0, "id": "KHOU", "name": "KHOU", "quality": 100, "contribution": 0.0}, "KGLS": {"distance": 34464.0, "latitude": 29.27, "longitude": -94.87, "useCount": 0, "id": "KGLS", "name": "KGLS", "quality": 100, "contribution": 0.0}, "72242012923": {"distance": 34628.0, "latitude": 29.273, "longitude": -94.859, "useCount": 0, "id": "72242012923", "name": "GALVESTON SCHOLES FIELD, TX US", "quality": 100, "contribution": 0.0}, "72242712975": {"distance": 20629.0, "latitude": 29.519, "longitude": -95.242, "useCount": 0, "id": "72242712975", "name": "HOUSTON CLOVER FIELD, TX US", "quality": 100, "contribution": 0.0}, "KLVJ": {"distance": 20449.0, "latitude": 29.52, "longitude": -95.24, "useCount": 0, "id": "KLVJ", "name": "KLVJ", "quality": 100, "contribution": 0.0}, "72244012918": {"distance": 26362.0, "latitude": 29.638, "longitude": -95.282, "useCount": 0, "id": "72244012918", "name": "HOUSTON WILLIAM P HOBBY AIRPORT, TX US", "quality": 100, "contribution": 0.0}, "D1183": {"distance": 3268.0, "latitude": 29.55, "longitude": -95.064, "useCount": 0, "id": "D1183", "name": "DW1183 League City TX US", "quality": 0, "contribution": 0.0}}}