{"queryCost": 1, "latitude": 43.957, "longitude": -70.0, "resolvedAddress": "43.95700,-70.00000", "address": "43.95700,-70.00000", "timezone": "America/New_York", "tzoffset": -5.0, "days": [{"datetime": "2022-02-28", "datetimeEpoch": 1646024400, "tempmax": 21.8, "tempmin": 7.2, "temp": 14.5, "feelslikemax": 11.3, "feelslikemin": -5.4, "feelslike": 4.5, "dew": -4.2, "humidity": 43.7, "precip": 0.0, "precipprob": 0.0, "precipcover": 0.0, "preciptype": null, "snow": 0.0, "snowdepth": 3.6, "windgust": 30.9, "windspeed": 12.8, "winddir": 293.0, "pressure": 1020.9, "cloudcover": 5.5, "visibility": 9.9, "solarradiation": 178.6, "solarenergy": 15.5, "uvindex": 7.0, "severerisk": 10.0, "sunrise": "06:18:28", "sunriseEpoch": 1646047108, "sunset": "17:27:14", "sunsetEpoch": 1646087234, "moonphase": 0.97, "conditions": "Clear", "description": "Clear conditions throughout the day.", "icon": "clear-day", "stations": ["KLEW", "KIWI", "72606014764", "C0052", "72713594623", "KPWM", "72618494709"], "source": "obs"}], "stations": {"KLEW": {"distance": 24695.0, "latitude": 44.05, "longitude": -70.28, "useCount": 0, "id": "KLEW", "name": "AUBURN-LEWISTON, ME", "quality": 100, "contribution": 0.0}, "KIWI": {"distance": 22482.0, "latitude": 43.97, "longitude": -69.72, "useCount": 0, "id": "KIWI", "name": "KIWI", "quality": 100, "contribution": 0.0}, "72606014764": {"distance": 42734.0, "latitude": 43.642, "longitude": -70.304, "useCount": 0, "id": "72606014764", "name": "PORTLAND JETPORT, ME US", "quality": 100, "contribution": 0.0}, "C0052": {"distance": 12399.0, "latitude": 43.904, "longitude": -69.864, "useCount": 0, "id": "C0052", "name": "CW0052 Bath ME US", "quality": 0, "contribution": 0.0}, "72713594623": {"distance": 23113.0, "latitude": 43.964, "longitude": -69.712, "useCount": 0, "id": "72713594623", "name": "WISCASSET AIRPORT, ME US", "quality": 100, "contribution": 0.0}, "KPWM": {"distance": 42287.0, "latitude": 43.65, "longitude": -70.31, "useCount": 0, "id": "KPWM", "name": "KPWM", "quality": 100, "contribution": 0.0}, "72618494709": {"distance": 24935.0, "latitude": 44.05, "longitude": -70.283, "useCount": 0, "id": "72618494709", "name": "AUBURN LEWISTON, ME US", "quality": 100, "contribution": 0.0}}}