{"queryCost": 1, "latitude": 48.522, "longitude": -122.211, "resolvedAddress": "48.52200,-122.21100", "address": "48.52200,-122.21100", "timezone": "America/Los_Angeles", "tzoffset": -8.0, "days": [{"datetime": "2022-02-16", "datetimeEpoch": 1644998400, "tempmax": 47.6, "tempmin": 39.6, "temp": 43.8, "feelslikemax": 47.4, "feelslikemin": 39.6, "feelslike": 43.8, "dew": 40.3, "humidity": 87.6, "precip": 0.0, "precipprob": 0.0, "precipcover": 0.0, "preciptype": ["rain"], "snow": 0.0, "snowdepth": 0.0, "windgust": 5.4, "windspeed": 3.2, "winddir": 229.6, "pressure": 1027.3, "cloudcover": 86.9, "visibility": 9.9, "solarradiation": 41.3, "solarenergy": 3.6, "uvindex": 2.0, "severerisk": 10.0, "sunrise": "07:14:13", "sunriseEpoch": 1645024453, "sunset": "17:32:20", "sunsetEpoch": 1645061540, "moonphase": 0.5, "conditions": "Partially cloudy", "description": "Partly cloudy throughout the day.", "icon": "partly-cloudy-day", "stations": ["KNUW", "KBVS", "72027294282", "72074924255", "72797624217", "E2824"], "source": "obs"}], "stations": {"KNUW": {"distance": 37654.0, "latitude": 48.35, "longitude": -122.65, "useCount": 0, "id": "KNUW", "name": "KNUW", "quality": 100, "contribution": 0.0}, "KBVS": {"distance": 16468.0, "latitude": 48.47, "longitude": -122.42, "useCount": 0, "id": "KBVS", "name": "KBVS", "quality": 100, "contribution": 0.0}, "72027294282": {"distance": 16396.0, "latitude": 48.467, "longitude": -122.417, "useCount": 0, "id": "72027294282", "name": "BURLINGTON SKAGIT REGIONAL BAYVIEW AIRPORT, WA US", "quality": 100, "contribution": 0.0}, "72074924255": {"distance": 38740.0, "latitude": 48.35, "longitude": -122.667, "useCount": 0, "id": "72074924255", "name": "WHIDBEY ISLAND NAS, WA US", "quality": 100, "contribution": 0.0}, "72797624217": {"distance": 38610.0, "latitude": 48.794, "longitude": -122.537, "useCount": 0, "id": "72797624217", "name": "BELLINGHAM INTERNATIONAL AIRPORT, WA US", "quality": 100, "contribution": 0.0}, "E2824": {"distance": 10167.0, "latitude": 48.541, "longitude": -122.076, "useCount": 0, "id": "E2824", "name": "EW2824 Lyman WA US", "quality": 0, "contribution": 0.0}}}