{"queryCost": 1, "latitude": 35.734, "longitude": -101.418, "resolvedAddress": "35.73400,-101.41800", "address": "35.73400,-101.41800", "timezone": "America/Chicago", "tzoffset": -5.0, "days": [{"datetime": "2022-03-18", "datetimeEpoch": 1647579600, "tempmax": 60.1, "tempmin": 32.0, "temp": 46.6, "feelslikemax": 60.1, "feelslikemin": 23.6, "feelslike": 42.6, "dew": 23.9, "humidity": 48.4, "precip": 0.0, "precipprob": 0.0, "precipcover": 0.0, "preciptype": null, "snow": 0.0, "snowdepth": 0.0, "windgust": 37.6, "windspeed": 23.0, "winddir": 269.2, "pressure": 1018.7, "cloudcover": 21.9, "visibility": 9.9, "solarradiation": 252.5, "solarenergy": 21.9, "uvindex": 8.0, "severerisk": 10.0, "sunrise": "07:51:56", "sunriseEpoch": 1647607916, "sunset": "19:55:56", "sunsetEpoch": 1647651356, "moonphase": 0.5, "conditions": "Partially cloudy", "description": "Partly cloudy throughout the day.", "icon": "partly-cloudy-day", "stations": ["CEDT2", "72221403070", "KBGD", "72363503024", "72062600213", "KBPC", "KDUX"], "source": "obs"}], "stations": {"CEDT2": {"distance": 14404.0, "latitude": 35.69, "longitude": -101.568, "useCount": 0, "id": "CEDT2", "name": "CEDAR TX US", "quality": 0, "contribution": 0.0}, "72221403070": {"distance": 55471.0, "latitude": 35.858, "longitude": -102.013, "useCount": 0, "id": "72221403070", "name": "DUMAS MOORE CO AIRPORT, TX US", "quality": 100, "contribution": 0.0}, "KBGD": {"distance": 4120.0, "latitude": 35.7, "longitude": -101.4, "useCount": 0, "id": "KBGD", "name": "KBGD", "quality": 100, "contribution": 0.0}, "72363503024": {"distance": 4814.0, "latitude": 35.695, "longitude": -101.395, "useCount": 0, "id": "72363503024", "name": "BORGER HUTCHINSON CO AIRPORT, TX US", "quality": 100, "contribution": 0.0}, "72062600213": {"distance": 38512.0, "latitude": 35.883, "longitude": -101.033, "useCount": 0, "id": "72062600213", "name": "PAMPA MESA VISTA AIRPORT, TX US", "quality": 100, "contribution": 0.0}, "KBPC": {"distance": 38615.0, "latitude": 35.88, "longitude": -101.03, "useCount": 0, "id": "KBPC", "name": "KBPC", "quality": 99, "contribution": 0.0}, "KDUX": {"distance": 55262.0, "latitude": 35.86, "longitude": -102.01, "useCount": 0, "id": "KDUX", "name": "KDUX", "quality": 100, "contribution": 0.0}}}