{"queryCost": 1, "latitude": 40.11, "longitude": -111.65, "resolvedAddress": "40.11000,-111.65000", "address": "40.11000,-111.65000", "timezone": "America/Denver", "tzoffset": -6.0, "days": [{"datetime": "2015-08-28", "datetimeEpoch": 1440741600, "tempmax": 90.0, "tempmin": 50.5, "temp": 71.6, "feelslikemax": 85.9, "feelslikemin": 50.5, "feelslike": 70.6, "dew": 43.3, "humidity": 42.0, "precip": 0.0, "precipprob": 0.0, "precipcover": 0.0, "preciptype": null, "snow": 0.0, "snowdepth": 0.0, "windgust": null, "windspeed": 8.4, "winddir": 127.2, "pressure": 1014.5, "cloudcover": 10.0, "visibility": 11.5, "solarradiation": 298.9, "solarenergy": 25.8, "uvindex": 9.0, "sunrise": "06:50:12", "sunriseEpoch": 1440766212, "sunset": "20:04:45", "sunsetEpoch": 1440813885, "moonphase": 0.49, "conditions": "Clear", "description": "Clear conditions throughout the day.", "icon": "clear-day", "stations": ["99999904133", "K36U", "72572024127", "KPVU", "KSLC", "72572424174"], "source": "obs"}], "stations": {"99999904133": {"distance": 45453.0, "latitude": 40.482, "longitude": -111.429, "useCount": 0, "id": "99999904133", "name": "HEBER CITY MUNICIPAL AIRPORT, UT US", "quality": 0, "contribution": 0.0}, "K36U": {"distance": 45226.0, "latitude": 40.48, "longitude": -111.43, "useCount": 0, "id": "K36U", "name": "K36U", "quality": 0, "contribution": 0.0}, "72572024127": {"distance": 79130.0, "latitude": 40.778, "longitude": -111.969, "useCount": 0, "id": "72572024127", "name": "SALT LAKE CITY INTERNATIONAL AIRPORT, UT US", "quality": 100, "contribution": 0.0}, "KPVU": {"distance": 13616.0, "latitude": 40.22, "longitude": -111.72, "useCount": 0, "id": "KPVU", "name": "PROVO, UT", "quality": 100, "contribution": 0.0}, "KSLC": {"distance": 79358.0, "latitude": 40.78, "longitude": -111.97, "useCount": 0, "id": "KSLC", "name": "KSLC", "quality": 100, "contribution": 0.0}, "72572424174": {"distance": 13621.0, "latitude": 40.219, "longitude": -111.723, "useCount": 0, "id": "72572424174", "name": "PROVO AIRPORT, UT US", "quality": 100, "contribution": 0.0}}}