{"queryCost": 1, "latitude": 42.461, "longitude": -73.263, "resolvedAddress": "42.46100,-73.26300", "address": "42.46100,-73.26300", "timezone": "America/New_York", "tzoffset": -4.0, "days": [{"datetime": "2022-03-25", "datetimeEpoch": 1648180800, "tempmax": 52.3, "tempmin": 38.1, "temp": 43.7, "feelslikemax": 52.3, "feelslikemin": 32.3, "feelslike": 41.1, "dew": 36.7, "humidity": 77.9, "precip": 0.23, "precipprob": 100.0, "precipcover": 25.0, "preciptype": ["rain"], "snow": 0.0, "snowdepth": 0.0, "windgust": 22.6, "windspeed": 12.7, "winddir": 229.7, "pressure": 1000.6, "cloudcover": 94.8, "visibility": 9.2, "solarradiation": 102.3, "solarenergy": 8.7, "uvindex": 6.0, "severerisk": 10.0, "sunrise": "06:47:30", "sunriseEpoch": 1648205250, "sunset": "19:11:10", "sunsetEpoch": 1648249870, "moonphase": 0.77, "conditions": "Rain, Overcast", "description": "Cloudy skies throughout the day with rain.", "icon": "rain", "stations": ["72616654781", "E6283", "KPSF", "74410414763", "F4085", "72507554768", "KDDH", "KAQW"], "source": "obs"}], "stations": {"72616654781": {"distance": 48160.0, "latitude": 42.894, "longitude": -73.249, "useCount": 0, "id": "72616654781", "name": "BENNINGTON MORSE STATE AIRPORT, VT US", "quality": 100, "contribution": 0.0}, "E6283": {"distance": 23439.0, "latitude": 42.671, "longitude": -73.242, "useCount": 0, "id": "E6283", "name": "EW6283 Williamstown MA US", "quality": 0, "contribution": 0.0}, "KPSF": {"distance": 4102.0, "latitude": 42.43, "longitude": -73.29, "useCount": 0, "id": "KPSF", "name": "KPSF", "quality": 100, "contribution": 0.0}, "74410414763": {"distance": 4369.0, "latitude": 42.427, "longitude": -73.289, "useCount": 0, "id": "74410414763", "name": "PITTSFIELD MUNICIPAL AIRPORT, MA US", "quality": 100, "contribution": 0.0}, "F4085": {"distance": 26638.0, "latitude": 42.693, "longitude": -73.185, "useCount": 0, "id": "F4085", "name": "FW4085 Williamstown MA US", "quality": 0, "contribution": 0.0}, "72507554768": {"distance": 27394.0, "latitude": 42.697, "longitude": -73.17, "useCount": 0, "id": "72507554768", "name": "NORTH ADAMS HARRIMAN AIRPORT, MA US", "quality": 100, "contribution": 0.0}, "KDDH": {"distance": 47768.0, "latitude": 42.89, "longitude": -73.25, "useCount": 0, "id": "KDDH", "name": "KDDH", "quality": 100, "contribution": 0.0}, "KAQW": {"distance": 27676.0, "latitude": 42.7, "longitude": -73.17, "useCount": 0, "id": "KAQW", "name": "KAQW", "quality": 100, "contribution": 0.0}}}