{"queryCost": 1, "latitude": 32.979, "longitude": -104.422, "resolvedAddress": "32.97900,-104.42200", "address": "32.97900,-104.42200", "timezone": "America/Denver", "tzoffset": -6.0, "days": [{"datetime": "2022-03-27", "datetimeEpoch": 1648360800, "tempmax": 89.0, "tempmin": 45.4, "temp": 67.9, "feelslikemax": 85.3, "feelslikemin": 43.2, "feelslike": 66.5, "dew": 8.5, "humidity": 11.1, "precip": 0.0, "precipprob": 0.0, "precipcover": 0.0, "preciptype": null, "snow": 0.0, "snowdepth": 0.0, "windgust": 21.9, "windspeed": 13.2, "winddir": 193.6, "pressure": 1012.3, "cloudcover": 0.0, "visibility": 9.9, "solarradiation": 268.0, "solarenergy": 23.1, "uvindex": 9.0, "severerisk": 10.0, "sunrise": "06:51:56", "sunriseEpoch": 1648385516, "sunset": "19:14:31", "sunsetEpoch": 1648430071, "moonphase": 0.88, "conditions": "Clear", "description": "Clear conditions throughout the day.", "icon": "clear-day", "stations": ["72267603035", "72268793033", "72268023009", "KCNM", "KATS", "NMC01", "KROW"], "source": "obs"}], "stations": {"72267603035": {"distance": 14696.0, "latitude": 32.853, "longitude": -104.467, "useCount": 0, "id": "72267603035", "name": "ARTESIA MUNICIPAL AIRPORT, NM US", "quality": 100, "contribution": 0.0}, "72268793033": {"distance": 73482.0, "latitude": 32.334, "longitude": -104.258, "useCount": 0, "id": "72268793033", "name": "CAVERN CITY AIRPORT, NM US", "quality": 100, "contribution": 0.0}, "72268023009": {"distance": 37437.0, "latitude": 33.308, "longitude": -104.508, "useCount": 0, "id": "72268023009", "name": "ROSWELL INDUSTRIAL AIR PARK, NM US", "quality": 100, "contribution": 0.0}, "KCNM": {"distance": 73637.0, "latitude": 32.33, "longitude": -104.27, "useCount": 0, "id": "KCNM", "name": "KCNM", "quality": 100, "contribution": 0.0}, "KATS": {"distance": 15044.0, "latitude": 32.85, "longitude": -104.47, "useCount": 0, "id": "KATS", "name": "KATS", "quality": 99, "contribution": 0.0}, "NMC01": {"distance": 25298.0, "latitude": 32.754, "longitude": -104.384, "useCount": 0, "id": "NMC01", "name": "Artesia ASC NM US NMCC", "quality": 0, "contribution": 0.0}, "KROW": {"distance": 36054.0, "latitude": 33.29, "longitude": -104.53, "useCount": 0, "id": "KROW", "name": "KROW", "quality": 100, "contribution": 0.0}}}