{"queryCost": 1, "latitude": 39.611, "longitude": -86.103, "resolvedAddress": "39.61100,-86.10300", "address": "39.61100,-86.10300", "timezone": "America/Indiana/Indianapolis", "tzoffset": -4.0, "days": [{"datetime": "2022-03-29", "datetimeEpoch": 1648526400, "tempmax": 42.4, "tempmin": 32.6, "temp": 37.3, "feelslikemax": 34.5, "feelslikemin": 24.6, "feelslike": 29.5, "dew": 19.5, "humidity": 48.9, "precip": 0.0, "precipprob": 0.0, "precipcover": 0.0, "preciptype": ["snow"], "snow": 0.0, "snowdepth": 0.0, "windgust": 27.7, "windspeed": 20.0, "winddir": 97.2, "pressure": 1021.4, "cloudcover": 91.9, "visibility": 9.9, "solarradiation": 58.3, "solarenergy": 5.1, "uvindex": 3.0, "severerisk": 10.0, "sunrise": "07:33:15", "sunriseEpoch": 1648553595, "sunset": "20:05:38", "sunsetEpoch": 1648598738, "moonphase": 0.96, "conditions": "Overcast", "description": "Cloudy skies throughout the day.", "icon": "cloudy", "stations": ["72435653866", "F9007", "KGEZ", "KEYE", "KIND", "72438093819", "72438453842"], "source": "obs"}], "stations": {"72435653866": {"distance": 25968.0, "latitude": 39.578, "longitude": -85.803, "useCount": 0, "id": "72435653866", "name": "SHELBYVILLE MUNICIPAL AIRPORT, IN US", "quality": 100, "contribution": 0.0}, "F9007": {"distance": 2158.0, "latitude": 39.608, "longitude": -86.128, "useCount": 0, "id": "F9007", "name": "FW9007 Greenwood IN US", "quality": 0, "contribution": 0.0}, "KGEZ": {"distance": 26219.0, "latitude": 39.58, "longitude": -85.8, "useCount": 0, "id": "KGEZ", "name": "KGEZ", "quality": 100, "contribution": 0.0}, "KEYE": {"distance": 29167.0, "latitude": 39.83, "longitude": -86.29, "useCount": 0, "id": "KEYE", "name": "KEYE", "quality": 100, "contribution": 0.0}, "KIND": {"distance": 18762.0, "latitude": 39.72, "longitude": -86.27, "useCount": 0, "id": "KIND", "name": "KIND", "quality": 100, "contribution": 0.0}, "72438093819": {"distance": 19902.0, "latitude": 39.725, "longitude": -86.282, "useCount": 0, "id": "72438093819", "name": "INDIANAPOLIS INTERNATIONAL AIRPORT, IN US", "quality": 100, "contribution": 0.0}, "72438453842": {"distance": 28984.0, "latitude": 39.825, "longitude": -86.296, "useCount": 0, "id": "72438453842", "name": "INDIANAPOLIS EAGLE CREEK AIRPORT, IN US", "quality": 100, "contribution": 0.0}}}