{"queryCost": 1, "latitude": 32.216, "longitude": -110.809, "resolvedAddress": "32.21600,-110.80900", "address": "32.21600,-110.80900", "timezone": "America/Phoenix", "tzoffset": -7.0, "days": [{"datetime": "2022-03-29", "datetimeEpoch": 1648537200, "tempmax": 61.6, "tempmin": 47.2, "temp": 55.3, "feelslikemax": 61.6, "feelslikemin": 44.3, "feelslike": 55.0, "dew": 40.8, "humidity": 59.7, "precip": 0.02, "precipprob": 100.0, "precipcover": 8.33, "preciptype": ["rain"], "snow": 0.0, "snowdepth": 0.0, "windgust": 28.6, "windspeed": 16.7, "winddir": 197.1, "pressure": 1009.0, "cloudcover": 68.0, "visibility": 9.9, "solarradiation": 129.8, "solarenergy": 11.2, "uvindex": 6.0, "severerisk": 10.0, "sunrise": "06:15:07", "sunriseEpoch": 1648559707, "sunset": "18:41:12", "sunsetEpoch": 1648604472, "moonphase": 0.96, "conditions": "Rain, Partially cloudy", "description": "Partly cloudy throughout the day with afternoon rain.", "icon": "rain", "stations": ["KAVQ", "D9593", "72274023160", "KTUS", "KDMA", "72274523109", "99999953131"], "source": "obs"}], "stations": {"KAVQ": {"distance": 42930.0, "latitude": 32.4, "longitude": -111.21, "useCount": 0, "id": "KAVQ", "name": "KAVQ", "quality": 99, "contribution": 0.0}, "D9593": {"distance": 3233.0, "latitude": 32.208, "longitude": -110.776, "useCount": 0, "id": "D9593", "name": "DW9593 Tucson AZ US", "quality": 0, "contribution": 0.0}, "72274023160": {"distance": 16678.0, "latitude": 32.131, "longitude": -110.955, "useCount": 0, "id": "72274023160", "name": "TUCSON INTERNATIONAL AIRPORT, AZ US", "quality": 100, "contribution": 0.0}, "KTUS": {"distance": 17149.0, "latitude": 32.13, "longitude": -110.96, "useCount": 0, "id": "KTUS", "name": "KTUS", "quality": 100, "contribution": 0.0}, "KDMA": {"distance": 8424.0, "latitude": 32.17, "longitude": -110.88, "useCount": 0, "id": "KDMA", "name": "KDMA", "quality": 100, "contribution": 0.0}, "72274523109": {"distance": 8872.0, "latitude": 32.167, "longitude": -110.883, "useCount": 0, "id": "72274523109", "name": "DAVIS MONTHAN AFB, AZ US", "quality": 97, "contribution": 0.0}, "99999953131": {"distance": 34096.0, "latitude": 32.24, "longitude": -111.17, "useCount": 0, "id": "99999953131", "name": "TUCSON 11 W, AZ US", "quality": 100, "contribution": 0.0}}}