{"queryCost": 1, "latitude": 34.413, "longitude": -117.323, "resolvedAddress": "34.41300,-117.32300", "address": "34.41300,-117.32300", "timezone": "America/Los_Angeles", "tzoffset": -7.0, "days": [{"datetime": "2022-03-29", "datetimeEpoch": 1648537200, "tempmax": 55.2, "tempmin": 41.4, "temp": 46.9, "feelslikemax": 55.2, "feelslikemin": 37.2, "feelslike": 45.6, "dew": 39.4, "humidity": 76.7, "precip": 0.15, "precipprob": 100.0, "precipcover": 16.67, "preciptype": ["rain"], "snow": 0.0, "snowdepth": 0.0, "windgust": 21.5, "windspeed": 10.7, "winddir": 257.3, "pressure": 1013.0, "cloudcover": 70.2, "visibility": 9.0, "solarradiation": 180.5, "solarenergy": 15.8, "uvindex": 8.0, "severerisk": 10.0, "sunrise": "06:40:17", "sunriseEpoch": 1648561217, "sunset": "19:08:12", "sunsetEpoch": 1648606092, "moonphase": 0.96, "conditions": "Rain, Partially cloudy", "description": "Partly cloudy throughout the day with early morning rain.", "icon": "rain", "stations": ["KL35", "F9126", "KONT", "74704003102", "A0685400115", "SE340", "72286903171"], "source": "obs"}], "stations": {"KL35": {"distance": 45841.0, "latitude": 34.26, "longitude": -116.86, "useCount": 0, "id": "KL35", "name": "KL35", "quality": 100, "contribution": 0.0}, "F9126": {"distance": 9360.0, "latitude": 34.453, "longitude": -117.233, "useCount": 0, "id": "F9126", "name": "FW9126 Apple Valley CA US", "quality": 0, "contribution": 0.0}, "KONT": {"distance": 48725.0, "latitude": 34.04, "longitude": -117.6, "useCount": 0, "id": "KONT", "name": "KONT", "quality": 100, "contribution": 0.0}, "74704003102": {"distance": 47205.0, "latitude": 34.056, "longitude": -117.6, "useCount": 0, "id": "74704003102", "name": "ONTARIO INTERNATIONAL AIRPORT, CA US", "quality": 100, "contribution": 0.0}, "A0685400115": {"distance": 46191.0, "latitude": 34.264, "longitude": -116.854, "useCount": 0, "id": "A0685400115", "name": "BIG BEAR CITY AIRPORT, CA US", "quality": 100, "contribution": 0.0}, "SE340": {"distance": 9903.0, "latitude": 34.349, "longitude": -117.248, "useCount": 0, "id": "SE340", "name": "SCE Arrowhead Lake Rd CA US SC-EDISON", "quality": 0, "contribution": 0.0}, "72286903171": {"distance": 52429.0, "latitude": 33.952, "longitude": -117.439, "useCount": 0, "id": "72286903171", "name": "RIVERSIDE MUNICIPAL AIRPORT, CA US", "quality": 100, "contribution": 0.0}}}