{"queryCost": 1, "latitude": 38.716, "longitude": -90.241, "resolvedAddress": "38.71600,-90.24100", "address": "38.71600,-90.24100", "timezone": "America/Chicago", "tzoffset": -5.0, "days": [{"datetime": "2022-04-04", "datetimeEpoch": 1649048400, "tempmax": 65.7, "tempmin": 51.3, "temp": 57.4, "feelslikemax": 65.7, "feelslikemin": 51.3, "feelslike": 57.4, "dew": 40.6, "humidity": 54.7, "precip": 0.03, "precipprob": 100.0, "precipcover": 8.33, "preciptype": ["rain"], "snow": 0.0, "snowdepth": 0.0, "windgust": 27.1, "windspeed": 13.5, "winddir": 218.3, "pressure": 1011.8, "cloudcover": 70.5, "visibility": 9.9, "solarradiation": 212.1, "solarenergy": 18.3, "uvindex": 8.0, "severerisk": 10.0, "sunrise": "06:40:56", "sunriseEpoch": 1649072456, "sunset": "19:27:30", "sunsetEpoch": 1649118450, "moonphase": 0.05, "conditions": "Rain, Partially cloudy", "description": "Partly cloudy throughout the day with early morning rain.", "icon": "rain", "stations": ["E4355", "KSTL", "KSET", "72434013994", "KCPS", "72434753904", "72531403960"], "source": "obs"}], "stations": {"E4355": {"distance": 9245.0, "latitude": 38.726, "longitude": -90.347, "useCount": 0, "id": "E4355", "name": "EW4355 Berkeley MO US", "quality": 0, "contribution": 0.0}, "KSTL": {"distance": 11824.0, "latitude": 38.75, "longitude": -90.37, "useCount": 0, "id": "KSTL", "name": "KSTL", "quality": 100, "contribution": 0.0}, "KSET": {"distance": 28917.0, "latitude": 38.93, "longitude": -90.43, "useCount": 0, "id": "KSET", "name": "KSET", "quality": 99, "contribution": 0.0}, "72434013994": {"distance": 12210.0, "latitude": 38.753, "longitude": -90.374, "useCount": 0, "id": "72434013994", "name": "ST LOUIS LAMBERT INTERNATIONAL AIRPORT, MO US", "quality": 100, "contribution": 0.0}, "KCPS": {"distance": 18076.0, "latitude": 38.57, "longitude": -90.15, "useCount": 0, "id": "KCPS", "name": "KCPS", "quality": 100, "contribution": 0.0}, "72434753904": {"distance": 28695.0, "latitude": 38.929, "longitude": -90.428, "useCount": 0, "id": "72434753904", "name": "ST CHARLES CO AIRPORT, MO US", "quality": 98, "contribution": 0.0}, "72531403960": {"distance": 17669.0, "latitude": 38.571, "longitude": -90.157, "useCount": 0, "id": "72531403960", "name": "CAHOKIA ST LOUIS DOWNTOWN AIRPORT, IL US", "quality": 100, "contribution": 0.0}}}