{"queryCost": 1, "latitude": 39.07, "longitude": -84.502, "resolvedAddress": "39.07000,-84.50200", "address": "39.07000,-84.50200", "timezone": "America/New_York", "tzoffset": -4.0, "days": [{"datetime": "2022-04-11", "datetimeEpoch": 1649649600, "tempmax": 61.8, "tempmin": 47.7, "temp": 57.1, "feelslikemax": 61.8, "feelslikemin": 46.5, "feelslike": 56.9, "dew": 48.1, "humidity": 73.4, "precip": 0.1, "precipprob": 100.0, "precipcover": 16.67, "preciptype": ["rain"], "snow": 0.0, "snowdepth": 0.0, "windgust": 30.2, "windspeed": 17.0, "winddir": 212.6, "pressure": 1012.7, "cloudcover": 73.2, "visibility": 9.1, "solarradiation": 178.9, "solarenergy": 16.1, "uvindex": 3.0, "severerisk": 10.0, "sunrise": "07:07:06", "sunriseEpoch": 1649675226, "sunset": "20:11:36", "sunsetEpoch": 1649722296, "moonphase": 0.35, "conditions": "Rain, Partially cloudy", "description": "Partly cloudy throughout the day with rain.", "icon": "rain", "stations": ["KI69", "KLUK", "E5157", "72421093814", "KCVG", "E4634", "72429793812", "KI67"], "source": "obs"}], "stations": {"KI69": {"distance": 24396.0, "latitude": 39.08, "longitude": -84.22, "useCount": 0, "id": "KI69", "name": "KI69", "quality": 100, "contribution": 0.0}, "KLUK": {"distance": 7833.0, "latitude": 39.1, "longitude": -84.42, "useCount": 0, "id": "KLUK", "name": "KLUK", "quality": 100, "contribution": 0.0}, "E5157": {"distance": 2816.0, "latitude": 39.095, "longitude": -84.497, "useCount": 0, "id": "E5157", "name": "EW5157 Newport KY US", "quality": 0, "contribution": 0.0}, "72421093814": {"distance": 15003.0, "latitude": 39.044, "longitude": -84.672, "useCount": 0, "id": "72421093814", "name": "CINCINNATI NORTHERN KENTUCKY INTERNATIONAL AIRPORT, KY US", "quality": 100, "contribution": 0.0}, "KCVG": {"distance": 14902.0, "latitude": 39.04, "longitude": -84.67, "useCount": 0, "id": "KCVG", "name": "KCVG", "quality": 100, "contribution": 0.0}, "E4634": {"distance": 14659.0, "latitude": 39.156, "longitude": -84.63, "useCount": 0, "id": "E4634", "name": "EW4634 Bridgetown OH US", "quality": 0, "contribution": 0.0}, "72429793812": {"distance": 8081.0, "latitude": 39.103, "longitude": -84.419, "useCount": 0, "id": "72429793812", "name": "CINCINNATI MUNICIPAL AIRPORT LUNKEN FIELD, OH US", "quality": 100, "contribution": 0.0}, "KI67": {"distance": 31262.0, "latitude": 39.25, "longitude": -84.78, "useCount": 0, "id": "KI67", "name": "KI67", "quality": 99, "contribution": 0.0}}}