{"queryCost": 1, "latitude": 32.147, "longitude": -110.96, "resolvedAddress": "32.14700,-110.96000", "address": "32.14700,-110.96000", "timezone": "America/Phoenix", "tzoffset": -7.0, "days": [{"datetime": "2015-08-30", "datetimeEpoch": 1440918000, "tempmax": 97.1, "tempmin": 79.0, "temp": 86.9, "feelslikemax": 95.4, "feelslikemin": 79.0, "feelslike": 86.3, "dew": 58.0, "humidity": 38.5, "precip": 0.0, "precipprob": 0.0, "precipcover": 0.0, "preciptype": null, "snow": 0.0, "snowdepth": 0.0, "windgust": 25.3, "windspeed": 18.2, "winddir": 174.2, "pressure": 1009.8, "cloudcover": 0.9, "visibility": 9.9, "solarradiation": 224.6, "solarenergy": 19.3, "uvindex": 7.0, "sunrise": "05:57:37", "sunriseEpoch": 1440939457, "sunset": "18:50:48", "sunsetEpoch": 1440985848, "moonphase": 0.51, "conditions": "Clear", "description": "Clear conditions throughout the day.", "icon": "clear-day", "stations": ["KAVQ", "72274023160", "KTUS", "72274523109", "KDMA", "99999953131"], "source": "obs"}], "stations": {"KAVQ": {"distance": 36700.0, "latitude": 32.4, "longitude": -111.21, "useCount": 0, "id": "KAVQ", "name": "KAVQ", "quality": 99, "contribution": 0.0}, "72274023160": {"distance": 1810.0, "latitude": 32.131, "longitude": -110.955, "useCount": 0, "id": "72274023160", "name": "TUCSON INTERNATIONAL AIRPORT, AZ US", "quality": 100, "contribution": 0.0}, "KTUS": {"distance": 1892.0, "latitude": 32.13, "longitude": -110.96, "useCount": 0, "id": "KTUS", "name": "KTUS", "quality": 100, "contribution": 0.0}, "72274523109": {"distance": 7581.0, "latitude": 32.167, "longitude": -110.883, "useCount": 0, "id": "72274523109", "name": "DAVIS MONTHAN AFB, AZ US", "quality": 97, "contribution": 0.0}, "KDMA": {"distance": 7962.0, "latitude": 32.17, "longitude": -110.88, "useCount": 0, "id": "KDMA", "name": "KDMA", "quality": 100, "contribution": 0.0}, "99999953131": {"distance": 22302.0, "latitude": 32.24, "longitude": -111.17, "useCount": 0, "id": "99999953131", "name": "TUCSON 11 W, AZ US", "quality": 100, "contribution": 0.0}}}