{"queryCost": 1, "latitude": 42.116, "longitude": -86.442, "resolvedAddress": "42.11600,-86.44200", "address": "42.11600,-86.44200", "timezone": "America/Detroit", "tzoffset": -4.0, "days": [{"datetime": "2022-04-08", "datetimeEpoch": 1649390400, "tempmax": 39.9, "tempmin": 34.1, "temp": 38.2, "feelslikemax": 36.5, "feelslikemin": 28.5, "feelslike": 32.1, "dew": 34.3, "humidity": 86.0, "precip": 0.03, "precipprob": 100.0, "precipcover": 12.5, "preciptype": ["rain", "snow"], "snow": 0.3, "snowdepth": 0.1, "windgust": 25.7, "windspeed": 13.9, "winddir": 274.4, "pressure": 1003.4, "cloudcover": 99.6, "visibility": 9.0, "solarradiation": 69.2, "solarenergy": 6.1, "uvindex": 3.0, "severerisk": 10.0, "sunrise": "07:16:26", "sunriseEpoch": 1649416586, "sunset": "20:19:27", "sunsetEpoch": 1649463567, "moonphase": 0.21, "conditions": "Snow, Rain, Overcast", "description": "Cloudy skies throughout the day with a chance of rain or snow throughout the day.", "icon": "snow", "stations": ["MISWM", "72635594871", "KSBN", "72102900347", "99801299999", "KBEH", "72535014848"], "source": "obs"}], "stations": {"MISWM": {"distance": 7868.0, "latitude": 42.084, "longitude": -86.357, "useCount": 0, "id": "MISWM", "name": "Swmrec MI US MAWN", "quality": 0, "contribution": 0.0}, "72635594871": {"distance": 1550.0, "latitude": 42.126, "longitude": -86.428, "useCount": 0, "id": "72635594871", "name": "BENTON HARBOR, MI US", "quality": 100, "contribution": 0.0}, "KSBN": {"distance": 46312.0, "latitude": 41.71, "longitude": -86.32, "useCount": 0, "id": "KSBN", "name": "KSBN", "quality": 100, "contribution": 0.0}, "72102900347": {"distance": 65251.0, "latitude": 41.572, "longitude": -86.735, "useCount": 0, "id": "72102900347", "name": "LA PORTE MUNICIPAL AIRPORT, IN US", "quality": 99, "contribution": 0.0}, "99801299999": {"distance": 3848.0, "latitude": 42.1, "longitude": -86.483, "useCount": 0, "id": "99801299999", "name": "ST JOSEPH, MI US", "quality": 40, "contribution": 0.0}, "KBEH": {"distance": 1847.0, "latitude": 42.13, "longitude": -86.43, "useCount": 0, "id": "KBEH", "name": "KBEH", "quality": 100, "contribution": 0.0}, "72535014848": {"distance": 46684.0, "latitude": 41.707, "longitude": -86.316, "useCount": 0, "id": "72535014848", "name": "SOUTH BEND AIRPORT, IN US", "quality": 100, "contribution": 0.0}}}