{"queryCost": 1, "latitude": 34.15, "longitude": -117.475, "resolvedAddress": "34.15000,-117.47500", "address": "34.15000,-117.47500", "timezone": "America/Los_Angeles", "tzoffset": -7.0, "days": [{"datetime": "2022-04-07", "datetimeEpoch": 1649314800, "tempmax": 96.4, "tempmin": 62.4, "temp": 80.7, "feelslikemax": 91.3, "feelslikemin": 62.4, "feelslike": 78.4, "dew": 20.6, "humidity": 17.3, "precip": 0.0, "precipprob": 0.0, "precipcover": 0.0, "preciptype": null, "snow": 0.0, "snowdepth": 0.0, "windgust": 38.5, "windspeed": 21.0, "winddir": 57.8, "pressure": 1015.9, "cloudcover": 0.1, "visibility": 9.7, "solarradiation": 303.3, "solarenergy": 26.2, "uvindex": 9.0, "severerisk": 10.0, "sunrise": "06:28:54", "sunriseEpoch": 1649338134, "sunset": "19:15:33", "sunsetEpoch": 1649384133, "moonphase": 0.17, "conditions": "Clear", "description": "Clear conditions throughout the day.", "icon": "clear-day", "stations": ["SE157", "KRAL", "72289903179", "KONT", "KCNO", "74704003102", "72286903171"], "source": "obs"}], "stations": {"SE157": {"distance": 3230.0, "latitude": 34.173, "longitude": -117.453, "useCount": 0, "id": "SE157", "name": "SCE Lytle Creek Rd CA US SC-EDISON", "quality": 0, "contribution": 0.0}, "KRAL": {"distance": 22383.0, "latitude": 33.95, "longitude": -117.45, "useCount": 0, "id": "KRAL", "name": "KRAL", "quality": 100, "contribution": 0.0}, "72289903179": {"distance": 24467.0, "latitude": 33.975, "longitude": -117.636, "useCount": 0, "id": "72289903179", "name": "CHINO AIRPORT, CA US", "quality": 100, "contribution": 0.0}, "KONT": {"distance": 16814.0, "latitude": 34.04, "longitude": -117.6, "useCount": 0, "id": "KONT", "name": "KONT", "quality": 100, "contribution": 0.0}, "KCNO": {"distance": 24614.0, "latitude": 33.97, "longitude": -117.63, "useCount": 0, "id": "KCNO", "name": "KCNO", "quality": 100, "contribution": 0.0}, "74704003102": {"distance": 15557.0, "latitude": 34.056, "longitude": -117.6, "useCount": 0, "id": "74704003102", "name": "ONTARIO INTERNATIONAL AIRPORT, CA US", "quality": 100, "contribution": 0.0}, "72286903171": {"distance": 22301.0, "latitude": 33.952, "longitude": -117.439, "useCount": 0, "id": "72286903171", "name": "RIVERSIDE MUNICIPAL AIRPORT, CA US", "quality": 100, "contribution": 0.0}}}