{"queryCost": 1, "latitude": 35.182, "longitude": -97.353, "resolvedAddress": "35.18200,-97.35300", "address": "35.18200,-97.35300", "timezone": "America/Chicago", "tzoffset": -5.0, "days": [{"datetime": "2022-04-07", "datetimeEpoch": 1649307600, "tempmax": 61.9, "tempmin": 43.0, "temp": 52.6, "feelslikemax": 61.9, "feelslikemin": 38.3, "feelslike": 50.8, "dew": 23.6, "humidity": 34.6, "precip": 0.0, "precipprob": 0.0, "precipcover": 0.0, "preciptype": null, "snow": 0.0, "snowdepth": 0.0, "windgust": 41.8, "windspeed": 30.4, "winddir": 316.0, "pressure": 1020.0, "cloudcover": 32.9, "visibility": 9.9, "solarradiation": 204.2, "solarenergy": 17.7, "uvindex": 9.0, "severerisk": 10.0, "sunrise": "07:07:42", "sunriseEpoch": 1649333262, "sunset": "19:55:51", "sunsetEpoch": 1649379351, "moonphase": 0.17, "conditions": "Partially cloudy", "description": "Becoming cloudy in the afternoon.", "icon": "wind", "stations": ["72357003948", "72218793911", "72354013919", "72353013967", "KSNL", "E5982", "KTIK", "KPWA", "KOUN", "KOKC", "72354403954", "72062800215"], "source": "obs"}], "stations": {"72218793911": {"distance": 42009.0, "latitude": 35.357, "longitude": -96.943, "useCount": 0, "id": "72218793911", "name": "SHAWNEE MUNICIPAL AIRPORT, OK US", "quality": 100, "contribution": 0.0}, "KSNL": {"distance": 42444.0, "latitude": 35.36, "longitude": -96.94, "useCount": 0, "id": "KSNL", "name": "KSNL", "quality": 100, "contribution": 0.0}, "E5982": {"distance": 9877.0, "latitude": 35.189, "longitude": -97.461, "useCount": 0, "id": "E5982", "name": "EW5982 Norman OK US", "quality": 0, "contribution": 0.0}, "KTIK": {"distance": 26607.0, "latitude": 35.42, "longitude": -97.38, "useCount": 0, "id": "KTIK", "name": "KTIK", "quality": 100, "contribution": 0.0}, "KPWA": {"distance": 47200.0, "latitude": 35.53, "longitude": -97.65, "useCount": 0, "id": "KPWA", "name": "KPWA", "quality": 100, "contribution": 0.0}, "72354403954": {"distance": 47425.0, "latitude": 35.534, "longitude": -97.647, "useCount": 0, "id": "72354403954", "name": "OKLAHOMA CITY WILEY POST AIRPORT, OK US", "quality": 100, "contribution": 0.0}, "72357003948": {"distance": 12815.0, "latitude": 35.25, "longitude": -97.467, "useCount": 0, "id": "72357003948", "name": "NORMAN UNIVERSITY OF OKLAHOMA WESTHEIMER AIRPORT, OK US", "quality": 84, "contribution": 0.0}, "72354013919": {"distance": 26271.0, "latitude": 35.417, "longitude": -97.383, "useCount": 0, "id": "72354013919", "name": "OKLAHOMA CITY TINKER AFB, OK US", "quality": 99, "contribution": 0.0}, "72353013967": {"distance": 32197.0, "latitude": 35.389, "longitude": -97.601, "useCount": 0, "id": "72353013967", "name": "OKLAHOMA CITY WILL ROGERS WORLD AIRPORT, OK US", "quality": 100, "contribution": 0.0}, "KOUN": {"distance": 11453.0, "latitude": 35.22, "longitude": -97.47, "useCount": 0, "id": "KOUN", "name": "KOUN", "quality": 72, "contribution": 0.0}, "KOKC": {"distance": 33055.0, "latitude": 35.4, "longitude": -97.6, "useCount": 0, "id": "KOKC", "name": "KOKC", "quality": 100, "contribution": 0.0}, "72062800215": {"distance": 53836.0, "latitude": 35.483, "longitude": -97.817, "useCount": 0, "id": "72062800215", "name": "CLARENCE E PAGE MUNICIPAL AIRPORT, OK US", "quality": 100, "contribution": 0.0}}}