{"queryCost": 1, "latitude": 33.975, "longitude": -117.506, "resolvedAddress": "33.97500,-117.50600", "address": "33.97500,-117.50600", "timezone": "America/Los_Angeles", "tzoffset": -7.0, "days": [{"datetime": "2022-04-04", "datetimeEpoch": 1649055600, "tempmax": 76.7, "tempmin": 52.1, "temp": 60.9, "feelslikemax": 76.7, "feelslikemin": 52.1, "feelslike": 60.9, "dew": 49.8, "humidity": 69.6, "precip": 0.0, "precipprob": 0.0, "precipcover": 0.0, "preciptype": null, "snow": 0.0, "snowdepth": 0.0, "windgust": 13.4, "windspeed": 12.6, "winddir": 239.7, "pressure": 1012.2, "cloudcover": 37.0, "visibility": 7.7, "solarradiation": 161.3, "solarenergy": 14.0, "uvindex": 7.0, "severerisk": 10.0, "sunrise": "06:33:08", "sunriseEpoch": 1649079188, "sunset": "19:13:16", "sunsetEpoch": 1649124796, "moonphase": 0.05, "conditions": "Partially cloudy", "description": "Clearing in the afternoon.", "icon": "partly-cloudy-day", "stations": ["KRAL", "72289903179", "KAJO", "KONT", "KCNO", "F6613", "72286903171"], "source": "obs"}], "stations": {"KRAL": {"distance": 5872.0, "latitude": 33.95, "longitude": -117.45, "useCount": 0, "id": "KRAL", "name": "KRAL", "quality": 100, "contribution": 0.0}, "72289903179": {"distance": 12001.0, "latitude": 33.975, "longitude": -117.636, "useCount": 0, "id": "72289903179", "name": "CHINO AIRPORT, CA US", "quality": 100, "contribution": 0.0}, "KAJO": {"distance": 12045.0, "latitude": 33.9, "longitude": -117.6, "useCount": 0, "id": "KAJO", "name": "CORONA, CA", "quality": 99, "contribution": 0.0}, "KONT": {"distance": 11296.0, "latitude": 34.04, "longitude": -117.6, "useCount": 0, "id": "KONT", "name": "KONT", "quality": 100, "contribution": 0.0}, "KCNO": {"distance": 11461.0, "latitude": 33.97, "longitude": -117.63, "useCount": 0, "id": "KCNO", "name": "KCNO", "quality": 100, "contribution": 0.0}, "F6613": {"distance": 4666.0, "latitude": 33.985, "longitude": -117.457, "useCount": 0, "id": "F6613", "name": "FW6613 Jurupa Valley CA US", "quality": 0, "contribution": 0.0}, "72286903171": {"distance": 6699.0, "latitude": 33.952, "longitude": -117.439, "useCount": 0, "id": "72286903171", "name": "RIVERSIDE MUNICIPAL AIRPORT, CA US", "quality": 100, "contribution": 0.0}}}