{"queryCost": 1, "latitude": 36.588, "longitude": -82.213, "resolvedAddress": "36.58800,-82.21300", "address": "36.58800,-82.21300", "timezone": "America/New_York", "tzoffset": -4.0, "days": [{"datetime": "2022-04-14", "datetimeEpoch": 1649908800, "tempmax": 66.8, "tempmin": 51.6, "temp": 59.1, "feelslikemax": 66.8, "feelslikemin": 51.6, "feelslike": 59.1, "dew": 45.6, "humidity": 64.4, "precip": 0.02, "precipprob": 100.0, "precipcover": 8.33, "preciptype": ["rain"], "snow": 0.0, "snowdepth": 0.0, "windgust": 30.9, "windspeed": 14.6, "winddir": 288.1, "pressure": 1014.9, "cloudcover": 59.1, "visibility": 9.3, "solarradiation": 142.3, "solarenergy": 12.2, "uvindex": 6.0, "severerisk": 10.0, "sunrise": "06:56:21", "sunriseEpoch": 1649933781, "sunset": "20:02:27", "sunsetEpoch": 1649980947, "moonphase": 0.47, "conditions": "Rain, Partially cloudy", "description": "Partly cloudy throughout the day with rain in the morning and afternoon.", "icon": "rain", "stations": ["KLNP", "72405853818", "KTRI", "F5248", "72335013877", "KVJI", "K0A9"], "source": "obs"}], "stations": {"KLNP": {"distance": 51060.0, "latitude": 36.97, "longitude": -82.53, "useCount": 0, "id": "KLNP", "name": "KLNP", "quality": 99, "contribution": 0.0}, "72405853818": {"distance": 19241.0, "latitude": 36.683, "longitude": -82.033, "useCount": 0, "id": "72405853818", "name": "ABINGDON VIRGINIA HIGHLANDS AIRPORT, VA US", "quality": 100, "contribution": 0.0}, "KTRI": {"distance": 21269.0, "latitude": 36.47, "longitude": -82.4, "useCount": 0, "id": "KTRI", "name": "KTRI", "quality": 100, "contribution": 0.0}, "F5248": {"distance": 22232.0, "latitude": 36.419, "longitude": -82.345, "useCount": 0, "id": "F5248", "name": "FW5248 Piney Flats TN US", "quality": 0, "contribution": 0.0}, "72335013877": {"distance": 20546.0, "latitude": 36.48, "longitude": -82.399, "useCount": 0, "id": "72335013877", "name": "BRISTOL AIRPORT, TN US", "quality": 100, "contribution": 0.0}, "KVJI": {"distance": 19290.0, "latitude": 36.68, "longitude": -82.03, "useCount": 0, "id": "KVJI", "name": "KVJI", "quality": 97, "contribution": 0.0}, "K0A9": {"distance": 25671.0, "latitude": 36.36, "longitude": -82.17, "useCount": 0, "id": "K0A9", "name": "K0A9", "quality": 98, "contribution": 0.0}}}