{"queryCost": 1, "latitude": 40.548, "longitude": -74.331, "resolvedAddress": "40.54800,-74.33100", "address": "40.54800,-74.33100", "timezone": "America/New_York", "tzoffset": -4.0, "days": [{"datetime": "2022-04-12", "datetimeEpoch": 1649736000, "tempmax": 73.3, "tempmin": 49.2, "temp": 59.2, "feelslikemax": 73.3, "feelslikemin": 48.5, "feelslike": 59.1, "dew": 39.1, "humidity": 49.8, "precip": 0.04, "precipprob": 100.0, "precipcover": 8.33, "preciptype": ["rain"], "snow": 0.0, "snowdepth": 0.0, "windgust": 34.4, "windspeed": 12.8, "winddir": 254.5, "pressure": 1016.1, "cloudcover": 47.1, "visibility": 9.8, "solarradiation": 203.9, "solarenergy": 17.4, "uvindex": 9.0, "severerisk": 10.0, "sunrise": "06:23:19", "sunriseEpoch": 1649758999, "sunset": "19:33:33", "sunsetEpoch": 1649806413, "moonphase": 0.4, "conditions": "Rain, Partially cloudy", "description": "Clearing in the afternoon with morning rain.", "icon": "rain", "stations": ["72224754785", "KEWR", "72502014734", "72058100178", "E5922", "72409454743", "KSMQ"], "source": "obs"}], "stations": {"72224754785": {"distance": 29812.0, "latitude": 40.624, "longitude": -74.669, "useCount": 0, "id": "72224754785", "name": "SOMERSET AIRPORT, NJ US", "quality": 100, "contribution": 0.0}, "KEWR": {"distance": 21711.0, "latitude": 40.7, "longitude": -74.17, "useCount": 0, "id": "KEWR", "name": "KEWR", "quality": 100, "contribution": 0.0}, "72502014734": {"distance": 20264.0, "latitude": 40.683, "longitude": -74.169, "useCount": 0, "id": "72502014734", "name": "NEWARK LIBERTY INTERNATIONAL AIRPORT, NJ US", "quality": 100, "contribution": 0.0}, "72058100178": {"distance": 10290.0, "latitude": 40.617, "longitude": -74.25, "useCount": 0, "id": "72058100178", "name": "LINDEN AIRPORT, NJ US", "quality": 91, "contribution": 0.0}, "E5922": {"distance": 4876.0, "latitude": 40.556, "longitude": -74.274, "useCount": 0, "id": "E5922", "name": "EW5922 Woodbridge NJ US", "quality": 0, "contribution": 0.0}, "72409454743": {"distance": 36780.0, "latitude": 40.876, "longitude": -74.283, "useCount": 0, "id": "72409454743", "name": "CALDWELL ESSEX CO AIRPORT, NJ US", "quality": 100, "contribution": 0.0}, "KSMQ": {"distance": 30076.0, "latitude": 40.63, "longitude": -74.67, "useCount": 0, "id": "KSMQ", "name": "KSMQ", "quality": 100, "contribution": 0.0}}}