{"queryCost": 1, "latitude": 41.338, "longitude": -81.445, "resolvedAddress": "41.33800,-81.44500", "address": "41.33800,-81.44500", "timezone": "America/New_York", "tzoffset": -4.0, "days": [{"datetime": "2015-09-01", "datetimeEpoch": 1441080000, "tempmax": 85.9, "tempmin": 70.0, "temp": 77.7, "feelslikemax": 89.7, "feelslikemin": 70.0, "feelslike": 78.9, "dew": 67.2, "humidity": 71.1, "precip": 0.0, "precipprob": 0.0, "precipcover": 0.0, "preciptype": null, "snow": 0.0, "snowdepth": 0.0, "windgust": null, "windspeed": 7.9, "winddir": 184.3, "pressure": 1018.4, "cloudcover": 10.6, "visibility": 8.1, "solarradiation": 244.6, "solarenergy": 21.2, "uvindex": 8.0, "sunrise": "06:51:46", "sunriseEpoch": 1441104706, "sunset": "19:59:08", "sunsetEpoch": 1441151948, "moonphase": 0.55, "conditions": "Clear", "description": "Clear conditions throughout the day.", "icon": "clear-day", "stations": ["72430314813", "72524014820", "KBKL", "72524504853", "KAKR"], "source": "obs"}], "stations": {"72430314813": {"distance": 33490.0, "latitude": 41.038, "longitude": -81.464, "useCount": 0, "id": "72430314813", "name": "AKRON FULTON INTERNATIONAL AIRPORT, OH US", "quality": 100, "contribution": 0.0}, "72524014820": {"distance": 34825.0, "latitude": 41.406, "longitude": -81.852, "useCount": 0, "id": "72524014820", "name": "CLEVELAND HOPKINS INTERNATIONAL AIRPORT, OH US", "quality": 100, "contribution": 0.0}, "KBKL": {"distance": 28199.0, "latitude": 41.52, "longitude": -81.68, "useCount": 0, "id": "KBKL", "name": "KBKL", "quality": 100, "contribution": 0.0}, "72524504853": {"distance": 28211.0, "latitude": 41.518, "longitude": -81.684, "useCount": 0, "id": "72524504853", "name": "CLEVELAND BURKE LAKEFRONT AIRPORT, OH US", "quality": 100, "contribution": 0.0}, "KAKR": {"distance": 33176.0, "latitude": 41.04, "longitude": -81.45, "useCount": 0, "id": "KAKR", "name": "KAKR", "quality": 100, "contribution": 0.0}}}