{"queryCost": 1, "latitude": 32.917, "longitude": -97.634, "resolvedAddress": "32.91700,-97.63400", "address": "32.91700,-97.63400", "timezone": "America/Chicago", "tzoffset": -5.0, "days": [{"datetime": "2015-09-04", "datetimeEpoch": 1441342800, "tempmax": 96.2, "tempmin": 76.7, "temp": 86.7, "feelslikemax": 99.7, "feelslikemin": 76.7, "feelslike": 89.6, "dew": 68.3, "humidity": 56.3, "precip": 0.0, "precipprob": 0.0, "precipcover": 0.0, "preciptype": null, "snow": 0.0, "snowdepth": 0.0, "windgust": 19.7, "windspeed": 11.3, "winddir": 144.7, "pressure": 1011.6, "cloudcover": 31.1, "visibility": 9.9, "solarradiation": 259.8, "solarenergy": 22.4, "uvindex": 8.0, "sunrise": "07:06:49", "sunriseEpoch": 1441368409, "sunset": "19:51:49", "sunsetEpoch": 1441414309, "moonphase": 0.71, "conditions": "Partially cloudy", "description": "Partly cloudy throughout the day.", "icon": "partly-cloudy-day", "stations": ["74739013961", "72259453909", "KAFW", "KNFW", "72259513911", "KFTW"], "source": "obs"}], "stations": {"74739013961": {"distance": 27716.0, "latitude": 32.819, "longitude": -97.361, "useCount": 0, "id": "74739013961", "name": "FORT WORTH MEACHAM FIELD, TX US", "quality": 100, "contribution": 0.0}, "72259453909": {"distance": 30169.0, "latitude": 32.973, "longitude": -97.318, "useCount": 0, "id": "72259453909", "name": "FORT WORTH ALLIANCE AIRPORT, TX US", "quality": 100, "contribution": 0.0}, "KAFW": {"distance": 29921.0, "latitude": 32.97, "longitude": -97.32, "useCount": 0, "id": "KAFW", "name": "KAFW", "quality": 100, "contribution": 0.0}, "KNFW": {"distance": 23747.0, "latitude": 32.77, "longitude": -97.45, "useCount": 0, "id": "KNFW", "name": "KNFW", "quality": 100, "contribution": 0.0}, "72259513911": {"distance": 24002.0, "latitude": 32.767, "longitude": -97.45, "useCount": 0, "id": "72259513911", "name": "FORT WORTH NAS, TX US", "quality": 100, "contribution": 0.0}, "KFTW": {"distance": 26942.0, "latitude": 32.82, "longitude": -97.37, "useCount": 0, "id": "KFTW", "name": "FT WORTH/MEACHAM, TX", "quality": 100, "contribution": 0.0}}}