{"queryCost": 1, "latitude": 25.769, "longitude": -80.236, "resolvedAddress": "25.76900,-80.23600", "address": "25.76900,-80.23600", "timezone": "America/New_York", "tzoffset": -4.0, "days": [{"datetime": "2015-09-06", "datetimeEpoch": 1441512000, "tempmax": 87.7, "tempmin": 75.2, "temp": 79.5, "feelslikemax": 97.2, "feelslikemin": 75.2, "feelslike": 82.2, "dew": 75.9, "humidity": 89.5, "precip": 0.33, "precipprob": 100.0, "precipcover": 25.0, "preciptype": ["rain"], "snow": 0.0, "snowdepth": 0.0, "windgust": null, "windspeed": 13.5, "winddir": 180.3, "pressure": 1014.4, "cloudcover": 66.8, "visibility": 9.7, "solarradiation": 115.8, "solarenergy": 9.9, "uvindex": 4.0, "sunrise": "07:03:03", "sunriseEpoch": 1441537383, "sunset": "19:35:14", "sunsetEpoch": 1441582514, "moonphase": 0.81, "conditions": "Rain, Partially cloudy", "description": "Partly cloudy throughout the day with rain.", "icon": "rain", "stations": ["72202912888", "72202412882", "KMIA", "KOPF", "72202012839", "KTMB"], "source": "obs"}], "stations": {"72202912888": {"distance": 23953.0, "latitude": 25.648, "longitude": -80.433, "useCount": 0, "id": "72202912888", "name": "MIAMI KENDALL TAMIAMI EXEC AIRPORT, FL US", "quality": 98, "contribution": 0.0}, "72202412882": {"distance": 15980.0, "latitude": 25.907, "longitude": -80.28, "useCount": 0, "id": "72202412882", "name": "MIAMI OPA LOCKA AIRPORT, FL US", "quality": 100, "contribution": 0.0}, "KMIA": {"distance": 5896.0, "latitude": 25.79, "longitude": -80.29, "useCount": 0, "id": "KMIA", "name": "KMIA", "quality": 100, "contribution": 0.0}, "KOPF": {"distance": 15235.0, "latitude": 25.9, "longitude": -80.28, "useCount": 0, "id": "KOPF", "name": "KOPF", "quality": 100, "contribution": 0.0}, "72202012839": {"distance": 8384.0, "latitude": 25.788, "longitude": -80.317, "useCount": 0, "id": "72202012839", "name": "MIAMI INTERNATIONAL AIRPORT, FL US", "quality": 100, "contribution": 0.0}, "KTMB": {"distance": 23539.0, "latitude": 25.65, "longitude": -80.43, "useCount": 0, "id": "KTMB", "name": "KTMB", "quality": 99, "contribution": 0.0}}}