{"queryCost": 1, "latitude": 64.806, "longitude": -147.543, "resolvedAddress": "64.80600,-147.54300", "address": "64.80600,-147.54300", "timezone": "America/Anchorage", "tzoffset": -8.0, "days": [{"datetime": "2015-09-09", "datetimeEpoch": 1441785600, "tempmax": 62.7, "tempmin": 45.1, "temp": 52.0, "feelslikemax": 62.7, "feelslikemin": 44.3, "feelslike": 51.8, "dew": 43.1, "humidity": 73.9, "precip": 0.0, "precipprob": 0.0, "precipcover": 0.0, "preciptype": null, "snow": 0.0, "snowdepth": 0.0, "windgust": null, "windspeed": 10.0, "winddir": 111.8, "pressure": 1000.0, "cloudcover": 61.3, "visibility": 9.8, "solarradiation": 72.2, "solarenergy": 6.2, "uvindex": 2.0, "sunrise": "06:54:06", "sunriseEpoch": 1441810446, "sunset": "20:38:56", "sunsetEpoch": 1441859936, "moonphase": 0.94, "conditions": "Partially cloudy", "description": "Partly cloudy throughout the day.", "icon": "partly-cloudy-day", "stations": ["PAFB", "PAFA", "70261026411", "99999926494", "70261526498", "70265026407"], "source": "obs"}], "stations": {"PAFB": {"distance": 4521.0, "latitude": 64.83, "longitude": -147.62, "useCount": 0, "id": "PAFB", "name": "PAFB", "quality": 98, "contribution": 0.0}, "PAFA": {"distance": 15570.0, "latitude": 64.82, "longitude": -147.87, "useCount": 0, "id": "PAFA", "name": "FAIRBNKS INTLARPT, AK", "quality": 100, "contribution": 0.0}, "70261026411": {"distance": 15782.0, "latitude": 64.804, "longitude": -147.876, "useCount": 0, "id": "70261026411", "name": "FAIRBANKS INTERNATIONAL AIRPORT, AK US", "quality": 100, "contribution": 0.0}, "99999926494": {"distance": 18711.0, "latitude": 64.974, "longitude": -147.51, "useCount": 0, "id": "99999926494", "name": "FAIRBANKS 11 NE, AK US", "quality": 99, "contribution": 0.0}, "70261526498": {"distance": 4858.0, "latitude": 64.838, "longitude": -147.614, "useCount": 0, "id": "70261526498", "name": "FAIRBANKS WAINWRIGHT ARMY AIR FIELD AIRPORT, AK US", "quality": 95, "contribution": 0.0}, "70265026407": {"distance": 25766.0, "latitude": 64.683, "longitude": -147.083, "useCount": 0, "id": "70265026407", "name": "EIELSON FIELD, AK US", "quality": 99, "contribution": 0.0}}}