{"queryCost": 1, "latitude": 38.134, "longitude": -121.272, "resolvedAddress": "38.13400,-121.27200", "address": "38.13400,-121.27200", "timezone": "America/Los_Angeles", "tzoffset": -7.0, "days": [{"datetime": "2015-09-10", "datetimeEpoch": 1441868400, "tempmax": 106.5, "tempmin": 66.6, "temp": 85.0, "feelslikemax": 100.8, "feelslikemin": 66.6, "feelslike": 82.8, "dew": 44.0, "humidity": 27.4, "precip": 0.0, "precipprob": 0.0, "precipcover": 0.0, "preciptype": null, "snow": 0.0, "snowdepth": 0.0, "windgust": 20.8, "windspeed": 12.3, "winddir": 278.3, "pressure": 1009.6, "cloudcover": 0.3, "visibility": 9.9, "solarradiation": 257.2, "solarenergy": 22.2, "uvindex": 8.0, "sunrise": "06:42:18", "sunriseEpoch": 1441892538, "sunset": "19:21:12", "sunsetEpoch": 1441938072, "moonphase": 0.97, "conditions": "Clear", "description": "Clear conditions throughout the day.", "icon": "clear-day", "stations": ["KSCK", "74516023202", "72483023232", "KSAC", "72492023237", "KSUU"], "source": "obs"}], "stations": {"KSCK": {"distance": 26120.0, "latitude": 37.9, "longitude": -121.25, "useCount": 0, "id": "KSCK", "name": "KSCK", "quality": 100, "contribution": 0.0}, "74516023202": {"distance": 59682.0, "latitude": 38.267, "longitude": -121.933, "useCount": 0, "id": "74516023202", "name": "TRAVIS FIELD AFB, CA US", "quality": 96, "contribution": 0.0}, "72483023232": {"distance": 45853.0, "latitude": 38.507, "longitude": -121.495, "useCount": 0, "id": "72483023232", "name": "SACRAMENTO EXECUTIVE AIRPORT, CA US", "quality": 100, "contribution": 0.0}, "KSAC": {"distance": 47358.0, "latitude": 38.52, "longitude": -121.5, "useCount": 0, "id": "KSAC", "name": "KSAC", "quality": 100, "contribution": 0.0}, "72492023237": {"distance": 27559.0, "latitude": 37.889, "longitude": -121.226, "useCount": 0, "id": "72492023237", "name": "STOCKTON METROPOLITAN AIRPORT, CA US", "quality": 100, "contribution": 0.0}, "KSUU": {"distance": 59519.0, "latitude": 38.27, "longitude": -121.93, "useCount": 0, "id": "KSUU", "name": "KSUU", "quality": 100, "contribution": 0.0}}}