{"queryCost": 1, "latitude": 39.834, "longitude": -75.393, "resolvedAddress": "39.83400,-75.39300", "address": "39.83400,-75.39300", "timezone": "America/New_York", "tzoffset": -4.0, "days": [{"datetime": "2015-09-11", "datetimeEpoch": 1441944000, "tempmax": 82.0, "tempmin": 67.5, "temp": 73.3, "feelslikemax": 82.4, "feelslikemin": 67.5, "feelslike": 73.4, "dew": 62.9, "humidity": 71.8, "precip": 0.33, "precipprob": 100.0, "precipcover": 8.33, "preciptype": ["rain"], "snow": 0.0, "snowdepth": 0.0, "windgust": 23.0, "windspeed": 11.9, "winddir": 270.3, "pressure": 1008.2, "cloudcover": 67.8, "visibility": 9.7, "solarradiation": 255.2, "solarenergy": 22.0, "uvindex": 8.0, "sunrise": "06:38:31", "sunriseEpoch": 1441967911, "sunset": "19:17:18", "sunsetEpoch": 1442013438, "moonphase": 0.99, "conditions": "Rain, Partially cloudy", "description": "Partly cloudy throughout the day with early morning rain.", "icon": "rain", "stations": ["72418013781", "72408013739", "99999903761", "72030464752", "KPHL", "KILG"], "source": "obs"}], "stations": {"72418013781": {"distance": 25436.0, "latitude": 39.674, "longitude": -75.606, "useCount": 0, "id": "72418013781", "name": "WILMINGTON NEW CASTLE CO AIRPORT, DE US", "quality": 100, "contribution": 0.0}, "72408013739": {"distance": 14862.0, "latitude": 39.873, "longitude": -75.227, "useCount": 0, "id": "72408013739", "name": "PHILADELPHIA INTERNATIONAL AIRPORT, PA US", "quality": 100, "contribution": 0.0}, "99999903761": {"distance": 33715.0, "latitude": 39.859, "longitude": -75.786, "useCount": 0, "id": "99999903761", "name": "AVONDALE 2 N, PA US", "quality": 100, "contribution": 0.0}, "72030464752": {"distance": 31511.0, "latitude": 40.1, "longitude": -75.267, "useCount": 0, "id": "72030464752", "name": "WINGS FIELD, PA US", "quality": 100, "contribution": 0.0}, "KPHL": {"distance": 13249.0, "latitude": 39.88, "longitude": -75.25, "useCount": 0, "id": "KPHL", "name": "KPHL", "quality": 100, "contribution": 0.0}, "KILG": {"distance": 24044.0, "latitude": 39.68, "longitude": -75.59, "useCount": 0, "id": "KILG", "name": "KILG", "quality": 100, "contribution": 0.0}}}