{"queryCost": 1, "latitude": 36.969, "longitude": -87.88, "resolvedAddress": "36.96900,-87.88000", "address": "36.96900,-87.88000", "timezone": "America/Chicago", "tzoffset": -5.0, "days": [{"datetime": "2015-09-14", "datetimeEpoch": 1442206800, "tempmax": 77.4, "tempmin": 49.2, "temp": 62.9, "feelslikemax": 77.4, "feelslikemin": 47.7, "feelslike": 62.8, "dew": 48.9, "humidity": 64.9, "precip": 0.0, "precipprob": 0.0, "precipcover": 0.0, "preciptype": null, "snow": 0.0, "snowdepth": 0.0, "windgust": 19.9, "windspeed": 7.5, "winddir": 142.1, "pressure": 1022.1, "cloudcover": 0.0, "visibility": 9.6, "solarradiation": 280.8, "solarenergy": 24.2, "uvindex": 9.0, "sunrise": "06:32:35", "sunriseEpoch": 1442230355, "sunset": "19:01:03", "sunsetEpoch": 1442275263, "moonphase": 0.01, "conditions": "Clear", "description": "Clear conditions throughout the day.", "icon": "clear-day", "stations": ["72044700437", "72328003894", "KHOP", "74671013806", "KCEY"], "source": "obs"}], "stations": {"72044700437": {"distance": 55470.0, "latitude": 36.665, "longitude": -88.373, "useCount": 0, "id": "72044700437", "name": "KYLE OAKLEY FIELD AIRPORT, KY US", "quality": 98, "contribution": 0.0}, "KHOP": {"distance": 47482.0, "latitude": 36.67, "longitude": -87.5, "useCount": 0, "id": "KHOP", "name": "KHOP", "quality": 100, "contribution": 0.0}, "74671013806": {"distance": 48808.0, "latitude": 36.667, "longitude": -87.483, "useCount": 0, "id": "74671013806", "name": "FORT CAMPBELL ARMY AIR FIELD, KY US", "quality": 100, "contribution": 0.0}, "72328003894": {"distance": 56228.0, "latitude": 36.624, "longitude": -87.419, "useCount": 0, "id": "72328003894", "name": "CLARKSVILLE OUTLAW AIRPORT, TN US", "quality": 100, "contribution": 0.0}, "KCEY": {"distance": 55598.0, "latitude": 36.65, "longitude": -88.36, "useCount": 0, "id": "KCEY", "name": "KCEY", "quality": 98, "contribution": 0.0}}}