{"queryCost": 1, "latitude": 34.23, "longitude": -118.438, "resolvedAddress": "34.23000,-118.43800", "address": "34.23000,-118.43800", "timezone": "America/Los_Angeles", "tzoffset": -7.0, "days": [{"datetime": "2015-09-15", "datetimeEpoch": 1442300400, "tempmax": 79.2, "tempmin": 68.0, "temp": 72.8, "feelslikemax": 79.2, "feelslikemin": 68.0, "feelslike": 72.8, "dew": 65.7, "humidity": 79.0, "precip": 0.92, "precipprob": 100.0, "precipcover": 37.5, "preciptype": ["rain"], "snow": 0.0, "snowdepth": 0.0, "windgust": 20.8, "windspeed": 13.9, "winddir": 146.4, "pressure": 1010.0, "cloudcover": 96.2, "visibility": 7.7, "solarradiation": 259.8, "solarenergy": 22.4, "uvindex": 9.0, "sunrise": "06:36:43", "sunriseEpoch": 1442324203, "sunset": "19:00:40", "sunsetEpoch": 1442368840, "moonphase": 0.02, "conditions": "Rain, Overcast", "description": "Cloudy skies throughout the day with rain.", "icon": "rain", "stations": ["KVNY", "72288593197", "KBUR", "KSMO", "72288623130", "72288023152"], "source": "obs"}], "stations": {"KVNY": {"distance": 4023.0, "latitude": 34.22, "longitude": -118.48, "useCount": 0, "id": "KVNY", "name": "KVNY", "quality": 100, "contribution": 0.0}, "72288593197": {"distance": 23875.0, "latitude": 34.016, "longitude": -118.451, "useCount": 0, "id": "72288593197", "name": "SANTA MONICA MUNICIPAL AIRPORT, CA US", "quality": 100, "contribution": 0.0}, "KBUR": {"distance": 8762.0, "latitude": 34.2, "longitude": -118.35, "useCount": 0, "id": "KBUR", "name": "KBUR", "quality": 100, "contribution": 0.0}, "KSMO": {"distance": 23403.0, "latitude": 34.02, "longitude": -118.45, "useCount": 0, "id": "KSMO", "name": "KSMO", "quality": 97, "contribution": 0.0}, "72288623130": {"distance": 5210.0, "latitude": 34.21, "longitude": -118.489, "useCount": 0, "id": "72288623130", "name": "VAN NUYS AIRPORT, CA US", "quality": 100, "contribution": 0.0}, "72288023152": {"distance": 8143.0, "latitude": 34.201, "longitude": -118.357, "useCount": 0, "id": "72288023152", "name": "BURBANK GLENDALE PASADENA AIRPORT, CA US", "quality": 100, "contribution": 0.0}}}