{"queryCost": 1, "latitude": 64.827, "longitude": -147.779, "resolvedAddress": "64.82700,-147.77900", "address": "64.82700,-147.77900", "timezone": "America/Anchorage", "tzoffset": -8.0, "days": [{"datetime": "2015-09-08", "datetimeEpoch": 1441699200, "tempmax": 60.8, "tempmin": 42.6, "temp": 51.9, "feelslikemax": 60.8, "feelslikemin": 40.9, "feelslike": 51.8, "dew": 42.9, "humidity": 72.5, "precip": 0.0, "precipprob": 0.0, "precipcover": 0.0, "preciptype": null, "snow": 0.0, "snowdepth": 0.0, "windgust": null, "windspeed": 5.6, "winddir": 110.0, "pressure": 1006.1, "cloudcover": 84.0, "visibility": 9.8, "solarradiation": 61.3, "solarenergy": 5.3, "uvindex": 2.0, "sunrise": "06:52:00", "sunriseEpoch": 1441723920, "sunset": "20:43:36", "sunsetEpoch": 1441773816, "moonphase": 0.9, "conditions": "Partially cloudy", "description": "Partly cloudy throughout the day.", "icon": "partly-cloudy-day", "stations": ["PAEI", "PAFB", "PAFA", "70261026411", "99999926494", "70261526498"], "source": "obs"}], "stations": {"PAEI": {"distance": 36676.0, "latitude": 64.67, "longitude": -147.1, "useCount": 0, "id": "PAEI", "name": "PAEI", "quality": 100, "contribution": 0.0}, "PAFB": {"distance": 7536.0, "latitude": 64.83, "longitude": -147.62, "useCount": 0, "id": "PAFB", "name": "PAFB", "quality": 98, "contribution": 0.0}, "PAFA": {"distance": 4379.0, "latitude": 64.82, "longitude": -147.87, "useCount": 0, "id": "PAFA", "name": "FAIRBNKS INTLARPT, AK", "quality": 100, "contribution": 0.0}, "70261026411": {"distance": 5266.0, "latitude": 64.804, "longitude": -147.876, "useCount": 0, "id": "70261026411", "name": "FAIRBANKS INTERNATIONAL AIRPORT, AK US", "quality": 100, "contribution": 0.0}, "99999926494": {"distance": 20672.0, "latitude": 64.974, "longitude": -147.51, "useCount": 0, "id": "99999926494", "name": "FAIRBANKS 11 NE, AK US", "quality": 99, "contribution": 0.0}, "70261526498": {"distance": 7898.0, "latitude": 64.838, "longitude": -147.614, "useCount": 0, "id": "70261526498", "name": "FAIRBANKS WAINWRIGHT ARMY AIR FIELD AIRPORT, AK US", "quality": 95, "contribution": 0.0}}}