{"queryCost": 1, "latitude": 32.895, "longitude": -96.775, "resolvedAddress": "32.89500,-96.77500", "address": "32.89500,-96.77500", "timezone": "America/Chicago", "tzoffset": -5.0, "days": [{"datetime": "2015-09-21", "datetimeEpoch": 1442811600, "tempmax": 93.0, "tempmin": 69.8, "temp": 80.5, "feelslikemax": 93.2, "feelslikemin": 69.8, "feelslike": 80.9, "dew": 62.6, "humidity": 56.9, "precip": 0.0, "precipprob": 0.0, "precipcover": 0.0, "preciptype": null, "snow": 0.0, "snowdepth": 0.0, "windgust": null, "windspeed": 12.1, "winddir": 103.8, "pressure": 1014.8, "cloudcover": 53.2, "visibility": 9.9, "solarradiation": 246.2, "solarenergy": 21.3, "uvindex": 9.0, "sunrise": "07:14:23", "sunriseEpoch": 1442837663, "sunset": "19:25:30", "sunsetEpoch": 1442881530, "moonphase": 0.26, "conditions": "Partially cloudy", "description": "Partly cloudy throughout the day.", "icon": "partly-cloudy-day", "stations": ["KDAL", "72259003927", "72259903971", "KDFW", "KRBD", "72258013960"], "source": "obs"}], "stations": {"KDAL": {"distance": 8618.0, "latitude": 32.85, "longitude": -96.85, "useCount": 0, "id": "KDAL", "name": "KDAL", "quality": 100, "contribution": 0.0}, "72259003927": {"distance": 22799.0, "latitude": 32.898, "longitude": -97.019, "useCount": 0, "id": "72259003927", "name": "DAL FTW WSCMO AIRPORT, TX US", "quality": 100, "contribution": 0.0}, "72259903971": {"distance": 25387.0, "latitude": 32.681, "longitude": -96.868, "useCount": 0, "id": "72259903971", "name": "DALLAS REDBIRD AIRPORT, TX US", "quality": 99, "contribution": 0.0}, "KDFW": {"distance": 23841.0, "latitude": 32.9, "longitude": -97.03, "useCount": 0, "id": "KDFW", "name": "KDFW", "quality": 100, "contribution": 0.0}, "KRBD": {"distance": 25532.0, "latitude": 32.68, "longitude": -96.87, "useCount": 0, "id": "KRBD", "name": "KRBD", "quality": 99, "contribution": 0.0}, "72258013960": {"distance": 8925.0, "latitude": 32.852, "longitude": -96.855, "useCount": 0, "id": "72258013960", "name": "DALLAS FAA AIRPORT, TX US", "quality": 100, "contribution": 0.0}}}