{"queryCost": 1, "latitude": 30.284, "longitude": -89.749, "resolvedAddress": "30.28400,-89.74900", "address": "30.28400,-89.74900", "timezone": "America/Chicago", "tzoffset": -5.0, "days": [{"datetime": "2015-09-19", "datetimeEpoch": 1442638800, "tempmax": 92.5, "tempmin": 66.8, "temp": 78.5, "feelslikemax": 96.2, "feelslikemin": 66.8, "feelslike": 80.3, "dew": 68.8, "humidity": 75.6, "precip": 0.0, "precipprob": 0.0, "precipcover": 0.0, "preciptype": null, "snow": 0.0, "snowdepth": 0.0, "windgust": null, "windspeed": 8.9, "winddir": 258.2, "pressure": 1012.8, "cloudcover": 5.4, "visibility": 9.9, "solarradiation": 275.2, "solarenergy": 23.9, "uvindex": 9.0, "sunrise": "06:45:27", "sunriseEpoch": 1442663127, "sunset": "18:59:43", "sunsetEpoch": 1442707183, "moonphase": 0.16, "conditions": "Clear", "description": "Clear conditions throughout the day.", "icon": "clear-day", "stations": ["KASD", "KNEW", "72231553917", "KNBG", "72233053865", "72231612958"], "source": "obs"}], "stations": {"KASD": {"distance": 10026.0, "latitude": 30.35, "longitude": -89.82, "useCount": 0, "id": "KASD", "name": "KASD", "quality": 100, "contribution": 0.0}, "KNEW": {"distance": 37549.0, "latitude": 30.05, "longitude": -90.03, "useCount": 0, "id": "KNEW", "name": "KNEW", "quality": 94, "contribution": 0.0}, "72231553917": {"distance": 37512.0, "latitude": 30.049, "longitude": -90.029, "useCount": 0, "id": "72231553917", "name": "NEW ORLEANS LAKEFRONT AIRPORT, LA US", "quality": 94, "contribution": 0.0}, "KNBG": {"distance": 57334.0, "latitude": 29.83, "longitude": -90.03, "useCount": 0, "id": "KNBG", "name": "KNBG", "quality": 97, "contribution": 0.0}, "72233053865": {"distance": 9647.0, "latitude": 30.343, "longitude": -89.822, "useCount": 0, "id": "72233053865", "name": "SLIDELL AIRPORT, LA US", "quality": 100, "contribution": 0.0}, "72231612958": {"distance": 58064.0, "latitude": 29.817, "longitude": -90.017, "useCount": 0, "id": "72231612958", "name": "NEW ORLEANS ALVIN CALLENDER FIELD, LA US", "quality": 96, "contribution": 0.0}}}