{"queryCost": 1, "latitude": 25.584, "longitude": -80.374, "resolvedAddress": "25.58400,-80.37400", "address": "25.58400,-80.37400", "timezone": "America/New_York", "tzoffset": -4.0, "days": [{"datetime": "2015-09-24", "datetimeEpoch": 1443067200, "tempmax": 84.8, "tempmin": 73.7, "temp": 79.6, "feelslikemax": 92.4, "feelslikemin": 73.7, "feelslike": 82.4, "dew": 73.9, "humidity": 83.5, "precip": 1.62, "precipprob": 100.0, "precipcover": 16.67, "preciptype": ["rain"], "snow": 0.0, "snowdepth": 0.0, "windgust": null, "windspeed": 8.1, "winddir": 158.9, "pressure": 1012.8, "cloudcover": 31.4, "visibility": 9.6, "solarradiation": 116.7, "solarenergy": 10.0, "uvindex": 5.0, "sunrise": "07:10:42", "sunriseEpoch": 1443093042, "sunset": "19:16:02", "sunsetEpoch": 1443136562, "moonphase": 0.41, "conditions": "Rain, Partially cloudy", "description": "Partly cloudy throughout the day with rain clearing later.", "icon": "rain", "stations": ["72202912888", "72202612826", "KMIA", "72202012839", "KTMB", "KHST"], "source": "obs"}], "stations": {"72202912888": {"distance": 9228.0, "latitude": 25.648, "longitude": -80.433, "useCount": 0, "id": "72202912888", "name": "MIAMI KENDALL TAMIAMI EXEC AIRPORT, FL US", "quality": 98, "contribution": 0.0}, "72202612826": {"distance": 11249.0, "latitude": 25.483, "longitude": -80.383, "useCount": 0, "id": "72202612826", "name": "HOMESTEAD AFB, FL US", "quality": 100, "contribution": 0.0}, "KMIA": {"distance": 24431.0, "latitude": 25.79, "longitude": -80.29, "useCount": 0, "id": "KMIA", "name": "KMIA", "quality": 100, "contribution": 0.0}, "72202012839": {"distance": 23431.0, "latitude": 25.788, "longitude": -80.317, "useCount": 0, "id": "72202012839", "name": "MIAMI INTERNATIONAL AIRPORT, FL US", "quality": 100, "contribution": 0.0}, "KTMB": {"distance": 9251.0, "latitude": 25.65, "longitude": -80.43, "useCount": 0, "id": "KTMB", "name": "KTMB", "quality": 99, "contribution": 0.0}, "KHST": {"distance": 11593.0, "latitude": 25.48, "longitude": -80.38, "useCount": 0, "id": "KHST", "name": "KHST", "quality": 100, "contribution": 0.0}}}