{"queryCost": 1, "latitude": 41.897, "longitude": -87.717, "resolvedAddress": "41.89700,-87.71700", "address": "41.89700,-87.71700", "timezone": "America/Chicago", "tzoffset": -5.0, "days": [{"datetime": "2015-09-25", "datetimeEpoch": 1443157200, "tempmax": 73.4, "tempmin": 62.6, "temp": 67.7, "feelslikemax": 73.4, "feelslikemin": 62.6, "feelslike": 67.7, "dew": 59.3, "humidity": 75.2, "precip": 0.0, "precipprob": 0.0, "precipcover": 0.0, "preciptype": null, "snow": 0.0, "snowdepth": 0.0, "windgust": 20.8, "windspeed": 14.9, "winddir": 43.0, "pressure": 1023.3, "cloudcover": 79.8, "visibility": 9.3, "solarradiation": 216.8, "solarenergy": 18.6, "uvindex": 7.0, "sunrise": "06:41:05", "sunriseEpoch": 1443181265, "sunset": "18:43:22", "sunsetEpoch": 1443224602, "moonphase": 0.45, "conditions": "Partially cloudy", "description": "Partly cloudy throughout the day.", "icon": "partly-cloudy-day", "stations": ["72534014819", "KORD", "KMDW", "72530094846", "74466504838", "KPWK"], "source": "obs"}], "stations": {"72534014819": {"distance": 12686.0, "latitude": 41.786, "longitude": -87.752, "useCount": 0, "id": "72534014819", "name": "CHICAGO MIDWAY AIRPORT, IL US", "quality": 100, "contribution": 0.0}, "KORD": {"distance": 17748.0, "latitude": 41.98, "longitude": -87.9, "useCount": 0, "id": "KORD", "name": "KORD", "quality": 100, "contribution": 0.0}, "KMDW": {"distance": 13309.0, "latitude": 41.78, "longitude": -87.75, "useCount": 0, "id": "KMDW", "name": "KMDW", "quality": 100, "contribution": 0.0}, "72530094846": {"distance": 19115.0, "latitude": 41.96, "longitude": -87.932, "useCount": 0, "id": "72530094846", "name": "CHICAGO OHARE INTERNATIONAL AIRPORT, IL US", "quality": 100, "contribution": 0.0}, "74466504838": {"distance": 29355.0, "latitude": 42.121, "longitude": -87.905, "useCount": 0, "id": "74466504838", "name": "CHICAGO PALWAUKEE AIRPORT, IL US", "quality": 100, "contribution": 0.0}, "KPWK": {"distance": 29970.0, "latitude": 42.12, "longitude": -87.92, "useCount": 0, "id": "KPWK", "name": "KPWK", "quality": 100, "contribution": 0.0}}}