{"queryCost": 1, "latitude": 37.826, "longitude": -81.214, "resolvedAddress": "37.82600,-81.21400", "address": "37.82600,-81.21400", "timezone": "America/New_York", "tzoffset": -4.0, "days": [{"datetime": "2015-09-30", "datetimeEpoch": 1443585600, "tempmax": 66.9, "tempmin": 60.3, "temp": 63.8, "feelslikemax": 66.9, "feelslikemin": 60.3, "feelslike": 63.8, "dew": 60.9, "humidity": 90.6, "precip": 0.06, "precipprob": 100.0, "precipcover": 20.83, "preciptype": ["rain"], "snow": 0.0, "snowdepth": 0.0, "windgust": 26.4, "windspeed": 13.0, "winddir": 202.8, "pressure": 1011.0, "cloudcover": 99.6, "visibility": 7.4, "solarradiation": 165.5, "solarenergy": 14.3, "uvindex": 6.0, "sunrise": "07:19:16", "sunriseEpoch": 1443611956, "sunset": "19:09:53", "sunsetEpoch": 1443654593, "moonphase": 0.54, "conditions": "Rain, Overcast", "description": "Cloudy skies throughout the day with a chance of rain throughout the day.", "icon": "rain", "stations": ["KBKW", "72412503859", "KBLF", "72414013866", "72412003872", "KCRW"], "source": "obs"}], "stations": {"KBKW": {"distance": 9725.0, "latitude": 37.78, "longitude": -81.12, "useCount": 0, "id": "KBKW", "name": "KBKW", "quality": 100, "contribution": 0.0}, "72412503859": {"distance": 58806.0, "latitude": 37.298, "longitude": -81.204, "useCount": 0, "id": "72412503859", "name": "BLUEFIELD MERCER CO AIRPORT, WV US", "quality": 100, "contribution": 0.0}, "KBLF": {"distance": 59680.0, "latitude": 37.29, "longitude": -81.2, "useCount": 0, "id": "KBLF", "name": "KBLF", "quality": 100, "contribution": 0.0}, "72414013866": {"distance": 69856.0, "latitude": 38.379, "longitude": -81.59, "useCount": 0, "id": "72414013866", "name": "CHARLESTON YEAGER AIRPORT, WV US", "quality": 100, "contribution": 0.0}, "72412003872": {"distance": 9292.0, "latitude": 37.784, "longitude": -81.123, "useCount": 0, "id": "72412003872", "name": "BECKLEY RALEIGH CO AIRPORT, WV US", "quality": 100, "contribution": 0.0}, "KCRW": {"distance": 67961.0, "latitude": 38.36, "longitude": -81.59, "useCount": 0, "id": "KCRW", "name": "KCRW", "quality": 100, "contribution": 0.0}}}