{"queryCost": 1, "latitude": 31.467, "longitude": -110.233, "resolvedAddress": "31.46700,-110.23300", "address": "31.46700,-110.23300", "timezone": "America/Phoenix", "tzoffset": -7.0, "days": [{"datetime": "2015-10-02", "datetimeEpoch": 1443769200, "tempmax": 88.0, "tempmin": 64.5, "temp": 75.7, "feelslikemax": 84.4, "feelslikemin": 64.5, "feelslike": 74.5, "dew": 42.8, "humidity": 33.0, "precip": 0.0, "precipprob": 0.0, "precipcover": 0.0, "preciptype": null, "snow": 0.0, "snowdepth": 0.0, "windgust": 27.7, "windspeed": 16.5, "winddir": 252.4, "pressure": 1009.2, "cloudcover": 3.6, "visibility": 9.8, "solarradiation": 228.4, "solarenergy": 19.7, "uvindex": 8.0, "sunrise": "06:15:08", "sunriseEpoch": 1443791708, "sunset": "18:04:57", "sunsetEpoch": 1443834297, "moonphase": 0.63, "conditions": "Clear", "description": "Clear conditions throughout the day.", "icon": "clear-day", "stations": ["KALK", "72281353146", "72273003124", "72272803196", "KFHU", "99999953132"], "source": "obs"}], "stations": {"KALK": {"distance": 23109.0, "latitude": 31.6, "longitude": -110.42, "useCount": 0, "id": "KALK", "name": "KALK", "quality": 99, "contribution": 0.0}, "72281353146": {"distance": 24205.0, "latitude": 31.607, "longitude": -110.428, "useCount": 0, "id": "72281353146", "name": "FORT HUACHUCA PIONEER AIRFIELD, AZ US", "quality": 100, "contribution": 0.0}, "72273003124": {"distance": 17125.0, "latitude": 31.588, "longitude": -110.344, "useCount": 0, "id": "72273003124", "name": "FORT HUACHUCA SIERRA VISTA MUNICIPAL AIRPORT, AZ US", "quality": 100, "contribution": 0.0}, "72272803196": {"distance": 58445.0, "latitude": 31.421, "longitude": -110.846, "useCount": 0, "id": "72272803196", "name": "NOGALES INTERNATIONAL AIRPORT, AZ US", "quality": 100, "contribution": 0.0}, "KFHU": {"distance": 18505.0, "latitude": 31.6, "longitude": -110.35, "useCount": 0, "id": "KFHU", "name": "KFHU", "quality": 100, "contribution": 0.0}, "99999953132": {"distance": 29588.0, "latitude": 31.591, "longitude": -110.509, "useCount": 0, "id": "99999953132", "name": "ELGIN 5 S, AZ US", "quality": 100, "contribution": 0.0}}}