{"queryCost": 1, "latitude": 40.573, "longitude": -74.269, "resolvedAddress": "40.57300,-74.26900", "address": "40.57300,-74.26900", "timezone": "America/New_York", "tzoffset": -4.0, "days": [{"datetime": "2015-10-05", "datetimeEpoch": 1444017600, "tempmax": 66.3, "tempmin": 50.2, "temp": 57.0, "feelslikemax": 66.3, "feelslikemin": 50.2, "feelslike": 57.0, "dew": 45.0, "humidity": 64.9, "precip": 0.0, "precipprob": 0.0, "precipcover": 0.0, "preciptype": null, "snow": 0.0, "snowdepth": 0.0, "windgust": 19.7, "windspeed": 12.6, "winddir": 26.1, "pressure": 1021.6, "cloudcover": 67.4, "visibility": 9.9, "solarradiation": 204.7, "solarenergy": 17.6, "uvindex": 7.0, "sunrise": "06:57:16", "sunriseEpoch": 1444042636, "sunset": "18:33:09", "sunsetEpoch": 1444084389, "moonphase": 0.79, "conditions": "Partially cloudy", "description": "Partly cloudy throughout the day.", "icon": "partly-cloudy-day", "stations": ["72505394728", "KEWR", "72502014734", "KNYC", "72409454743"], "source": "obs"}], "stations": {"72502014734": {"distance": 14812.0, "latitude": 40.683, "longitude": -74.169, "useCount": 0, "id": "72502014734", "name": "NEWARK LIBERTY INTERNATIONAL AIRPORT, NJ US", "quality": 100, "contribution": 0.0}, "72505394728": {"distance": 34148.0, "latitude": 40.779, "longitude": -73.969, "useCount": 0, "id": "72505394728", "name": "NY CITY CENTRAL PARK, NY US", "quality": 100, "contribution": 0.0}, "KEWR": {"distance": 16426.0, "latitude": 40.7, "longitude": -74.17, "useCount": 0, "id": "KEWR", "name": "KEWR", "quality": 100, "contribution": 0.0}, "KNYC": {"distance": 32807.0, "latitude": 40.77, "longitude": -73.98, "useCount": 0, "id": "KNYC", "name": "KNYC", "quality": 100, "contribution": 0.0}, "72409454743": {"distance": 33795.0, "latitude": 40.876, "longitude": -74.283, "useCount": 0, "id": "72409454743", "name": "CALDWELL ESSEX CO AIRPORT, NJ US", "quality": 100, "contribution": 0.0}}}