{"queryCost": 1, "latitude": 39.195, "longitude": -76.88, "resolvedAddress": "39.19500,-76.88000", "address": "39.19500,-76.88000", "timezone": "America/New_York", "tzoffset": -4.0, "days": [{"datetime": "2015-10-09", "datetimeEpoch": 1444363200, "tempmax": 78.4, "tempmin": 61.3, "temp": 67.2, "feelslikemax": 78.4, "feelslikemin": 61.3, "feelslike": 67.2, "dew": 60.8, "humidity": 80.8, "precip": 0.5, "precipprob": 100.0, "precipcover": 12.5, "preciptype": ["rain"], "snow": 0.0, "snowdepth": 0.0, "windgust": 30.0, "windspeed": 9.1, "winddir": 215.3, "pressure": 1014.0, "cloudcover": 71.1, "visibility": 9.5, "solarradiation": 180.7, "solarenergy": 15.6, "uvindex": 7.0, "sunrise": "07:10:54", "sunriseEpoch": 1444389054, "sunset": "18:38:06", "sunsetEpoch": 1444430286, "moonphase": 0.95, "conditions": "Rain, Partially cloudy", "description": "Partly cloudy throughout the day with late afternoon rain.", "icon": "rain", "stations": ["KDCA", "99999913752", "72406093721", "KGAI", "KBWI", "72033493764"], "source": "obs"}], "stations": {"KDCA": {"distance": 40537.0, "latitude": 38.85, "longitude": -77.03, "useCount": 0, "id": "KDCA", "name": "KDCA", "quality": 100, "contribution": 0.0}, "99999913752": {"distance": 40679.0, "latitude": 38.991, "longitude": -76.489, "useCount": 0, "id": "99999913752", "name": "ANNAPOLIS UNITED STATES NAVAL ACADEMY ASOS, MD US", "quality": 100, "contribution": 0.0}, "72406093721": {"distance": 17084.0, "latitude": 39.173, "longitude": -76.684, "useCount": 0, "id": "72406093721", "name": "BALTIMORE WASHINGTON INTERNATIONAL AIRPORT, MD US", "quality": 100, "contribution": 0.0}, "KGAI": {"distance": 25178.0, "latitude": 39.17, "longitude": -77.17, "useCount": 0, "id": "KGAI", "name": "GAITHERSBURG, MD", "quality": 100, "contribution": 0.0}, "KBWI": {"distance": 18196.0, "latitude": 39.18, "longitude": -76.67, "useCount": 0, "id": "KBWI", "name": "KBWI", "quality": 100, "contribution": 0.0}, "72033493764": {"distance": 24939.0, "latitude": 39.167, "longitude": -77.167, "useCount": 0, "id": "72033493764", "name": "GAITHERSBURG MONTGOMERY CO AIR PARK, MD US", "quality": 100, "contribution": 0.0}}}