{"queryCost": 1, "latitude": 41.285, "longitude": -72.419, "resolvedAddress": "41.28500,-72.41900", "address": "41.28500,-72.41900", "timezone": "America/New_York", "tzoffset": -4.0, "days": [{"datetime": "2015-10-10", "datetimeEpoch": 1444449600, "tempmax": 61.4, "tempmin": 47.1, "temp": 55.3, "feelslikemax": 61.4, "feelslikemin": 44.3, "feelslike": 55.1, "dew": 45.0, "humidity": 69.2, "precip": 0.0, "precipprob": 0.0, "precipcover": 0.0, "preciptype": null, "snow": 0.0, "snowdepth": 0.0, "windgust": 26.6, "windspeed": 15.1, "winddir": 258.7, "pressure": 1017.0, "cloudcover": 10.0, "visibility": 9.9, "solarradiation": 205.2, "solarenergy": 17.6, "uvindex": 7.0, "sunrise": "06:55:34", "sunriseEpoch": 1444474534, "sunset": "18:17:11", "sunsetEpoch": 1444515431, "moonphase": 0.98, "conditions": "Clear", "description": "Clear conditions throughout the day.", "icon": "clear-day", "stations": ["72504614707", "KHVN", "KGON", "72504514758", "72502754788"], "source": "obs"}], "stations": {"KGON": {"distance": 31260.0, "latitude": 41.33, "longitude": -72.05, "useCount": 0, "id": "KGON", "name": "KGON", "quality": 100, "contribution": 0.0}, "72504614707": {"distance": 31267.0, "latitude": 41.328, "longitude": -72.049, "useCount": 0, "id": "72504614707", "name": "GROTON NEW LONDON AIRPORT, CT US", "quality": 100, "contribution": 0.0}, "72504514758": {"distance": 39241.0, "latitude": 41.264, "longitude": -72.887, "useCount": 0, "id": "72504514758", "name": "NEW HAVEN TWEED AIRPORT, CT US", "quality": 100, "contribution": 0.0}, "KHVN": {"distance": 38603.0, "latitude": 41.27, "longitude": -72.88, "useCount": 0, "id": "KHVN", "name": "KHVN", "quality": 100, "contribution": 0.0}, "72502754788": {"distance": 42320.0, "latitude": 41.51, "longitude": -72.828, "useCount": 0, "id": "72502754788", "name": "MERIDEN MARKHAM MUNICIPAL AIRPORT, CT US", "quality": 100, "contribution": 0.0}}}