{"queryCost": 1, "latitude": 31.434, "longitude": -86.955, "resolvedAddress": "31.43400,-86.95500", "address": "31.43400,-86.95500", "timezone": "America/Chicago", "tzoffset": -5.0, "days": [{"datetime": "2015-10-14", "datetimeEpoch": 1444798800, "tempmax": 83.0, "tempmin": 47.3, "temp": 63.8, "feelslikemax": 80.9, "feelslikemin": 47.3, "feelslike": 63.4, "dew": 50.7, "humidity": 70.7, "precip": 0.0, "precipprob": 0.0, "precipcover": 0.0, "preciptype": null, "snow": 0.0, "snowdepth": 0.0, "windgust": null, "windspeed": 9.0, "winddir": 173.8, "pressure": 1016.4, "cloudcover": 1.1, "visibility": 8.5, "solarradiation": 240.7, "solarenergy": 20.7, "uvindex": 8.0, "sunrise": "06:49:53", "sunriseEpoch": 1444823393, "sunset": "18:17:19", "sunsetEpoch": 1444864639, "moonphase": 0.01, "conditions": "Clear", "description": "Clear conditions throughout the day.", "icon": "clear-day", "stations": ["KPRN", "99999963899", "KGZH", "72227653820", "72227553843", "K79J"], "source": "obs"}], "stations": {"KPRN": {"distance": 56688.0, "latitude": 31.85, "longitude": -86.61, "useCount": 0, "id": "KPRN", "name": "KPRN", "quality": 89, "contribution": 0.0}, "99999963899": {"distance": 33474.0, "latitude": 31.145, "longitude": -87.052, "useCount": 0, "id": "99999963899", "name": "BREWTON 3 NNE, AL US", "quality": 100, "contribution": 0.0}, "KGZH": {"distance": 9158.0, "latitude": 31.42, "longitude": -87.05, "useCount": 0, "id": "KGZH", "name": "KGZH", "quality": 100, "contribution": 0.0}, "72227653820": {"distance": 8717.0, "latitude": 31.416, "longitude": -87.044, "useCount": 0, "id": "72227653820", "name": "EVERGREEN MIDDLETON FIELD, AL US", "quality": 100, "contribution": 0.0}, "72227553843": {"distance": 55118.0, "latitude": 31.309, "longitude": -86.394, "useCount": 0, "id": "72227553843", "name": "ANDALUSIA OPP AIRPORT, AL US", "quality": 100, "contribution": 0.0}, "K79J": {"distance": 54252.0, "latitude": 31.32, "longitude": -86.4, "useCount": 0, "id": "K79J", "name": "K79J", "quality": 98, "contribution": 0.0}}}