{"queryCost": 1, "latitude": 39.973, "longitude": -76.749, "resolvedAddress": "39.97300,-76.74900", "address": "39.97300,-76.74900", "timezone": "America/New_York", "tzoffset": -4.0, "days": [{"datetime": "2015-10-17", "datetimeEpoch": 1445054400, "tempmax": 53.7, "tempmin": 36.9, "temp": 44.9, "feelslikemax": 53.7, "feelslikemin": 34.0, "feelslike": 42.5, "dew": 33.3, "humidity": 65.5, "precip": 0.0, "precipprob": 0.0, "precipcover": 0.0, "preciptype": null, "snow": 0.0, "snowdepth": 0.0, "windgust": 27.6, "windspeed": 15.6, "winddir": 306.8, "pressure": 1021.9, "cloudcover": 52.2, "visibility": 9.9, "solarradiation": 169.5, "solarenergy": 14.6, "uvindex": 6.0, "sunrise": "07:19:12", "sunriseEpoch": 1445080752, "sunset": "18:24:54", "sunsetEpoch": 1445120694, "moonphase": 0.09, "conditions": "Partially cloudy", "description": "Partly cloudy throughout the day.", "icon": "partly-cloudy-day", "stations": ["KMDT", "72511493778", "KTHV", "72511814751", "72399014711", "KCXY"], "source": "obs"}], "stations": {"KMDT": {"distance": 25333.0, "latitude": 40.2, "longitude": -76.77, "useCount": 0, "id": "KMDT", "name": "KMDT", "quality": 100, "contribution": 0.0}, "72511493778": {"distance": 12309.0, "latitude": 39.918, "longitude": -76.874, "useCount": 0, "id": "72511493778", "name": "YORK AIRPORT, PA US", "quality": 100, "contribution": 0.0}, "KTHV": {"distance": 11893.0, "latitude": 39.92, "longitude": -76.87, "useCount": 0, "id": "KTHV", "name": "KTHV", "quality": 100, "contribution": 0.0}, "72511814751": {"distance": 28549.0, "latitude": 40.217, "longitude": -76.851, "useCount": 0, "id": "72511814751", "name": "HARRISBURG CAPITAL CITY AIRPORT, PA US", "quality": 100, "contribution": 0.0}, "72399014711": {"distance": 24926.0, "latitude": 40.196, "longitude": -76.772, "useCount": 0, "id": "72399014711", "name": "MIDDLETOWN HARRISBURG INTERNATIONAL AIRPORT, PA US", "quality": 100, "contribution": 0.0}, "KCXY": {"distance": 28567.0, "latitude": 40.22, "longitude": -76.84, "useCount": 0, "id": "KCXY", "name": "KCXY", "quality": 100, "contribution": 0.0}}}