{"queryCost": 1, "latitude": 32.714, "longitude": -117.159, "resolvedAddress": "32.71400,-117.15900", "address": "32.71400,-117.15900", "timezone": "America/Los_Angeles", "tzoffset": -7.0, "days": [{"datetime": "2015-10-20", "datetimeEpoch": 1445324400, "tempmax": 75.3, "tempmin": 65.0, "temp": 69.8, "feelslikemax": 75.3, "feelslikemin": 65.0, "feelslike": 69.8, "dew": 58.0, "humidity": 66.4, "precip": 0.0, "precipprob": 0.0, "precipcover": 0.0, "preciptype": null, "snow": 0.0, "snowdepth": 0.0, "windgust": 18.6, "windspeed": 10.0, "winddir": 170.3, "pressure": 1011.4, "cloudcover": 76.3, "visibility": 9.9, "solarradiation": 183.6, "solarenergy": 15.8, "uvindex": 7.0, "sunrise": "06:56:17", "sunriseEpoch": 1445349377, "sunset": "18:10:03", "sunsetEpoch": 1445389803, "moonphase": 0.23, "conditions": "Partially cloudy", "description": "Partly cloudy throughout the day.", "icon": "partly-cloudy-day", "stations": ["KNZY", "KSAN", "72290693112", "72290023188", "KMYF", "72290303131"], "source": "obs"}], "stations": {"KNZY": {"distance": 5923.0, "latitude": 32.7, "longitude": -117.22, "useCount": 0, "id": "KNZY", "name": "KNZY", "quality": 100, "contribution": 0.0}, "KSAN": {"distance": 2058.0, "latitude": 32.73, "longitude": -117.17, "useCount": 0, "id": "KSAN", "name": "SAN DIEGO/LINDBE, CA", "quality": 100, "contribution": 0.0}, "72290693112": {"distance": 4145.0, "latitude": 32.7, "longitude": -117.2, "useCount": 0, "id": "72290693112", "name": "NORTH ISLAND NAS, CA US", "quality": 100, "contribution": 0.0}, "72290023188": {"distance": 3132.0, "latitude": 32.734, "longitude": -117.183, "useCount": 0, "id": "72290023188", "name": "SAN DIEGO INTERNATIONAL AIRPORT, CA US", "quality": 100, "contribution": 0.0}, "KMYF": {"distance": 12108.0, "latitude": 32.82, "longitude": -117.13, "useCount": 0, "id": "KMYF", "name": "KMYF", "quality": 100, "contribution": 0.0}, "72290303131": {"distance": 11486.0, "latitude": 32.816, "longitude": -117.139, "useCount": 0, "id": "72290303131", "name": "SAN DIEGO MONTGOMERY FIELD, CA US", "quality": 100, "contribution": 0.0}}}