{"queryCost": 1, "latitude": 34.5, "longitude": -84.601, "resolvedAddress": "34.50000,-84.60100", "address": "34.50000,-84.60100", "timezone": "America/New_York", "tzoffset": -4.0, "days": [{"datetime": "2015-10-25", "datetimeEpoch": 1445745600, "tempmax": 70.8, "tempmin": 60.2, "temp": 64.7, "feelslikemax": 70.8, "feelslikemin": 60.2, "feelslike": 64.7, "dew": 60.9, "humidity": 87.8, "precip": 0.0, "precipprob": 0.0, "precipcover": 0.0, "preciptype": null, "snow": 0.0, "snowdepth": 0.0, "windgust": 17.2, "windspeed": 5.9, "winddir": 64.2, "pressure": 1020.3, "cloudcover": 48.5, "visibility": 8.3, "solarradiation": 68.5, "solarenergy": 5.9, "uvindex": 2.0, "sunrise": "07:52:06", "sunriseEpoch": 1445773926, "sunset": "18:52:20", "sunsetEpoch": 1445813540, "moonphase": 0.47, "conditions": "Partially cloudy", "description": "Partly cloudy throughout the day.", "icon": "partly-cloudy-day", "stations": ["KRMG", "72320093801", "KRYY", "74781263813", "KVPC", "72215653873"], "source": "obs"}], "stations": {"KRMG": {"distance": 54851.0, "latitude": 34.35, "longitude": -85.17, "useCount": 0, "id": "KRMG", "name": "KRMG", "quality": 100, "contribution": 0.0}, "72320093801": {"distance": 54150.0, "latitude": 34.348, "longitude": -85.161, "useCount": 0, "id": "72320093801", "name": "ROME R B RUSSELL AIRPORT, GA US", "quality": 100, "contribution": 0.0}, "KRYY": {"distance": 54547.0, "latitude": 34.01, "longitude": -84.6, "useCount": 0, "id": "KRYY", "name": "MCCOLLUM FLD, GA", "quality": 100, "contribution": 0.0}, "74781263813": {"distance": 54202.0, "latitude": 34.013, "longitude": -84.599, "useCount": 0, "id": "74781263813", "name": "MARIETTA COBB CO MCCOLLUM FIELD AIRPORT, GA US", "quality": 100, "contribution": 0.0}, "KVPC": {"distance": 49082.0, "latitude": 34.11, "longitude": -84.85, "useCount": 0, "id": "KVPC", "name": "KVPC", "quality": 100, "contribution": 0.0}, "72215653873": {"distance": 47735.0, "latitude": 34.123, "longitude": -84.849, "useCount": 0, "id": "72215653873", "name": "CARTERSVILLE AIRPORT, GA US", "quality": 100, "contribution": 0.0}}}