{"queryCost": 1, "latitude": 60.287, "longitude": -151.283, "resolvedAddress": "60.28700,-151.28300", "address": "60.28700,-151.28300", "timezone": "America/Anchorage", "tzoffset": -8.0, "days": [{"datetime": "2015-10-24", "datetimeEpoch": 1445673600, "tempmax": 44.2, "tempmin": 35.7, "temp": 41.2, "feelslikemax": 41.6, "feelslikemin": 34.6, "feelslike": 38.1, "dew": 36.9, "humidity": 85.2, "precip": 0.13, "precipprob": 100.0, "precipcover": 37.5, "preciptype": ["rain"], "snow": 0.0, "snowdepth": 0.0, "windgust": null, "windspeed": 12.5, "winddir": 134.2, "pressure": 1004.3, "cloudcover": 93.0, "visibility": 9.6, "solarradiation": 26.3, "solarenergy": 2.2, "uvindex": 1.0, "sunrise": "09:07:54", "sunriseEpoch": 1445706474, "sunset": "18:29:36", "sunsetEpoch": 1445740176, "moonphase": 0.44, "conditions": "Rain, Overcast", "description": "Cloudy skies throughout the day with a chance of rain throughout the day.", "icon": "rain", "stations": ["PASX", "70259026523", "99999926563", "70341025507", "70259526559", "PAEN"], "source": "obs"}], "stations": {"PASX": {"distance": 25599.0, "latitude": 60.48, "longitude": -151.03, "useCount": 0, "id": "PASX", "name": "SOLDOTNA, AK", "quality": 97, "contribution": 0.0}, "70259026523": {"distance": 32673.0, "latitude": 60.58, "longitude": -151.239, "useCount": 0, "id": "70259026523", "name": "KENAI AIRPORT, AK US", "quality": 100, "contribution": 0.0}, "99999926563": {"distance": 66764.0, "latitude": 60.724, "longitude": -150.448, "useCount": 0, "id": "99999926563", "name": "KENAI 29 ENE, AK US", "quality": 100, "contribution": 0.0}, "70341025507": {"distance": 72730.0, "latitude": 59.642, "longitude": -151.491, "useCount": 0, "id": "70341025507", "name": "HOMER AIRPORT, AK US", "quality": 100, "contribution": 0.0}, "70259526559": {"distance": 25088.0, "latitude": 60.476, "longitude": -151.034, "useCount": 0, "id": "70259526559", "name": "SOLDOTNA AIRPORT, AK US", "quality": 96, "contribution": 0.0}, "PAEN": {"distance": 31556.0, "latitude": 60.57, "longitude": -151.25, "useCount": 0, "id": "PAEN", "name": "KENAI MUNICIPAL, AK", "quality": 100, "contribution": 0.0}}}