{"queryCost": 1, "latitude": 35.45, "longitude": -97.413, "resolvedAddress": "35.45000,-97.41300", "address": "35.45000,-97.41300", "timezone": "America/Chicago", "tzoffset": -5.0, "days": [{"datetime": "2015-10-05", "datetimeEpoch": 1444021200, "tempmax": 63.1, "tempmin": 54.0, "temp": 58.5, "feelslikemax": 63.1, "feelslikemin": 54.0, "feelslike": 58.5, "dew": 51.1, "humidity": 76.8, "precip": 0.0, "precipprob": 0.0, "precipcover": 0.0, "preciptype": null, "snow": 0.0, "snowdepth": 0.0, "windgust": null, "windspeed": 11.4, "winddir": 132.5, "pressure": 1020.5, "cloudcover": 60.1, "visibility": 9.9, "solarradiation": 137.4, "solarenergy": 11.9, "uvindex": 4.0, "sunrise": "07:27:28", "sunriseEpoch": 1444048048, "sunset": "19:08:10", "sunsetEpoch": 1444090090, "moonphase": 0.79, "conditions": "Partially cloudy", "description": "Partly cloudy throughout the day.", "icon": "partly-cloudy-day", "stations": ["72354013919", "72353013967", "KTIK", "KPWA", "KOKC", "72354403954"], "source": "obs"}], "stations": {"72354013919": {"distance": 4582.0, "latitude": 35.417, "longitude": -97.383, "useCount": 0, "id": "72354013919", "name": "OKLAHOMA CITY TINKER AFB, OK US", "quality": 99, "contribution": 0.0}, "72353013967": {"distance": 18327.0, "latitude": 35.389, "longitude": -97.601, "useCount": 0, "id": "72353013967", "name": "OKLAHOMA CITY WILL ROGERS WORLD AIRPORT, OK US", "quality": 100, "contribution": 0.0}, "KTIK": {"distance": 4485.0, "latitude": 35.42, "longitude": -97.38, "useCount": 0, "id": "KTIK", "name": "KTIK", "quality": 100, "contribution": 0.0}, "KPWA": {"distance": 23254.0, "latitude": 35.53, "longitude": -97.65, "useCount": 0, "id": "KPWA", "name": "KPWA", "quality": 100, "contribution": 0.0}, "KOKC": {"distance": 17853.0, "latitude": 35.4, "longitude": -97.6, "useCount": 0, "id": "KOKC", "name": "KOKC", "quality": 100, "contribution": 0.0}, "72354403954": {"distance": 23179.0, "latitude": 35.534, "longitude": -97.647, "useCount": 0, "id": "72354403954", "name": "OKLAHOMA CITY WILEY POST AIRPORT, OK US", "quality": 100, "contribution": 0.0}}}