{"queryCost": 1, "latitude": 32.81, "longitude": -96.628, "resolvedAddress": "32.81000,-96.62800", "address": "32.81000,-96.62800", "timezone": "America/Chicago", "tzoffset": -5.0, "days": [{"datetime": "2015-10-30", "datetimeEpoch": 1446181200, "tempmax": 67.2, "tempmin": 60.7, "temp": 63.9, "feelslikemax": 67.2, "feelslikemin": 60.7, "feelslike": 63.9, "dew": 58.8, "humidity": 83.9, "precip": 0.68, "precipprob": 100.0, "precipcover": 50.0, "preciptype": ["rain"], "snow": 0.0, "snowdepth": 0.0, "windgust": 34.9, "windspeed": 20.2, "winddir": 122.4, "pressure": 1008.3, "cloudcover": 82.5, "visibility": 7.8, "solarradiation": 41.5, "solarenergy": 3.3, "uvindex": 2.0, "sunrise": "07:42:22", "sunriseEpoch": 1446208942, "sunset": "18:37:28", "sunsetEpoch": 1446248248, "moonphase": 0.56, "conditions": "Rain, Partially cloudy", "description": "Partly cloudy throughout the day with rain.", "icon": "rain", "stations": ["KHQZ", "KDAL", "72259903971", "72104400448", "72258013960", "KF46"], "source": "obs"}], "stations": {"KHQZ": {"distance": 11346.0, "latitude": 32.75, "longitude": -96.53, "useCount": 0, "id": "KHQZ", "name": "KHQZ", "quality": 100, "contribution": 0.0}, "KDAL": {"distance": 21238.0, "latitude": 32.85, "longitude": -96.85, "useCount": 0, "id": "KDAL", "name": "KDAL", "quality": 100, "contribution": 0.0}, "72259903971": {"distance": 26687.0, "latitude": 32.681, "longitude": -96.868, "useCount": 0, "id": "72259903971", "name": "DALLAS REDBIRD AIRPORT, TX US", "quality": 99, "contribution": 0.0}, "72104400448": {"distance": 22454.0, "latitude": 32.931, "longitude": -96.435, "useCount": 0, "id": "72104400448", "name": "RALPH M HALL ROCKWALL MUNICIPAL AIRPORT, TX US", "quality": 100, "contribution": 0.0}, "72258013960": {"distance": 21785.0, "latitude": 32.852, "longitude": -96.855, "useCount": 0, "id": "72258013960", "name": "DALLAS FAA AIRPORT, TX US", "quality": 100, "contribution": 0.0}, "KF46": {"distance": 22829.0, "latitude": 32.93, "longitude": -96.43, "useCount": 0, "id": "KF46", "name": "KF46", "quality": 100, "contribution": 0.0}}}