{"queryCost": 1, "latitude": 42.908, "longitude": -71.337, "resolvedAddress": "42.90800,-71.33700", "address": "42.90800,-71.33700", "timezone": "America/New_York", "tzoffset": -5.0, "days": [{"datetime": "2015-01-21", "datetimeEpoch": 1421816400, "tempmax": 30.0, "tempmin": 16.3, "temp": 24.0, "feelslikemax": 30.0, "feelslikemin": 7.7, "feelslike": 18.5, "dew": 7.2, "humidity": 49.1, "precip": 0.0, "precipprob": 0.0, "precipcover": 0.0, "preciptype": null, "snow": 0.0, "snowdepth": 1.2, "windgust": 18.3, "windspeed": 11.1, "winddir": 230.5, "pressure": 1023.6, "cloudcover": 47.8, "visibility": 9.9, "solarradiation": 87.5, "solarenergy": 7.5, "uvindex": 5.0, "sunrise": "07:10:11", "sunriseEpoch": 1421842211, "sunset": "16:43:29", "sunsetEpoch": 1421876609, "moonphase": 0.01, "conditions": "Partially cloudy", "description": "Partly cloudy throughout the day.", "icon": "partly-cloudy-day", "stations": ["KLWM", "KASH", "KMHT", "74394514710", "74394654754", "74490494723"], "source": "obs"}], "stations": {"KLWM": {"distance": 27422.0, "latitude": 42.72, "longitude": -71.12, "useCount": 0, "id": "KLWM", "name": "KLWM", "quality": 100, "contribution": 0.0}, "KASH": {"distance": 20643.0, "latitude": 42.78, "longitude": -71.52, "useCount": 0, "id": "KASH", "name": "NASHUA/BOIRE FIE, NH", "quality": 100, "contribution": 0.0}, "KMHT": {"distance": 7967.0, "latitude": 42.93, "longitude": -71.43, "useCount": 0, "id": "KMHT", "name": "KMHT", "quality": 100, "contribution": 0.0}, "74394514710": {"distance": 8398.0, "latitude": 42.93, "longitude": -71.436, "useCount": 0, "id": "74394514710", "name": "MANCHESTER AIRPORT, NH US", "quality": 100, "contribution": 0.0}, "74394654754": {"distance": 20194.0, "latitude": 42.783, "longitude": -71.517, "useCount": 0, "id": "74394654754", "name": "NASHUA BOIRE FIELD, NH US", "quality": 100, "contribution": 0.0}, "74490494723": {"distance": 27458.0, "latitude": 42.717, "longitude": -71.124, "useCount": 0, "id": "74490494723", "name": "LAWRENCE MUNICIPAL AIRPORT, MA US", "quality": 100, "contribution": 0.0}}}