{"queryCost": 1, "latitude": 31.125, "longitude": -92.05, "resolvedAddress": "31.12500,-92.05000", "address": "31.12500,-92.05000", "timezone": "America/Chicago", "tzoffset": -6.0, "days": [{"datetime": "2015-11-03", "datetimeEpoch": 1446530400, "tempmax": 72.7, "tempmin": 65.7, "temp": 68.5, "feelslikemax": 72.7, "feelslikemin": 65.7, "feelslike": 68.5, "dew": 64.2, "humidity": 86.2, "precip": 0.0, "precipprob": 0.0, "precipcover": 0.0, "preciptype": null, "snow": 0.0, "snowdepth": 0.0, "windgust": null, "windspeed": 4.7, "winddir": 74.8, "pressure": 1017.4, "cloudcover": 93.3, "visibility": 9.2, "solarradiation": 148.2, "solarenergy": 12.7, "uvindex": 5.0, "sunrise": "06:25:00", "sunriseEpoch": 1446553500, "sunset": "17:18:03", "sunsetEpoch": 1446592683, "moonphase": 0.75, "conditions": "Overcast", "description": "Cloudy skies throughout the day.", "icon": "cloudy", "stations": ["72046800466", "72034653991", "72248713935", "KAEX", "74754093915", "KESF"], "source": "obs"}], "stations": {"72046800466": {"distance": 63250.0, "latitude": 30.558, "longitude": -92.099, "useCount": 0, "id": "72046800466", "name": "ST LANDRY PARISH AIRPORT AHART FIELD, LA US", "quality": 100, "contribution": 0.0}, "72034653991": {"distance": 73853.0, "latitude": 30.75, "longitude": -92.688, "useCount": 0, "id": "72034653991", "name": "OAKDALE ALLEN PARISH AIRPORT, LA US", "quality": 100, "contribution": 0.0}, "72248713935": {"distance": 37815.0, "latitude": 31.395, "longitude": -92.291, "useCount": 0, "id": "72248713935", "name": "ALEXANDRIA ESLER FIELD, LA US", "quality": 99, "contribution": 0.0}, "KAEX": {"distance": 52784.0, "latitude": 31.33, "longitude": -92.55, "useCount": 0, "id": "KAEX", "name": "KAEX", "quality": 100, "contribution": 0.0}, "74754093915": {"distance": 53747.0, "latitude": 31.335, "longitude": -92.559, "useCount": 0, "id": "74754093915", "name": "ALEXANDRIA INTERNATIONAL AIRPORT, LA US", "quality": 100, "contribution": 0.0}, "KESF": {"distance": 38769.0, "latitude": 31.4, "longitude": -92.3, "useCount": 0, "id": "KESF", "name": "ALEXANDRIA/ESLER, LA", "quality": 100, "contribution": 0.0}}}