{"queryCost": 1, "latitude": 38.538, "longitude": -90.341, "resolvedAddress": "38.53800,-90.34100", "address": "38.53800,-90.34100", "timezone": "America/Chicago", "tzoffset": -6.0, "days": [{"datetime": "2015-11-05", "datetimeEpoch": 1446703200, "tempmax": 68.0, "tempmin": 60.5, "temp": 64.8, "feelslikemax": 68.0, "feelslikemin": 60.5, "feelslike": 64.8, "dew": 59.5, "humidity": 83.3, "precip": 0.76, "precipprob": 100.0, "precipcover": 37.5, "preciptype": ["rain"], "snow": 0.0, "snowdepth": 0.0, "windgust": 21.9, "windspeed": 10.8, "winddir": 163.5, "pressure": 1015.1, "cloudcover": 81.2, "visibility": 8.8, "solarradiation": 57.5, "solarenergy": 5.1, "uvindex": 4.0, "sunrise": "06:32:01", "sunriseEpoch": 1446726721, "sunset": "16:57:20", "sunsetEpoch": 1446764240, "moonphase": 0.85, "conditions": "Rain, Partially cloudy", "description": "Partly cloudy throughout the day with rain.", "icon": "rain", "stations": ["KSTL", "72434503966", "KSUS", "KCPS", "72434013994", "72531403960"], "source": "obs"}], "stations": {"KSTL": {"distance": 23734.0, "latitude": 38.75, "longitude": -90.37, "useCount": 0, "id": "KSTL", "name": "KSTL", "quality": 100, "contribution": 0.0}, "72434503966": {"distance": 30433.0, "latitude": 38.657, "longitude": -90.656, "useCount": 0, "id": "72434503966", "name": "ST LOUIS SPIRIT OF ST LOUIS AIRPORT, MO US", "quality": 100, "contribution": 0.0}, "KSUS": {"distance": 30635.0, "latitude": 38.67, "longitude": -90.65, "useCount": 0, "id": "KSUS", "name": "KSUS", "quality": 100, "contribution": 0.0}, "KCPS": {"distance": 17005.0, "latitude": 38.57, "longitude": -90.15, "useCount": 0, "id": "KCPS", "name": "KCPS", "quality": 100, "contribution": 0.0}, "72434013994": {"distance": 24046.0, "latitude": 38.753, "longitude": -90.374, "useCount": 0, "id": "72434013994", "name": "ST LOUIS LAMBERT INTERNATIONAL AIRPORT, MO US", "quality": 100, "contribution": 0.0}, "72531403960": {"distance": 16427.0, "latitude": 38.571, "longitude": -90.157, "useCount": 0, "id": "72531403960", "name": "CAHOKIA ST LOUIS DOWNTOWN AIRPORT, IL US", "quality": 100, "contribution": 0.0}}}