{"queryCost": 1, "latitude": 34.981, "longitude": -80.04, "resolvedAddress": "34.98100,-80.04000", "address": "34.98100,-80.04000", "timezone": "America/New_York", "tzoffset": -5.0, "days": [{"datetime": "2015-11-06", "datetimeEpoch": 1446786000, "tempmax": 72.4, "tempmin": 66.1, "temp": 69.3, "feelslikemax": 72.4, "feelslikemin": 66.1, "feelslike": 69.3, "dew": 66.7, "humidity": 91.6, "precip": 0.07, "precipprob": 100.0, "precipcover": 8.33, "preciptype": ["rain"], "snow": 0.0, "snowdepth": 0.0, "windgust": null, "windspeed": 5.9, "winddir": 221.3, "pressure": 1014.9, "cloudcover": 97.6, "visibility": 7.7, "solarradiation": 103.8, "solarenergy": 9.1, "uvindex": 4.0, "sunrise": "06:45:36", "sunriseEpoch": 1446810336, "sunset": "17:21:28", "sunsetEpoch": 1446848488, "moonphase": 0.89, "conditions": "Rain, Overcast", "description": "Cloudy skies throughout the day with afternoon rain.", "icon": "rain", "stations": ["72529400383", "KAFP", "72224303738", "72060500197", "KCQW", "KRCZ"], "source": "obs"}], "stations": {"72529400383": {"distance": 5607.0, "latitude": 35.017, "longitude": -80.083, "useCount": 0, "id": "72529400383", "name": "ANSON CO AIRPORT JEFF CLOUD FIELD, NC US", "quality": 100, "contribution": 0.0}, "KAFP": {"distance": 5670.0, "latitude": 35.02, "longitude": -80.08, "useCount": 0, "id": "KAFP", "name": "KAFP", "quality": 93, "contribution": 0.0}, "72224303738": {"distance": 27510.0, "latitude": 34.891, "longitude": -79.759, "useCount": 0, "id": "72224303738", "name": "ROCKINGHAM HAMLET AIRPORT, NC US", "quality": 100, "contribution": 0.0}, "72060500197": {"distance": 30517.0, "latitude": 34.717, "longitude": -79.95, "useCount": 0, "id": "72060500197", "name": "CHERAW MUNICIPAL AIRPORT LYNCH BELLINGER FIELD, SC US", "quality": 100, "contribution": 0.0}, "KCQW": {"distance": 30457.0, "latitude": 34.72, "longitude": -79.94, "useCount": 0, "id": "KCQW", "name": "KCQW", "quality": 99, "contribution": 0.0}, "KRCZ": {"distance": 27487.0, "latitude": 34.89, "longitude": -79.76, "useCount": 0, "id": "KRCZ", "name": "KRCZ", "quality": 90, "contribution": 0.0}}}