{"queryCost": 1, "latitude": 39.717, "longitude": -121.848, "resolvedAddress": "39.71700,-121.84800", "address": "39.71700,-121.84800", "timezone": "America/Los_Angeles", "tzoffset": -8.0, "days": [{"datetime": "2015-11-10", "datetimeEpoch": 1447142400, "tempmax": 59.0, "tempmin": 38.1, "temp": 48.7, "feelslikemax": 59.0, "feelslikemin": 38.1, "feelslike": 48.4, "dew": 42.0, "humidity": 79.5, "precip": 0.0, "precipprob": 0.0, "precipcover": 0.0, "preciptype": null, "snow": 0.0, "snowdepth": 0.0, "windgust": 18.3, "windspeed": 8.7, "winddir": 293.0, "pressure": 1023.3, "cloudcover": 26.2, "visibility": 14.0, "solarradiation": 148.3, "solarenergy": 12.9, "uvindex": 6.0, "sunrise": "06:46:02", "sunriseEpoch": 1447166762, "sunset": "16:56:04", "sunsetEpoch": 1447203364, "moonphase": 1.0, "conditions": "Partially cloudy", "description": "Partly cloudy throughout the day.", "icon": "partly-cloudy-day", "stations": ["KOVE", "KCIC", "KRBL", "74504893210", "72591024216"], "source": "obs"}], "stations": {"KOVE": {"distance": 31952.0, "latitude": 39.49, "longitude": -121.62, "useCount": 0, "id": "KOVE", "name": "KOVE", "quality": 100, "contribution": 0.0}, "KCIC": {"distance": 8128.0, "latitude": 39.79, "longitude": -121.85, "useCount": 0, "id": "KCIC", "name": "KCIC", "quality": 82, "contribution": 0.0}, "KRBL": {"distance": 59168.0, "latitude": 40.15, "longitude": -122.25, "useCount": 0, "id": "KRBL", "name": "KRBL", "quality": 100, "contribution": 0.0}, "74504893210": {"distance": 32058.0, "latitude": 39.49, "longitude": -121.618, "useCount": 0, "id": "74504893210", "name": "OROVILLE MUNICIPAL AIRPORT, CA US", "quality": 100, "contribution": 0.0}, "72591024216": {"distance": 59538.0, "latitude": 40.152, "longitude": -122.254, "useCount": 0, "id": "72591024216", "name": "RED BLUFF MUNICIPAL AIRPORT, CA US", "quality": 100, "contribution": 0.0}}}