{"queryCost": 1, "latitude": 33.57, "longitude": -81.734, "resolvedAddress": "33.57000,-81.73400", "address": "33.57000,-81.73400", "timezone": "America/New_York", "tzoffset": -5.0, "days": [{"datetime": "2015-11-11", "datetimeEpoch": 1447218000, "tempmax": 72.2, "tempmin": 43.0, "temp": 55.7, "feelslikemax": 72.2, "feelslikemin": 43.0, "feelslike": 55.4, "dew": 46.5, "humidity": 76.1, "precip": 0.0, "precipprob": 0.0, "precipcover": 0.0, "preciptype": null, "snow": 0.0, "snowdepth": 0.0, "windgust": null, "windspeed": 7.1, "winddir": 180.2, "pressure": 1017.0, "cloudcover": 1.1, "visibility": 9.5, "solarradiation": 180.3, "solarenergy": 15.5, "uvindex": 7.0, "sunrise": "06:54:39", "sunriseEpoch": 1447242879, "sunset": "17:26:48", "sunsetEpoch": 1447280808, "moonphase": 1.0, "conditions": "Clear", "description": "Clear conditions throughout the day.", "icon": "clear-day", "stations": ["72218113837", "KAGS", "72218003820", "KDNL", "KAIK", "72060100193"], "source": "obs"}], "stations": {"72218113837": {"distance": 30510.0, "latitude": 33.467, "longitude": -82.039, "useCount": 0, "id": "72218113837", "name": "AUGUSTA DANIEL FIELD AIRPORT, GA US", "quality": 100, "contribution": 0.0}, "KAGS": {"distance": 32044.0, "latitude": 33.36, "longitude": -81.97, "useCount": 0, "id": "KAGS", "name": "KAGS", "quality": 100, "contribution": 0.0}, "72218003820": {"distance": 31261.0, "latitude": 33.364, "longitude": -81.963, "useCount": 0, "id": "72218003820", "name": "AUGUSTA BUSH FIELD AIRPORT, GA US", "quality": 100, "contribution": 0.0}, "KDNL": {"distance": 30503.0, "latitude": 33.47, "longitude": -82.04, "useCount": 0, "id": "KDNL", "name": "KDNL", "quality": 100, "contribution": 0.0}, "KAIK": {"distance": 9795.0, "latitude": 33.65, "longitude": -81.69, "useCount": 0, "id": "KAIK", "name": "KAIK", "quality": 98, "contribution": 0.0}, "72060100193": {"distance": 10083.0, "latitude": 33.65, "longitude": -81.683, "useCount": 0, "id": "72060100193", "name": "AIKEN MUNICIPAL AIRPORT, SC US", "quality": 99, "contribution": 0.0}}}