{"queryCost": 1, "latitude": 47.247, "longitude": -123.122, "resolvedAddress": "47.24700,-123.12200", "address": "47.24700,-123.12200", "timezone": "America/Los_Angeles", "tzoffset": -8.0, "days": [{"datetime": "2015-01-02", "datetimeEpoch": 1420185600, "tempmax": 38.0, "tempmin": 25.1, "temp": 32.0, "feelslikemax": 37.1, "feelslikemin": 25.1, "feelslike": 30.8, "dew": 30.6, "humidity": 94.4, "precip": 0.08, "precipprob": 100.0, "precipcover": 12.5, "preciptype": ["rain"], "snow": 0.0, "snowdepth": 0.0, "windgust": 16.1, "windspeed": 8.1, "winddir": 252.1, "pressure": 1021.1, "cloudcover": 63.4, "visibility": 6.3, "solarradiation": 36.6, "solarenergy": 3.1, "uvindex": 2.0, "sunrise": "07:59:21", "sunriseEpoch": 1420214361, "sunset": "16:33:56", "sunsetEpoch": 1420245236, "moonphase": 0.46, "conditions": "Rain, Partially cloudy", "description": "Partly cloudy throughout the day with afternoon rain.", "icon": "rain", "stations": ["72792024227", "KPWT", "72792894263", "KOLM", "72792594227", "KSHN"], "source": "obs"}], "stations": {"72792024227": {"distance": 34693.0, "latitude": 46.973, "longitude": -122.903, "useCount": 0, "id": "72792024227", "name": "OLYMPIA AIRPORT, WA US", "quality": 100, "contribution": 0.0}, "KPWT": {"distance": 39745.0, "latitude": 47.5, "longitude": -122.75, "useCount": 0, "id": "KPWT", "name": "BREMERTON, WA", "quality": 100, "contribution": 0.0}, "72792894263": {"distance": 37529.0, "latitude": 47.483, "longitude": -122.767, "useCount": 0, "id": "72792894263", "name": "BREMERTON, WA US", "quality": 100, "contribution": 0.0}, "KOLM": {"distance": 35125.0, "latitude": 46.97, "longitude": -122.9, "useCount": 0, "id": "KOLM", "name": "KOLM", "quality": 100, "contribution": 0.0}, "72792594227": {"distance": 1751.0, "latitude": 47.238, "longitude": -123.141, "useCount": 0, "id": "72792594227", "name": "SHELTON AIRPORT, WA US", "quality": 100, "contribution": 0.0}, "KSHN": {"distance": 2839.0, "latitude": 47.23, "longitude": -123.15, "useCount": 0, "id": "KSHN", "name": "KSHN", "quality": 100, "contribution": 0.0}}}