{"queryCost": 1, "latitude": 37.763, "longitude": -122.422, "resolvedAddress": "37.76300,-122.42200", "address": "37.76300,-122.42200", "timezone": "America/Los_Angeles", "tzoffset": -8.0, "days": [{"datetime": "2015-01-04", "datetimeEpoch": 1420358400, "tempmax": 53.0, "tempmin": 40.1, "temp": 46.3, "feelslikemax": 53.0, "feelslikemin": 38.8, "feelslike": 45.8, "dew": 39.0, "humidity": 76.2, "precip": 0.0, "precipprob": 0.0, "precipcover": 0.0, "preciptype": null, "snow": 0.0, "snowdepth": 0.0, "windgust": null, "windspeed": 7.8, "winddir": 121.4, "pressure": 1028.6, "cloudcover": 52.4, "visibility": 7.8, "solarradiation": 102.7, "solarenergy": 8.9, "uvindex": 4.0, "sunrise": "07:25:30", "sunriseEpoch": 1420385130, "sunset": "17:04:00", "sunsetEpoch": 1420419840, "moonphase": 0.5, "conditions": "Partially cloudy", "description": "Partly cloudy throughout the day.", "icon": "partly-cloudy-day", "stations": ["KSFO", "72493023230", "72064600228", "KHWD", "KOAK", "72494023234"], "source": "obs"}], "stations": {"KSFO": {"distance": 17429.0, "latitude": 37.61, "longitude": -122.38, "useCount": 0, "id": "KSFO", "name": "KSFO", "quality": 100, "contribution": 0.0}, "72493023230": {"distance": 18290.0, "latitude": 37.721, "longitude": -122.221, "useCount": 0, "id": "72493023230", "name": "OAKLAND METROPOLITAN, CA US", "quality": 100, "contribution": 0.0}, "72064600228": {"distance": 28688.0, "latitude": 37.513, "longitude": -122.501, "useCount": 0, "id": "72064600228", "name": "HALF MOON BAY AIRPORT, CA US", "quality": 100, "contribution": 0.0}, "KHWD": {"distance": 28538.0, "latitude": 37.67, "longitude": -122.12, "useCount": 0, "id": "KHWD", "name": "KHWD", "quality": 100, "contribution": 0.0}, "KOAK": {"distance": 18415.0, "latitude": 37.72, "longitude": -122.22, "useCount": 0, "id": "KOAK", "name": "KOAK", "quality": 100, "contribution": 0.0}, "72494023234": {"distance": 16724.0, "latitude": 37.62, "longitude": -122.365, "useCount": 0, "id": "72494023234", "name": "SAN FRANCISCO INTERNATIONAL AIRPORT, CA US", "quality": 100, "contribution": 0.0}}}